NMEA,$GPGSV,3,1,12,04,05,329,16,05,12,090,35,12,11,107,30,18,37,174,25,1*6C,1746258482008
NMEA,$GPGSV,3,2,12,20,14,054,26,25,45,108,30,26,31,299,43,28,57,234,28,1*6C,1746258482008
NMEA,$GPGSV,3,3,12,29,74,040,40,31,51,283,44,11,05,033,,16,05,292,,1*6E,1746258482008
NMEA,$GPGSV,2,1,06,04,05,329,17,18,37,174,21,25,45,108,35,26,31,299,37,8*62,1746258482008
NMEA,$GPGSV,2,2,06,28,57,234,31,11,05,033,,8*61,1746258482008
NMEA,$GLGSV,2,1,08,,00,000,32,82,33,035,41,73,82,004,42,80,34,127,25,1*7B,1746258482008
NMEA,$GLGSV,2,2,08,65,06,343,26,84,30,202,21,83,76,067,30,72,02,293,,1*7E,1746258482008
NMEA,$GAGSV,3,1,12,03,06,331,22,05,17,283,24,09,09,233,16,10,07,189,21,7*7A,1746258482008
NMEA,$GAGSV,3,2,12,12,26,177,20,16,16,293,36,23,27,103,31,24,42,298,34,7*78,1746258482008
NMEA,$GAGSV,3,3,12,26,28,045,40,31,77,062,41,33,56,108,31,06,01,212,,7*76,1746258482008
NMEA,$GAGSV,3,1,11,03,06,331,22,05,17,283,28,09,09,233,25,10,07,189,22,1*70,1746258482008
NMEA,$GAGSV,3,2,11,12,26,177,16,16,16,293,38,23,27,103,21,24,42,298,30,1*73,1746258482008
NMEA,$GAGSV,3,3,11,26,28,045,38,31,77,062,34,33,56,108,36,1*4F,1746258482008
NMEA,$GBGSV,3,1,10,45,80,250,40,38,19,055,28,36,40,143,34,35,22,221,31,1*73,1746258482008
NMEA,$GBGSV,3,2,10,30,37,052,44,29,80,172,39,26,26,309,43,13,21,084,32,1*7A,1746258482008
NMEA,$GBGSV,3,3,10,08,22,066,30,05,16,120,,1*7D,1746258482008
NMEA,$GBGSV,2,1,07,26,26,309,38,29,80,172,39,30,37,052,44,35,22,221,27,3*7E,1746258482008
NMEA,$GBGSV,2,2,07,36,40,143,35,38,19,055,26,45,80,250,43,3*4C,1746258482008
NMEA,$GBGSV,2,1,07,26,26,309,35,29,80,172,34,30,37,052,30,35,22,221,27,5*7B,1746258482008
NMEA,$GBGSV,2,2,07,36,40,143,28,38,19,055,23,45,80,250,39,5*4E,1746258482008
NMEA,$GNGSA,A,3,04,05,12,18,20,25,26,28,29,31,,,0.6,0.4,0.4,1*3E,1746258482031
NMEA,$GNGSA,A,3,65,73,80,82,83,84,,,,,,,0.6,0.4,0.4,2*36,1746258482031
NMEA,$GNGSA,A,3,03,05,09,10,12,16,23,24,26,31,33,,0.6,0.4,0.4,3*3E,1746258482031
NMEA,$GNGSA,A,3,08,13,26,29,30,35,36,38,45,,,,0.6,0.4,0.4,4*3D,1746258482031
NMEA,$GNVTG,,T,,M,0.0,N,0.0,K,A*3D,1746258482031
NMEA,$GNDTM,P90,,0000.000026,S,00000.000000,E,0.978,W84*5C,1746258482031
NMEA,$GNRMC,074802.00,A,4504.227580,N,00741.118857,E,0.0,,030525,3.3,E,A,V*78,1746258482031
NMEA,$GNGNS,074802.00,4504.227580,N,00741.118857,E,AAAANN,36,0.4,246.4,48.0,,,V*2D,1746258482031
NMEA,$GNGGA,074802.00,4504.227580,N,00741.118857,E,1,12,0.4,246.4,M,48.0,M,,*7B,1746258482031
NMEA,$GPGSV,3,1,12,04,05,329,20,05,12,090,40,12,11,107,33,18,37,174,24,1*69,1746258483007
NMEA,$GPGSV,3,2,12,20,14,054,20,25,45,108,35,26,31,299,44,28,57,234,26,1*66,1746258483007
NMEA,$GPGSV,3,3,12,29,74,040,38,31,51,283,46,11,05,033,,16,05,292,,1*63,1746258483007
NMEA,$GPGSV,2,1,06,04,05,329,17,18,37,174,26,25,45,108,36,26,31,299,33,8*62,1746258483007
NMEA,$GPGSV,2,2,06,28,57,234,31,11,05,033,,8*61,1746258483007
NMEA,$GLGSV,2,1,08,,00,000,33,82,33,035,44,73,82,004,45,80,34,127,36,1*7A,1746258483007
NMEA,$GLGSV,2,2,08,65,06,343,23,84,30,202,21,83,76,067,31,72,02,293,,1*7A,1746258483007
NMEA,$GAGSV,3,1,12,03,06,331,24,05,17,283,27,09,09,233,16,10,07,189,24,7*7A,1746258483007
NMEA,$GAGSV,3,2,12,12,26,177,20,16,16,293,38,23,27,103,31,24,42,298,40,7*75,1746258483007
NMEA,$GAGSV,3,3,12,26,28,045,42,31,77,062,43,33,56,108,36,06,01,212,,7*71,1746258483007
NMEA,$GAGSV,3,1,11,03,06,331,22,05,17,283,25,09,09,233,24,10,07,189,21,1*7F,1746258483007
NMEA,$GAGSV,3,2,11,12,26,177,19,16,16,293,35,23,27,103,27,24,42,298,32,1*75,1746258483007
NMEA,$GAGSV,3,3,11,26,28,045,39,31,77,062,32,33,56,108,36,1*48,1746258483007
NMEA,$GBGSV,3,1,10,45,80,250,40,38,19,055,26,36,40,143,37,35,22,221,31,1*7E,1746258483007
NMEA,$GBGSV,3,2,10,30,37,052,45,29,80,172,41,26,26,309,48,13,21,084,33,1*7E,1746258483007
NMEA,$GBGSV,3,3,10,08,22,066,29,05,16,120,,1*75,1746258483007
NMEA,$GBGSV,2,1,07,26,26,309,45,29,80,172,41,30,37,052,46,35,22,221,27,3*79,1746258483007
NMEA,$GBGSV,2,2,07,36,40,143,33,38,19,055,25,45,80,250,44,3*4E,1746258483007
NMEA,$GBGSV,2,1,07,26,26,309,32,29,80,172,33,30,37,052,35,35,22,221,26,5*7F,1746258483007
NMEA,$GBGSV,2,2,07,36,40,143,25,38,19,055,25,45,80,250,38,5*44,1746258483007
NMEA,$GNGSA,A,3,04,05,12,18,20,25,26,28,29,31,,,0.6,0.3,0.4,1*39,1746258483033
NMEA,$GNGSA,A,3,65,73,80,82,83,84,,,,,,,0.6,0.3,0.4,2*31,1746258483033
NMEA,$GNGSA,A,3,03,05,09,10,12,16,23,24,26,31,33,,0.6,0.3,0.4,3*39,1746258483033
NMEA,$GNGSA,A,3,08,13,26,29,30,35,36,38,45,,,,0.6,0.3,0.4,4*3A,1746258483033
NMEA,$GNVTG,,T,,M,0.0,N,0.0,K,A*3D,1746258483033
NMEA,$GNDTM,P90,,0000.000026,S,00000.000000,E,0.978,W84*5C,1746258483033
NMEA,$GNRMC,074803.00,A,4504.227676,N,00741.118752,E,0.0,,030525,3.3,E,A,V*79,1746258483033
NMEA,$GNGNS,074803.00,4504.227676,N,00741.118752,E,AAAANN,36,0.3,246.6,48.0,,,V*29,1746258483033
NMEA,$GNGGA,074803.00,4504.227676,N,00741.118752,E,1,12,0.3,246.6,M,48.0,M,,*7F,1746258483033
NMEA,$GPGSV,3,1,12,04,05,329,20,05,12,090,27,12,11,107,30,18,37,174,25,1*6A,1746258484006
NMEA,$GPGSV,3,2,12,20,14,054,20,25,45,108,35,26,31,299,42,28,57,234,33,1*64,1746258484006
NMEA,$GPGSV,3,3,12,29,74,040,39,31,51,283,47,11,05,033,,16,05,292,,1*63,1746258484006
NMEA,$GPGSV,2,1,06,04,05,329,17,18,37,174,25,25,45,108,37,26,31,299,37,8*64,1746258484006
NMEA,$GPGSV,2,2,06,28,57,234,33,11,05,033,,8*63,1746258484006
NMEA,$GLGSV,2,1,08,,00,000,27,82,33,035,44,73,82,004,41,80,34,127,29,1*75,1746258484006
NMEA,$GLGSV,2,2,08,65,06,343,23,84,30,202,19,83,76,067,28,72,02,293,,1*79,1746258484006
NMEA,$GAGSV,3,1,12,03,06,331,23,05,17,283,28,09,09,233,25,10,07,189,22,7*74,1746258484006
NMEA,$GAGSV,3,2,12,12,26,177,22,16,16,293,41,23,27,103,29,24,42,298,42,7*72,1746258484006
NMEA,$GAGSV,3,3,12,26,28,045,40,31,77,062,41,33,56,108,31,06,01,212,,7*76,1746258484006
NMEA,$GAGSV,3,1,11,03,06,331,20,05,17,283,27,09,09,233,29,10,07,189,21,1*72,1746258484006
NMEA,$GAGSV,3,2,11,12,26,177,19,16,16,293,37,23,27,103,28,24,42,298,26,1*7D,1746258484006
NMEA,$GAGSV,3,3,11,26,28,045,39,31,77,062,30,33,56,108,32,1*4E,1746258484006
NMEA,$GBGSV,3,1,10,45,80,250,39,38,19,055,23,36,40,143,29,35,22,221,32,1*79,1746258484006
NMEA,$GBGSV,3,2,10,30,37,052,38,29,80,172,39,26,26,309,46,13,21,084,29,1*7E,1746258484006
NMEA,$GBGSV,3,3,10,08,22,066,27,05,16,120,,1*7B,1746258484006
NMEA,$GBGSV,2,1,07,26,26,309,46,29,80,172,39,30,37,052,44,35,22,221,28,3*78,1746258484006
NMEA,$GBGSV,2,2,07,36,40,143,32,38,19,055,28,45,80,250,42,3*44,1746258484006
NMEA,$GBGSV,2,1,07,26,26,309,34,29,80,172,35,30,37,052,36,35,22,221,26,5*7C,1746258484006
NMEA,$GBGSV,2,2,07,36,40,143,31,38,19,055,20,45,80,250,38,5*44,1746258484006
NMEA,$GNGSA,A,3,04,05,12,18,20,25,26,28,29,31,,,0.6,0.3,0.4,1*39,1746258484032
NMEA,$GNGSA,A,3,65,73,80,82,83,84,,,,,,,0.6,0.3,0.4,2*31,1746258484032
NMEA,$GNGSA,A,3,03,05,09,10,12,16,23,24,26,31,33,,0.6,0.3,0.4,3*39,1746258484032
NMEA,$GNGSA,A,3,08,13,26,29,30,35,36,38,45,,,,0.6,0.3,0.4,4*3A,1746258484032
NMEA,$GNVTG,,T,,M,0.0,N,0.0,K,A*3D,1746258484032
NMEA,$GNDTM,P90,,0000.000026,S,00000.000000,E,0.978,W84*5C,1746258484032
NMEA,$GNRMC,074804.00,A,4504.227776,N,00741.118803,E,0.0,,030525,3.3,E,A,V*74,1746258484032
NMEA,$GNGNS,074804.00,4504.227776,N,00741.118803,E,AAAANN,36,0.3,246.8,48.0,,,V*2A,1746258484032
NMEA,$GNGGA,074804.00,4504.227776,N,00741.118803,E,1,12,0.3,246.8,M,48.0,M,,*7C,1746258484032
NMEA,$GPGSV,3,1,12,04,05,329,20,05,12,090,32,12,11,107,30,18,37,174,27,1*6C,1746258485009
NMEA,$GPGSV,3,2,12,20,14,054,21,25,45,108,33,26,31,299,44,28,57,234,36,1*60,1746258485009
NMEA,$GPGSV,3,3,12,29,74,040,29,31,51,283,44,11,05,033,,16,05,292,,1*61,1746258485009
NMEA,$GPGSV,2,1,06,04,05,329,17,18,37,174,22,25,45,108,29,26,31,299,35,8*6E,1746258485009
NMEA,$GPGSV,2,2,06,28,57,234,33,11,05,033,,8*63,1746258485009
NMEA,$GLGSV,2,1,08,,00,000,23,82,33,035,42,73,82,004,43,80,34,127,35,1*78,1746258485009
NMEA,$GLGSV,2,2,08,65,06,343,21,84,30,202,19,83,76,067,28,72,02,293,,1*7B,1746258485009
NMEA,$GAGSV,3,1,12,03,06,331,23,05,17,283,30,09,09,233,28,10,07,189,22,7*70,1746258485009
NMEA,$GAGSV,3,2,12,12,26,177,25,16,16,293,43,23,27,103,31,24,42,298,43,7*7F,1746258485009
NMEA,$GAGSV,3,3,12,26,28,045,43,31,77,062,41,33,56,108,36,06,01,212,,7*72,1746258485009
NMEA,$GAGSV,3,1,11,03,06,331,20,05,17,283,24,09,09,233,30,10,07,189,19,1*72,1746258485009
NMEA,$GAGSV,3,2,11,12,26,177,19,16,16,293,35,23,27,103,28,24,42,298,23,1*7A,1746258485009
NMEA,$GAGSV,3,3,11,26,28,045,34,31,77,062,27,33,56,108,27,1*41,1746258485009
NMEA,$GBGSV,3,1,10,45,80,250,35,38,19,055,23,36,40,143,24,35,22,221,32,1*78,1746258485009
NMEA,$GBGSV,3,2,10,30,37,052,42,29,80,172,40,26,26,309,45,13,21,084,30,1*76,1746258485009
NMEA,$GBGSV,3,3,10,08,22,066,30,05,16,120,,1*7D,1746258485009
NMEA,$GBGSV,2,1,07,26,26,309,45,29,80,172,40,30,37,052,44,35,22,221,27,3*7A,1746258485009
NMEA,$GBGSV,2,2,07,36,40,143,31,38,19,055,25,45,80,250,40,3*48,1746258485009
NMEA,$GBGSV,2,1,07,26,26,309,34,29,80,172,32,30,37,052,32,35,22,221,27,5*7E,1746258485009
NMEA,$GBGSV,2,2,07,36,40,143,28,38,19,055,20,45,80,250,36,5*42,1746258485009
NMEA,$GNGSA,A,3,04,05,12,18,20,25,26,28,29,31,,,0.6,0.3,0.4,1*39,1746258485032
NMEA,$GNGSA,A,3,65,73,80,82,83,84,,,,,,,0.6,0.3,0.4,2*31,1746258485032
NMEA,$GNGSA,A,3,03,05,09,10,12,16,23,24,26,31,33,,0.6,0.3,0.4,3*39,1746258485032
NMEA,$GNGSA,A,3,08,13,26,29,30,35,36,38,45,,,,0.6,0.3,0.4,4*3A,1746258485032
NMEA,$GNVTG,,T,,M,0.0,N,0.0,K,A*3D,1746258485032
NMEA,$GNDTM,P90,,0000.000026,S,00000.000000,E,0.978,W84*5C,1746258485032
NMEA,$GNRMC,074805.00,A,4504.227796,N,00741.119014,E,0.0,,030525,3.3,E,A,V*74,1746258485032
NMEA,$GNGNS,074805.00,4504.227796,N,00741.119014,E,AAAANN,36,0.3,246.3,48.0,,,V*21,1746258485032
NMEA,$GNGGA,074805.00,4504.227796,N,00741.119014,E,1,12,0.3,246.3,M,48.0,M,,*77,1746258485032
NMEA,$GPGSV,3,1,12,04,05,329,20,05,12,090,34,12,11,107,29,18,37,174,29,1*6C,1746258486032
NMEA,$GPGSV,3,2,12,20,14,054,21,25,45,108,36,26,31,299,42,28,57,234,36,1*63,1746258486032
NMEA,$GPGSV,3,3,12,29,74,040,34,31,51,283,44,11,05,033,,16,05,292,,1*6D,1746258486032
NMEA,$GPGSV,2,1,06,04,05,329,17,18,37,174,22,25,45,108,35,26,31,299,35,8*63,1746258486032
NMEA,$GPGSV,2,2,06,28,57,234,33,11,05,033,,8*63,1746258486032
NMEA,$GLGSV,2,1,08,,00,000,22,82,33,035,42,73,82,004,43,80,34,127,29,1*74,1746258486032
NMEA,$GLGSV,2,2,08,65,06,343,22,84,30,202,19,83,76,067,28,72,02,293,,1*78,1746258486032
NMEA,$GAGSV,3,1,12,03,06,331,24,05,17,283,28,09,09,233,27,10,07,189,19,7*79,1746258486032
NMEA,$GAGSV,3,2,12,12,26,177,25,16,16,293,42,23,27,103,32,24,42,298,42,7*7C,1746258486032
NMEA,$GAGSV,3,3,12,26,28,045,43,31,77,062,41,33,56,108,36,06,01,212,,7*72,1746258486032
NMEA,$GAGSV,3,1,11,03,06,331,19,05,17,283,21,09,09,233,31,10,07,189,19,1*7C,1746258486032
NMEA,$GAGSV,3,2,11,12,26,177,19,16,16,293,35,23,27,103,21,24,42,298,25,1*75,1746258486032
NMEA,$GAGSV,3,3,11,26,28,045,35,31,77,062,29,33,56,108,32,1*4A,1746258486032
NMEA,$GBGSV,3,1,10,45,80,250,37,38,19,055,22,36,40,143,26,35,22,221,32,1*79,1746258486032
NMEA,$GBGSV,3,2,10,30,37,052,41,29,80,172,38,26,26,309,45,13,21,084,28,1*73,1746258486032
NMEA,$GBGSV,3,3,10,08,22,066,30,05,16,120,,1*7D,1746258486032
NMEA,$GBGSV,2,1,07,26,26,309,45,29,80,172,40,30,37,052,43,35,22,221,26,3*7C,1746258486032
NMEA,$GBGSV,2,2,07,36,40,143,29,38,19,055,25,45,80,250,41,3*40,1746258486032
NMEA,$GBGSV,2,1,07,26,26,309,32,29,80,172,31,30,37,052,29,35,22,221,27,5*71,1746258486032
NMEA,$GBGSV,2,2,07,36,40,143,29,38,19,055,18,45,80,250,36,5*48,1746258486032
NMEA,$GNGSA,A,3,04,05,12,18,20,25,26,28,29,31,,,0.6,0.3,0.4,1*39,1746258486047
NMEA,$GNGSA,A,3,65,73,80,82,83,84,,,,,,,0.6,0.3,0.4,2*31,1746258486047
NMEA,$GNGSA,A,3,03,05,09,10,12,16,23,24,26,31,33,,0.6,0.3,0.4,3*39,1746258486047
NMEA,$GNGSA,A,3,08,13,26,29,30,35,36,38,45,,,,0.6,0.3,0.4,4*3A,1746258486047
NMEA,$GNVTG,,T,,M,0.0,N,0.0,K,A*3D,1746258486047
NMEA,$GNDTM,P90,,0000.000026,S,00000.000000,E,0.978,W84*5C,1746258486047
NMEA,$GNRMC,074806.00,A,4504.227884,N,00741.119107,E,0.0,,030525,3.3,E,A,V*78,1746258486047
NMEA,$GNGNS,074806.00,4504.227884,N,00741.119107,E,AAAANN,36,0.3,246.2,48.0,,,V*2C,1746258486047
NMEA,$GNGGA,074806.00,4504.227884,N,00741.119107,E,1,12,0.3,246.2,M,48.0,M,,*7A,1746258486047
NMEA,$GPGSV,3,1,12,04,05,329,20,05,12,090,35,12,11,107,28,18,37,174,29,1*6C,1746258487005
NMEA,$GPGSV,3,2,12,20,14,054,21,25,45,108,37,26,31,299,43,28,57,234,37,1*62,1746258487005
NMEA,$GPGSV,3,3,12,29,74,040,41,31,51,283,45,11,05,033,,16,05,292,,1*6E,1746258487005
NMEA,$GPGSV,2,1,06,04,05,329,17,18,37,174,23,25,45,108,36,26,31,299,37,8*63,1746258487005
NMEA,$GPGSV,2,2,06,28,57,234,32,11,05,033,,8*62,1746258487005
NMEA,$GLGSV,2,1,08,,00,000,32,82,33,035,41,73,82,004,44,80,34,127,32,1*7B,1746258487005
NMEA,$GLGSV,2,2,08,65,06,343,22,84,30,202,19,83,76,067,28,72,02,293,,1*78,1746258487005
NMEA,$GAGSV,3,1,12,03,06,331,22,05,17,283,31,09,09,233,28,10,07,189,19,7*78,1746258487005
NMEA,$GAGSV,3,2,12,12,26,177,25,16,16,293,42,23,27,103,30,24,42,298,41,7*7D,1746258487005
NMEA,$GAGSV,3,3,12,26,28,045,42,31,77,062,39,33,56,108,32,06,01,212,,7*78,1746258487005
NMEA,$GAGSV,3,1,11,03,06,331,19,05,17,283,29,09,09,233,30,10,07,189,19,1*75,1746258487005
NMEA,$GAGSV,3,2,11,12,26,177,19,16,16,293,36,23,27,103,27,24,42,298,33,1*77,1746258487005
NMEA,$GAGSV,3,3,11,26,28,045,33,31,77,062,30,33,56,108,37,1*41,1746258487005
NMEA,$GBGSV,3,1,10,45,80,250,40,38,19,055,25,36,40,143,27,35,22,221,31,1*7C,1746258487005
NMEA,$GBGSV,3,2,10,30,37,052,38,29,80,172,38,26,26,309,44,13,21,084,29,1*7D,1746258487005
NMEA,$GBGSV,3,3,10,08,22,066,30,05,16,120,,1*7D,1746258487005
NMEA,$GBGSV,2,1,07,26,26,309,46,29,80,172,38,30,37,052,39,35,22,221,25,3*7E,1746258487005
NMEA,$GBGSV,2,2,07,36,40,143,35,38,19,055,25,45,80,250,41,3*4D,1746258487005
NMEA,$GBGSV,2,1,07,26,26,309,32,29,80,172,31,30,37,052,24,35,22,221,26,5*7D,1746258487005
NMEA,$GBGSV,2,2,07,36,40,143,28,38,19,055,18,45,80,250,37,5*48,1746258487005
NMEA,$GNGSA,A,3,04,05,12,18,20,25,26,28,29,31,,,0.6,0.3,0.4,1*39,1746258487025
NMEA,$GNGSA,A,3,65,73,80,82,83,84,,,,,,,0.6,0.3,0.4,2*31,1746258487025
NMEA,$GNGSA,A,3,03,05,09,10,12,16,23,24,26,31,33,,0.6,0.3,0.4,3*39,1746258487025
NMEA,$GNGSA,A,3,08,13,26,29,30,35,36,38,45,,,,0.6,0.3,0.4,4*3A,1746258487025
NMEA,$GNVTG,,T,,M,0.0,N,0.0,K,A*3D,1746258487025
NMEA,$GNDTM,P90,,0000.000026,S,00000.000000,E,0.978,W84*5C,1746258487025
NMEA,$GNRMC,074807.00,A,4504.228123,N,00741.119059,E,0.0,,030525,3.3,E,A,V*78,1746258487025
NMEA,$GNGNS,074807.00,4504.228123,N,00741.119059,E,AAAANN,36,0.3,246.4,48.0,,,V*2A,1746258487025
NMEA,$GNGGA,074807.00,4504.228123,N,00741.119059,E,1,12,0.3,246.4,M,48.0,M,,*7C,1746258487025
NMEA,$GPGSV,3,1,12,04,05,329,20,05,12,090,32,12,11,107,29,20,14,054,23,1*69,1746258488004
NMEA,$GPGSV,3,2,12,25,45,108,32,26,31,299,42,28,57,234,33,29,74,040,41,1*6E,1746258488004
NMEA,$GPGSV,3,3,12,31,51,283,42,11,05,033,,16,05,292,,18,37,174,,1*6F,1746258488004
NMEA,$GPGSV,2,1,06,04,05,329,15,18,37,174,23,25,45,108,37,26,31,299,40,8*60,1746258488004
NMEA,$GPGSV,2,2,06,28,57,234,24,11,05,033,,8*65,1746258488004
NMEA,$GLGSV,2,1,08,,00,000,38,82,33,035,35,73,82,004,43,80,34,127,31,1*76,1746258488004
NMEA,$GLGSV,2,2,08,65,06,343,22,84,30,202,19,83,76,067,27,72,02,293,,1*77,1746258488004
NMEA,$GAGSV,3,1,12,03,06,331,23,05,17,283,35,09,09,233,27,10,07,189,19,7*72,1746258488004
NMEA,$GAGSV,3,2,12,12,26,177,25,16,16,293,40,23,27,103,30,24,42,298,43,7*7D,1746258488004
NMEA,$GAGSV,3,3,12,26,28,045,33,31,77,062,38,33,56,108,35,06,01,212,,7*78,1746258488004
NMEA,$GAGSV,3,1,11,03,06,331,19,05,17,283,27,09,09,233,29,10,07,189,18,1*72,1746258488004
NMEA,$GAGSV,3,2,11,12,26,177,19,16,16,293,29,23,27,103,25,24,42,298,39,1*71,1746258488004
NMEA,$GAGSV,3,3,11,26,28,045,33,31,77,062,27,33,56,108,35,1*45,1746258488004
NMEA,$GBGSV,3,1,10,45,80,250,36,38,19,055,25,36,40,143,26,35,22,221,29,1*75,1746258488004
NMEA,$GBGSV,3,2,10,30,37,052,31,29,80,172,39,26,26,309,32,13,21,084,30,1*7C,1746258488004
NMEA,$GBGSV,3,3,10,08,22,066,28,05,16,120,,1*74,1746258488004
NMEA,$GBGSV,2,1,07,26,26,309,32,29,80,172,42,30,37,052,38,35,22,221,27,3*73,1746258488004
NMEA,$GBGSV,2,2,07,36,40,143,38,38,19,055,27,45,80,250,43,3*40,1746258488004
NMEA,$GBGSV,2,1,07,26,26,309,32,29,80,172,31,30,37,052,28,35,22,221,21,5*76,1746258488004
NMEA,$GBGSV,2,2,07,36,40,143,27,38,19,055,20,45,80,250,33,5*48,1746258488004
NMEA,$GNGSA,A,3,04,05,12,18,20,25,26,28,29,31,,,0.5,0.3,0.4,1*3A,1746258488018
NMEA,$GNGSA,A,3,65,73,80,82,83,84,,,,,,,0.5,0.3,0.4,2*32,1746258488018
NMEA,$GNGSA,A,3,03,05,09,10,12,16,23,24,26,31,33,,0.5,0.3,0.4,3*3A,1746258488018
NMEA,$GNGSA,A,3,08,13,26,29,30,35,36,38,45,,,,0.5,0.3,0.4,4*39,1746258488018
NMEA,$GNVTG,,T,,M,0.0,N,0.0,K,A*3D,1746258488018
NMEA,$GNDTM,P90,,0000.000026,S,00000.000000,E,0.978,W84*5C,1746258488018
NMEA,$GNRMC,074808.00,A,4504.228132,N,00741.118917,E,0.0,,030525,3.3,E,A,V*75,1746258488018
NMEA,$GNGNS,074808.00,4504.228132,N,00741.118917,E,AAAANN,36,0.3,246.6,48.0,,,V*25,1746258488018
NMEA,$GNGGA,074808.00,4504.228132,N,00741.118917,E,1,12,0.3,246.6,M,48.0,M,,*73,1746258488018
NMEA,$GPGSV,3,1,12,04,05,329,20,05,12,090,27,12,11,107,28,20,14,054,26,1*69,1746258489004
NMEA,$GPGSV,3,2,12,25,45,108,32,26,31,299,44,28,57,234,31,29,74,040,42,1*69,1746258489004
NMEA,$GPGSV,3,3,12,31,51,283,40,11,05,033,,16,05,292,,18,37,174,,1*6D,1746258489004
NMEA,$GPGSV,2,1,06,04,05,329,15,18,37,174,23,25,45,108,33,26,31,299,37,8*64,1746258489004
NMEA,$GPGSV,2,2,06,28,57,234,26,11,05,033,,8*67,1746258489004
NMEA,$GLGSV,2,1,08,,00,000,37,82,33,035,31,73,82,004,44,80,34,127,32,1*79,1746258489004
NMEA,$GLGSV,2,2,08,65,06,343,19,84,30,202,19,83,76,067,28,72,02,293,,1*70,1746258489004
NMEA,$GAGSV,3,1,12,03,06,331,23,05,17,283,33,09,09,233,27,10,07,189,19,7*74,1746258489004
NMEA,$GAGSV,3,2,12,12,26,177,25,16,16,293,41,23,27,103,28,24,42,298,42,7*74,1746258489004
NMEA,$GAGSV,3,3,12,26,28,045,30,31,77,062,38,33,56,108,34,06,01,212,,7*7A,1746258489004
NMEA,$GAGSV,3,1,11,03,06,331,19,05,17,283,32,09,09,233,26,10,07,189,18,1*79,1746258489004
NMEA,$GAGSV,3,2,11,12,26,177,19,16,16,293,36,23,27,103,27,24,42,298,35,1*71,1746258489004
NMEA,$GAGSV,3,3,11,26,28,045,29,31,77,062,27,33,56,108,32,1*49,1746258489004
NMEA,$GBGSV,3,1,10,45,80,250,35,38,19,055,24,36,40,143,27,35,22,221,25,1*7A,1746258489004
NMEA,$GBGSV,3,2,10,30,37,052,41,29,80,172,37,26,26,309,38,13,21,084,27,1*79,1746258489004
NMEA,$GBGSV,3,3,10,08,22,066,34,05,16,120,,1*79,1746258489004
NMEA,$GBGSV,2,1,07,26,26,309,36,29,80,172,38,30,37,052,42,35,22,221,28,3*78,1746258489004
NMEA,$GBGSV,2,2,07,36,40,143,37,38,19,055,28,45,80,250,41,3*42,1746258489004
NMEA,$GBGSV,2,1,07,26,26,309,34,29,80,172,29,30,37,052,28,35,22,221,21,5*79,1746258489004
NMEA,$GBGSV,2,2,07,36,40,143,26,38,19,055,21,45,80,250,33,5*48,1746258489004
NMEA,$GNGSA,A,3,05,12,18,20,25,26,28,29,31,,,,0.6,0.3,0.4,1*3D,1746258489025
NMEA,$GNGSA,A,3,65,73,80,82,83,84,,,,,,,0.6,0.3,0.4,2*31,1746258489025
NMEA,$GNGSA,A,3,03,05,09,10,12,16,23,24,26,31,33,,0.6,0.3,0.4,3*39,1746258489025
NMEA,$GNGSA,A,3,08,13,26,29,30,35,36,38,45,,,,0.6,0.3,0.4,4*3A,1746258489025
NMEA,$GNVTG,,T,,M,0.0,N,0.0,K,A*3D,1746258489025
NMEA,$GNDTM,P90,,0000.000026,S,00000.000000,E,0.978,W84*5C,1746258489025
NMEA,$GNRMC,074809.00,A,4504.228070,N,00741.118980,E,0.0,,030525,3.3,E,A,V*7D,1746258489025
NMEA,$GNGNS,074809.00,4504.228070,N,00741.118980,E,AAAANN,35,0.3,246.5,48.0,,,V*2D,1746258489025
NMEA,$GNGGA,074809.00,4504.228070,N,00741.118980,E,1,12,0.3,246.5,M,48.0,M,,*78,1746258489025
NMEA,$GPGSV,3,1,12,05,12,090,32,12,11,107,30,18,37,174,26,20,14,054,23,1*61,1746258490006
NMEA,$GPGSV,3,2,12,25,45,108,34,26,31,299,42,28,57,234,29,29,74,040,40,1*62,1746258490006
NMEA,$GPGSV,3,3,12,31,51,283,42,04,05,329,,11,05,033,,16,05,292,,1*69,1746258490006
NMEA,$GPGSV,2,1,06,04,05,329,15,18,37,174,23,25,45,108,36,26,31,299,35,8*63,1746258490006
NMEA,$GPGSV,2,2,06,28,57,234,29,11,05,033,,8*68,1746258490006
NMEA,$GLGSV,2,1,08,,00,000,36,82,33,035,31,73,82,004,44,80,34,127,33,1*79,1746258490006
NMEA,$GLGSV,2,2,08,65,06,343,19,84,30,202,19,83,76,067,28,72,02,293,,1*70,1746258490006
NMEA,$GAGSV,3,1,12,03,06,331,17,05,17,283,32,09,09,233,25,10,07,189,19,7*70,1746258490006
NMEA,$GAGSV,3,2,12,12,26,177,25,16,16,293,39,23,27,103,33,24,42,298,41,7*72,1746258490006
NMEA,$GAGSV,3,3,12,26,28,045,32,31,77,062,38,33,56,108,37,06,01,212,,7*7B,1746258490006
NMEA,$GAGSV,3,1,11,03,06,331,17,05,17,283,27,09,09,233,29,10,07,189,18,1*7C,1746258490006
NMEA,$GAGSV,3,2,11,12,26,177,19,16,16,293,35,23,27,103,33,24,42,298,32,1*70,1746258490006
NMEA,$GAGSV,3,3,11,26,28,045,29,31,77,062,29,33,56,108,35,1*40,1746258490006
NMEA,$GBGSV,3,1,10,45,80,250,34,38,19,055,24,36,40,143,29,35,22,221,26,1*76,1746258490006
NMEA,$GBGSV,3,2,10,30,37,052,41,29,80,172,38,26,26,309,40,13,21,084,32,1*7D,1746258490006
NMEA,$GBGSV,3,3,10,08,22,066,32,05,16,120,,1*7F,1746258490006
NMEA,$GBGSV,2,1,07,26,26,309,38,29,80,172,36,30,37,052,41,35,22,221,23,3*70,1746258490006
NMEA,$GBGSV,2,2,07,36,40,143,33,38,19,055,28,45,80,250,38,3*48,1746258490006
NMEA,$GBGSV,2,1,07,26,26,309,33,29,80,172,33,30,37,052,27,35,22,221,25,5*7E,1746258490006
NMEA,$GBGSV,2,2,07,36,40,143,30,38,19,055,20,45,80,250,36,5*4B,1746258490006
NMEA,$GNGSA,A,3,05,12,18,20,25,26,28,29,31,,,,0.6,0.3,0.4,1*3D,1746258490038
NMEA,$GNGSA,A,3,65,73,80,82,83,,,,,,,,0.6,0.3,0.4,2*3D,1746258490038
NMEA,$GNGSA,A,3,03,05,09,10,12,16,23,24,26,31,33,,0.6,0.3,0.4,3*39,1746258490038
NMEA,$GNGSA,A,3,08,13,26,29,30,35,36,38,45,,,,0.6,0.3,0.4,4*3A,1746258490038
NMEA,$GNVTG,,T,,M,0.0,N,0.0,K,A*3D,1746258490038
NMEA,$GNDTM,P90,,0000.000026,S,00000.000000,E,0.978,W84*5C,1746258490038
NMEA,$GNRMC,074810.00,A,4504.228051,N,00741.119273,E,0.0,,030525,3.3,E,A,V*70,1746258490038
NMEA,$GNGNS,074810.00,4504.228051,N,00741.119273,E,AAAANN,34,0.3,246.7,48.0,,,V*23,1746258490038
NMEA,$GNGGA,074810.00,4504.228051,N,00741.119273,E,1,12,0.3,246.7,M,48.0,M,,*77,1746258490038
NMEA,$GPGSV,3,1,12,05,12,090,40,12,11,107,34,20,14,054,22,25,45,108,39,1*6F,1746258491004
NMEA,$GPGSV,3,2,12,26,31,299,37,28,57,234,32,29,74,040,46,31,51,283,44,1*6B,1746258491004
NMEA,$GPGSV,3,3,12,04,05,329,,11,05,033,,16,05,292,,18,37,174,,1*6F,1746258491004
NMEA,$GPGSV,2,1,06,04,05,329,15,18,37,174,21,25,45,108,36,26,31,299,33,8*67,1746258491004
NMEA,$GPGSV,2,2,06,28,57,234,30,11,05,033,,8*60,1746258491004
NMEA,$GLGSV,2,1,08,,00,000,39,82,33,035,30,73,82,004,38,80,34,127,33,1*7C,1746258491004
NMEA,$GLGSV,2,2,08,65,06,343,19,84,30,202,19,83,76,067,30,72,02,293,,1*79,1746258491004
NMEA,$GAGSV,3,1,12,03,06,331,17,05,17,283,21,09,09,233,25,10,07,189,19,7*72,1746258491004
NMEA,$GAGSV,3,2,12,12,26,177,25,16,16,293,38,23,27,103,36,24,42,298,45,7*72,1746258491004
NMEA,$GAGSV,3,3,12,26,28,045,34,31,77,062,42,33,56,108,38,06,01,212,,7*7F,1746258491004
NMEA,$GAGSV,3,1,11,03,06,331,21,05,17,283,33,09,09,233,28,10,07,189,18,1*7D,1746258491004
NMEA,$GAGSV,3,2,11,12,26,177,19,16,16,293,39,23,27,103,29,24,42,298,38,1*7D,1746258491004
NMEA,$GAGSV,3,3,11,26,28,045,27,31,77,062,34,33,56,108,34,1*43,1746258491004
NMEA,$GBGSV,3,1,10,45,80,250,42,38,19,055,26,36,40,143,29,35,22,221,26,1*75,1746258491004
NMEA,$GBGSV,3,2,10,30,37,052,39,29,80,172,41,26,26,309,44,13,21,084,36,1*7C,1746258491004
NMEA,$GBGSV,3,3,10,08,22,066,31,05,16,120,,1*7C,1746258491004
NMEA,$GBGSV,2,1,07,26,26,309,43,29,80,172,42,30,37,052,35,35,22,221,26,3*79,1746258491004
NMEA,$GBGSV,2,2,07,36,40,143,29,38,19,055,23,45,80,250,45,3*42,1746258491004
NMEA,$GBGSV,2,1,07,26,26,309,34,29,80,172,35,30,37,052,35,35,22,221,23,5*7A,1746258491004
NMEA,$GBGSV,2,2,07,36,40,143,27,38,19,055,25,45,80,250,39,5*47,1746258491004
NMEA,$GNGSA,A,3,05,12,18,20,25,26,28,29,31,,,,0.6,0.3,0.4,1*3D,1746258491016
NMEA,$GNGSA,A,3,65,73,80,82,83,,,,,,,,0.6,0.3,0.4,2*3D,1746258491016
NMEA,$GNGSA,A,3,03,05,09,10,12,16,23,24,26,31,33,,0.6,0.3,0.4,3*39,1746258491016
NMEA,$GNGSA,A,3,08,13,26,29,30,35,36,38,45,,,,0.6,0.3,0.4,4*3A,1746258491016
NMEA,$GNVTG,,T,,M,0.0,N,0.0,K,A*3D,1746258491016
NMEA,$GNDTM,P90,,0000.000026,S,00000.000000,E,0.978,W84*5C,1746258491016
NMEA,$GNRMC,074811.00,A,4504.228067,N,00741.119238,E,0.0,,030525,3.3,E,A,V*7B,1746258491016
NMEA,$GNGNS,074811.00,4504.228067,N,00741.119238,E,AAAANN,34,0.3,246.4,48.0,,,V*2B,1746258491016
NMEA,$GNGGA,074811.00,4504.228067,N,00741.119238,E,1,12,0.3,246.4,M,48.0,M,,*7F,1746258491016
NMEA,$GPGSV,3,1,12,05,12,090,36,12,11,107,33,18,37,174,30,20,14,054,22,1*60,1746258492005
NMEA,$GPGSV,3,2,12,25,45,108,41,26,31,299,42,28,57,234,33,29,74,040,46,1*6D,1746258492005
NMEA,$GPGSV,3,3,12,31,51,283,46,04,05,329,,11,05,033,,16,05,292,,1*6D,1746258492005
NMEA,$GPGSV,2,1,06,04,05,329,18,18,37,174,27,25,45,108,32,26,31,299,38,8*63,1746258492005
NMEA,$GPGSV,2,2,06,28,57,234,32,11,05,033,,8*62,1746258492005
NMEA,$GLGSV,2,1,08,,00,000,34,82,33,035,30,73,82,004,38,80,34,127,31,1*73,1746258492005
NMEA,$GLGSV,2,2,08,65,06,343,19,84,30,202,19,83,76,067,30,72,02,293,,1*79,1746258492005
NMEA,$GAGSV,3,1,12,03,06,331,22,05,17,283,26,09,09,233,22,10,07,189,19,7*74,1746258492005
NMEA,$GAGSV,3,2,12,12,26,177,16,16,16,293,40,23,27,103,25,24,42,298,45,7*7F,1746258492005
NMEA,$GAGSV,3,3,12,26,28,045,28,31,77,062,41,33,56,108,24,06,01,212,,7*7C,1746258492005
NMEA,$GAGSV,3,1,11,03,06,331,21,05,17,283,35,09,09,233,29,10,07,189,18,1*7A,1746258492005
NMEA,$GAGSV,3,2,11,12,26,177,19,16,16,293,40,23,27,103,31,24,42,298,35,1*77,1746258492005
NMEA,$GAGSV,3,3,11,26,28,045,30,31,77,062,32,33,56,108,32,1*45,1746258492005
NMEA,$GBGSV,3,1,10,45,80,250,43,38,19,055,23,36,40,143,31,30,37,052,37,1*7F,1746258492005
NMEA,$GBGSV,3,2,10,29,80,172,38,26,26,309,45,13,21,084,33,08,22,066,31,1*76,1746258492005
NMEA,$GBGSV,3,3,10,05,16,120,,35,22,221,,1*71,1746258492005
NMEA,$GBGSV,2,1,07,26,26,309,45,29,80,172,37,30,37,052,35,35,22,221,27,3*7C,1746258492005
NMEA,$GBGSV,2,2,07,36,40,143,33,38,19,055,23,45,80,250,45,3*49,1746258492005
NMEA,$GBGSV,2,1,07,26,26,309,33,29,80,172,33,30,37,052,33,35,22,221,21,5*7F,1746258492005
NMEA,$GBGSV,2,2,07,36,40,143,26,38,19,055,26,45,80,250,38,5*44,1746258492005
NMEA,$GNGSA,A,3,05,12,18,20,25,26,28,29,31,,,,0.6,0.3,0.4,1*3D,1746258492020
NMEA,$GNGSA,A,3,65,73,80,82,83,,,,,,,,0.6,0.3,0.4,2*3D,1746258492020
NMEA,$GNGSA,A,3,03,05,09,10,12,16,23,24,26,31,33,,0.6,0.3,0.4,3*39,1746258492020
NMEA,$GNGSA,A,3,08,13,26,29,30,35,36,38,45,,,,0.6,0.3,0.4,4*3A,1746258492020
NMEA,$GNVTG,,T,,M,0.0,N,0.0,K,A*3D,1746258492020
NMEA,$GNDTM,P90,,0000.000026,S,00000.000000,E,0.978,W84*5C,1746258492020
NMEA,$GNRMC,074812.00,A,4504.228153,N,00741.119201,E,0.0,,030525,3.3,E,A,V*74,1746258492020
NMEA,$GNGNS,074812.00,4504.228153,N,00741.119201,E,AAAANN,34,0.3,246.4,48.0,,,V*24,1746258492020
NMEA,$GNGGA,074812.00,4504.228153,N,00741.119201,E,1,12,0.3,246.4,M,48.0,M,,*70,1746258492020
NMEA,$GPGSV,3,1,12,05,12,090,29,12,11,107,33,18,37,174,28,20,14,054,22,1*67,1746258493003
NMEA,$GPGSV,3,2,12,25,45,108,41,26,31,299,37,28,57,234,31,29,74,040,42,1*69,1746258493003
NMEA,$GPGSV,3,3,12,31,51,283,41,04,05,329,,11,05,033,,16,05,292,,1*6A,1746258493003
NMEA,$GPGSV,2,1,05,04,05,329,22,18,37,174,28,25,45,108,34,26,31,299,37,8*6F,1746258493003
NMEA,$GPGSV,2,2,05,28,57,234,32,8*54,1746258493003
NMEA,$GLGSV,2,1,08,,00,000,42,82,33,035,31,73,82,004,40,80,34,127,28,1*74,1746258493003
NMEA,$GLGSV,2,2,08,65,06,343,19,84,30,202,19,83,76,067,27,72,02,293,,1*7F,1746258493003
NMEA,$GAGSV,3,1,12,03,06,331,24,05,17,283,28,09,09,233,22,10,07,189,17,7*72,1746258493003
NMEA,$GAGSV,3,2,12,12,26,177,22,16,16,293,39,23,27,103,25,24,42,298,48,7*7B,1746258493003
NMEA,$GAGSV,3,3,12,26,28,045,33,31,77,062,39,33,56,108,37,06,01,212,,7*7B,1746258493003
NMEA,$GAGSV,3,1,11,03,06,331,21,05,17,283,37,09,09,233,22,10,07,189,18,1*73,1746258493003
NMEA,$GAGSV,3,2,11,12,26,177,19,16,16,293,40,23,27,103,32,24,42,298,42,1*74,1746258493003
NMEA,$GAGSV,3,3,11,26,28,045,31,31,77,062,37,33,56,108,37,1*44,1746258493003
NMEA,$GBGSV,3,1,10,45,80,250,40,38,19,055,26,36,40,143,33,30,37,052,35,1*79,1746258493003
NMEA,$GBGSV,3,2,10,29,80,172,39,26,26,309,46,13,21,084,27,08,22,066,34,1*74,1746258493003
NMEA,$GBGSV,3,3,10,05,16,120,,35,22,221,,1*71,1746258493003
NMEA,$GBGSV,2,1,07,26,26,309,47,29,80,172,42,30,37,052,30,35,22,221,25,3*7B,1746258493003
NMEA,$GBGSV,2,2,07,36,40,143,32,38,19,055,26,45,80,250,42,3*4A,1746258493003
NMEA,$GBGSV,2,1,07,26,26,309,35,29,80,172,38,30,37,052,34,35,22,221,23,5*77,1746258493003
NMEA,$GBGSV,2,2,07,36,40,143,27,38,19,055,20,45,80,250,40,5*4C,1746258493003
NMEA,$GNGSA,A,3,05,12,18,20,25,26,28,29,31,,,,0.6,0.4,0.5,1*3B,1746258493012
NMEA,$GNGSA,A,3,65,73,80,82,83,,,,,,,,0.6,0.4,0.5,2*3B,1746258493012
NMEA,$GNGSA,A,3,03,05,09,10,12,16,23,24,26,31,33,,0.6,0.4,0.5,3*3F,1746258493012
NMEA,$GNGSA,A,3,08,13,26,29,30,35,36,38,45,,,,0.6,0.4,0.5,4*3C,1746258493012
NMEA,$GNVTG,,T,,M,0.0,N,0.0,K,A*3D,1746258493012
NMEA,$GNDTM,P90,,0000.000026,S,00000.000000,E,0.978,W84*5C,1746258493012
NMEA,$GNRMC,074813.00,A,4504.228142,N,00741.119189,E,0.0,,030525,3.3,E,A,V*76,1746258493012
NMEA,$GNGNS,074813.00,4504.228142,N,00741.119189,E,AAAANN,34,0.4,246.2,48.0,,,V*27,1746258493012
NMEA,$GNGGA,074813.00,4504.228142,N,00741.119189,E,1,12,0.4,246.2,M,48.0,M,,*73,1746258493012
NMEA,$GPGSV,3,1,12,05,12,090,36,12,11,107,31,20,14,054,22,25,45,108,39,1*6B,1746258494009
NMEA,$GPGSV,3,2,12,26,31,299,38,28,57,234,23,29,74,040,45,31,51,283,42,1*61,1746258494009
NMEA,$GPGSV,3,3,12,04,05,329,,11,05,033,,16,05,292,,18,37,174,,1*6F,1746258494009
NMEA,$GPGSV,2,1,06,04,05,329,22,18,37,174,28,25,45,108,30,26,31,299,34,8*6B,1746258494009
NMEA,$GPGSV,2,2,06,28,57,234,29,11,05,033,,8*68,1746258494009
NMEA,$GLGSV,2,1,08,,00,000,41,82,33,035,30,73,82,004,36,80,34,127,25,1*7A,1746258494009
NMEA,$GLGSV,2,2,08,65,06,343,19,84,30,202,19,83,76,067,27,72,02,293,,1*7F,1746258494009
NMEA,$GAGSV,3,1,12,03,06,331,24,05,17,283,29,09,09,233,22,10,07,189,17,7*73,1746258494009
NMEA,$GAGSV,3,2,12,12,26,177,22,16,16,293,40,23,27,103,31,24,42,298,47,7*7F,1746258494009
NMEA,$GAGSV,3,3,12,26,28,045,32,31,77,062,40,33,56,108,26,06,01,212,,7*74,1746258494009
NMEA,$GAGSV,3,1,11,03,06,331,21,05,17,283,35,09,09,233,24,10,07,189,19,1*76,1746258494009
NMEA,$GAGSV,3,2,11,12,26,177,19,16,16,293,39,23,27,103,26,24,42,298,38,1*72,1746258494009
NMEA,$GAGSV,3,3,11,26,28,045,33,31,77,062,33,33,56,108,32,1*47,1746258494009
NMEA,$GBGSV,3,1,10,45,80,250,38,38,19,055,27,36,40,143,34,35,22,221,24,1*77,1746258494009
NMEA,$GBGSV,3,2,10,30,37,052,37,29,80,172,39,26,26,309,45,13,21,084,32,1*78,1746258494009
NMEA,$GBGSV,3,3,10,08,22,066,36,05,16,120,,1*7B,1746258494009
NMEA,$GBGSV,2,1,07,26,26,309,46,29,80,172,41,30,37,052,30,35,22,221,29,3*75,1746258494009
NMEA,$GBGSV,2,2,07,36,40,143,31,38,19,055,26,45,80,250,43,3*48,1746258494009
NMEA,$GBGSV,2,1,07,26,26,309,28,29,80,172,36,30,37,052,32,35,22,221,23,5*73,1746258494009
NMEA,$GBGSV,2,2,07,36,40,143,25,38,19,055,20,45,80,250,39,5*40,1746258494009
NMEA,$GNGSA,A,3,05,12,18,20,25,26,28,29,31,,,,0.6,0.3,0.5,1*3C,1746258494026
NMEA,$GNGSA,A,3,65,73,80,82,83,,,,,,,,0.6,0.3,0.5,2*3C,1746258494026
NMEA,$GNGSA,A,3,03,05,09,10,12,16,23,24,26,31,33,,0.6,0.3,0.5,3*38,1746258494026
NMEA,$GNGSA,A,3,08,13,26,29,30,35,36,38,45,,,,0.6,0.3,0.5,4*3B,1746258494026
NMEA,$GNVTG,,T,,M,0.0,N,0.0,K,A*3D,1746258494026
NMEA,$GNDTM,P90,,0000.000026,S,00000.000000,E,0.978,W84*5C,1746258494026
NMEA,$GNRMC,074814.00,A,4504.228076,N,00741.119180,E,0.0,,030525,3.3,E,A,V*7E,1746258494026
NMEA,$GNGNS,074814.00,4504.228076,N,00741.119180,E,AAAANN,34,0.3,246.1,48.0,,,V*2B,1746258494026
NMEA,$GNGGA,074814.00,4504.228076,N,00741.119180,E,1,12,0.3,246.1,M,48.0,M,,*7F,1746258494026
NMEA,$GPGSV,3,1,12,05,12,090,37,12,11,107,31,20,14,054,22,25,45,108,37,1*64,1746258495007
NMEA,$GPGSV,3,2,12,26,31,299,39,28,57,234,29,29,74,040,44,31,51,283,43,1*6A,1746258495007
NMEA,$GPGSV,3,3,12,04,05,329,,11,05,033,,16,05,292,,18,37,174,,1*6F,1746258495007
NMEA,$GPGSV,2,1,06,04,05,329,22,18,37,174,28,25,45,108,32,26,31,299,34,8*69,1746258495007
NMEA,$GPGSV,2,2,06,28,57,234,32,11,05,033,,8*62,1746258495007
NMEA,$GLGSV,2,1,08,,00,000,43,82,33,035,39,73,82,004,40,80,34,127,28,1*7D,1746258495007
NMEA,$GLGSV,2,2,08,65,06,343,19,84,30,202,19,83,76,067,28,72,02,293,,1*70,1746258495007
NMEA,$GAGSV,3,1,12,03,06,331,20,05,17,283,29,09,09,233,20,10,07,189,17,7*75,1746258495007
NMEA,$GAGSV,3,2,12,12,26,177,20,16,16,293,39,23,27,103,31,24,42,298,47,7*73,1746258495007
NMEA,$GAGSV,3,3,12,26,28,045,38,31,77,062,41,33,56,108,30,06,01,212,,7*78,1746258495007
NMEA,$GAGSV,3,1,11,03,06,331,20,05,17,283,31,09,09,233,26,10,07,189,19,1*71,1746258495007
NMEA,$GAGSV,3,2,11,12,26,177,19,16,16,293,36,23,27,103,28,24,42,298,39,1*72,1746258495007
NMEA,$GAGSV,3,3,11,26,28,045,34,31,77,062,34,33,56,108,31,1*44,1746258495007
NMEA,$GBGSV,3,1,10,45,80,250,40,38,19,055,27,36,40,143,27,35,22,221,24,1*7A,1746258495007
NMEA,$GBGSV,3,2,10,30,37,052,38,29,80,172,41,26,26,309,47,08,22,066,30,1*7D,1746258495007
NMEA,$GBGSV,3,3,10,05,16,120,,13,21,084,,1*7B,1746258495007
NMEA,$GBGSV,2,1,07,26,26,309,48,29,80,172,41,30,37,052,39,35,22,221,33,3*79,1746258495007
NMEA,$GBGSV,2,2,07,36,40,143,34,38,19,055,30,45,80,250,44,3*4D,1746258495007
NMEA,$GBGSV,2,1,07,26,26,309,29,29,80,172,37,30,37,052,32,35,22,221,19,5*7A,1746258495007
NMEA,$GBGSV,2,2,07,36,40,143,29,38,19,055,20,45,80,250,39,5*4C,1746258495007
NMEA,$GNGSA,A,3,05,12,18,20,25,26,28,29,31,,,,0.6,0.3,0.5,1*3C,1746258495019
NMEA,$GNGSA,A,3,65,73,80,82,83,,,,,,,,0.6,0.3,0.5,2*3C,1746258495019
NMEA,$GNGSA,A,3,03,05,09,10,12,16,23,24,26,31,33,,0.6,0.3,0.5,3*38,1746258495019
NMEA,$GNGSA,A,3,08,13,26,29,30,35,36,38,45,,,,0.6,0.3,0.5,4*3B,1746258495019
NMEA,$GNVTG,,T,,M,0.0,N,0.0,K,A*3D,1746258495019
NMEA,$GNDTM,P90,,0000.000026,S,00000.000000,E,0.978,W84*5C,1746258495019
NMEA,$GNRMC,074815.00,A,4504.228019,N,00741.118809,E,0.0,,030525,3.3,E,A,V*7F,1746258495019
NMEA,$GNGNS,074815.00,4504.228019,N,00741.118809,E,AAAANN,34,0.3,246.0,48.0,,,V*2B,1746258495019
NMEA,$GNGGA,074815.00,4504.228019,N,00741.118809,E,1,12,0.3,246.0,M,48.0,M,,*7F,1746258495019
NMEA,$GPGSV,3,1,12,05,12,090,37,12,11,107,36,16,05,292,24,20,14,054,23,1*64,1746258496004
NMEA,$GPGSV,3,2,12,25,45,108,38,26,31,299,36,28,57,234,38,29,74,040,43,1*6E,1746258496004
NMEA,$GPGSV,3,3,12,31,51,283,45,04,05,329,,11,05,033,,18,37,174,,1*6A,1746258496004
NMEA,$GPGSV,2,1,06,04,05,329,22,18,37,174,27,25,45,108,33,26,31,299,32,8*61,1746258496004
NMEA,$GPGSV,2,2,06,28,57,234,31,11,05,033,,8*61,1746258496004
NMEA,$GLGSV,2,1,08,,00,000,41,82,33,035,44,73,82,004,42,80,34,127,30,1*7E,1746258496004
NMEA,$GLGSV,2,2,08,65,06,343,21,84,30,202,14,83,76,067,26,72,02,293,,1*78,1746258496004
NMEA,$GAGSV,3,1,12,03,06,331,22,05,17,283,35,09,09,233,20,10,07,189,17,7*7A,1746258496004
NMEA,$GAGSV,3,2,12,12,26,177,20,16,16,293,44,23,27,103,31,24,42,298,43,7*7D,1746258496004
NMEA,$GAGSV,3,3,12,26,28,045,35,31,77,062,35,33,56,108,30,06,01,212,,7*76,1746258496004
NMEA,$GAGSV,3,1,11,03,06,331,20,05,17,283,25,09,09,233,25,10,07,189,19,1*77,1746258496004
NMEA,$GAGSV,3,2,11,12,26,177,19,16,16,293,26,23,27,103,25,24,42,298,35,1*72,1746258496004
NMEA,$GAGSV,3,3,11,26,28,045,23,31,77,062,29,33,56,108,27,1*49,1746258496004
NMEA,$GBGSV,3,1,10,45,80,248,42,38,19,055,29,36,40,143,36,30,37,052,40,1*7A,1746258496004
NMEA,$GBGSV,3,2,10,29,80,170,40,26,26,309,50,08,22,066,27,05,16,120,,1*74,1746258496004
NMEA,$GBGSV,3,3,10,13,21,084,,35,22,221,,1*7D,1746258496004
NMEA,$GBGSV,2,1,07,26,26,309,52,29,80,170,40,30,37,052,35,35,22,221,27,3*78,1746258496004
NMEA,$GBGSV,2,2,07,36,40,143,30,38,19,055,26,45,80,248,45,3*46,1746258496004
NMEA,$GBGSV,2,1,07,26,26,309,28,29,80,170,36,30,37,052,28,35,22,221,19,5*73,1746258496004
NMEA,$GBGSV,2,2,07,36,40,143,25,38,19,055,17,45,80,248,41,5*42,1746258496004
NMEA,$GNGSA,A,3,05,12,16,18,20,25,26,28,29,31,,,0.6,0.3,0.4,1*3A,1746258496015
NMEA,$GNGSA,A,3,65,73,80,82,83,,,,,,,,0.6,0.3,0.4,2*3D,1746258496015
NMEA,$GNGSA,A,3,03,05,09,10,12,16,23,24,26,31,33,,0.6,0.3,0.4,3*39,1746258496015
NMEA,$GNGSA,A,3,08,13,26,29,30,35,36,38,45,,,,0.6,0.3,0.4,4*3A,1746258496015
NMEA,$GNVTG,,T,,M,0.0,N,0.0,K,A*3D,1746258496015
NMEA,$GNDTM,P90,,0000.000026,S,00000.000000,E,0.978,W84*5C,1746258496015
NMEA,$GNRMC,074816.00,A,4504.228049,N,00741.118599,E,0.0,,030525,3.3,E,A,V*7D,1746258496015
NMEA,$GNGNS,074816.00,4504.228049,N,00741.118599,E,AAAANN,35,0.3,246.1,48.0,,,V*29,1746258496015
NMEA,$GNGGA,074816.00,4504.228049,N,00741.118599,E,1,12,0.3,246.1,M,48.0,M,,*7C,1746258496015
NMEA,$GPGSV,3,1,12,05,12,090,31,12,11,107,38,16,05,292,24,20,14,054,24,1*6B,1746258497008
NMEA,$GPGSV,3,2,12,25,45,108,35,26,31,299,46,28,57,234,40,29,74,040,44,1*6C,1746258497008
NMEA,$GPGSV,3,3,12,31,51,283,45,04,05,329,,11,05,033,,18,37,174,,1*6A,1746258497008
NMEA,$GPGSV,2,1,06,04,05,329,18,18,37,174,23,25,45,108,34,26,31,299,28,8*60,1746258497008
NMEA,$GPGSV,2,2,06,28,57,234,33,11,05,033,,8*63,1746258497008
NMEA,$GLGSV,2,1,08,,00,000,39,82,33,035,33,73,82,004,42,80,34,127,32,1*73,1746258497008
NMEA,$GLGSV,2,2,08,65,06,343,28,84,30,202,14,83,76,067,29,72,02,293,,1*7E,1746258497008
NMEA,$GAGSV,3,1,12,03,06,331,25,05,17,283,33,09,09,233,24,10,07,189,17,7*7F,1746258497008
NMEA,$GAGSV,3,2,12,12,26,177,23,16,16,293,45,23,27,103,33,24,42,298,42,7*7C,1746258497008
NMEA,$GAGSV,3,3,12,26,28,045,31,31,77,062,42,33,56,108,36,06,01,212,,7*74,1746258497008
NMEA,$GAGSV,3,1,11,03,06,331,20,05,17,283,28,09,09,233,25,10,07,189,19,1*7A,1746258497008
NMEA,$GAGSV,3,2,11,12,26,177,19,16,16,293,30,23,27,103,37,24,42,298,34,1*77,1746258497008
NMEA,$GAGSV,3,3,11,26,28,045,31,31,77,062,27,33,56,108,27,1*44,1746258497008
NMEA,$GBGSV,3,1,10,45,80,248,39,38,19,055,30,36,40,143,29,30,37,052,32,1*75,1746258497008
NMEA,$GBGSV,3,2,10,29,80,170,42,26,26,309,40,13,21,084,38,08,22,066,27,1*70,1746258497008
NMEA,$GBGSV,3,3,10,05,16,120,,35,22,221,,1*71,1746258497008
NMEA,$GBGSV,2,1,07,26,26,309,39,29,80,170,44,30,37,052,31,35,22,221,28,3*7A,1746258497008
NMEA,$GBGSV,2,2,07,36,40,143,36,38,19,055,31,45,80,248,44,3*47,1746258497008
NMEA,$GBGSV,2,1,07,26,26,309,36,29,80,170,36,30,37,052,32,35,22,221,19,5*77,1746258497008
NMEA,$GBGSV,2,2,07,36,40,143,30,38,19,055,24,45,80,248,39,5*49,1746258497008
NMEA,$GNGSA,A,3,05,12,16,18,20,25,26,28,29,31,,,0.6,0.3,0.4,1*3A,1746258497024
NMEA,$GNGSA,A,3,65,73,80,82,83,,,,,,,,0.6,0.3,0.4,2*3D,1746258497024
NMEA,$GNGSA,A,3,03,05,09,10,12,16,23,24,26,31,33,,0.6,0.3,0.4,3*39,1746258497024
NMEA,$GNGSA,A,3,08,13,26,29,30,35,36,38,45,,,,0.6,0.3,0.4,4*3A,1746258497024
NMEA,$GNVTG,,T,,M,0.0,N,0.0,K,A*3D,1746258497024
NMEA,$GNDTM,P90,,0000.000026,S,00000.000000,E,0.978,W84*5C,1746258497024
NMEA,$GNRMC,074817.00,A,4504.228087,N,00741.118601,E,0.0,,030525,3.3,E,A,V*7C,1746258497024
NMEA,$GNGNS,074817.00,4504.228087,N,00741.118601,E,AAAANN,35,0.3,246.3,48.0,,,V*2A,1746258497024
NMEA,$GNGGA,074817.00,4504.228087,N,00741.118601,E,1,12,0.3,246.3,M,48.0,M,,*7F,1746258497024
NMEA,$GPGSV,3,1,12,05,12,090,38,12,11,107,33,16,05,292,24,20,14,054,27,1*6A,1746258498001
NMEA,$GPGSV,3,2,12,25,45,108,36,26,31,299,42,28,57,234,37,29,74,040,44,1*6B,1746258498001
NMEA,$GPGSV,3,3,12,31,51,283,44,04,05,329,,11,05,033,,18,37,174,,1*6B,1746258498001
NMEA,$GPGSV,2,1,06,04,05,329,21,18,37,174,27,25,45,108,39,26,31,299,34,8*6E,1746258498001
NMEA,$GPGSV,2,2,06,28,57,234,32,11,05,033,,8*62,1746258498001
NMEA,$GLGSV,2,1,08,,00,000,34,82,33,035,37,73,82,004,42,80,34,127,38,1*70,1746258498001
NMEA,$GLGSV,2,2,08,65,06,343,21,84,30,202,14,83,76,067,30,72,02,293,,1*7F,1746258498001
NMEA,$GAGSV,3,1,12,03,06,331,26,05,17,283,36,09,09,233,26,10,07,189,17,7*7B,1746258498001
NMEA,$GAGSV,3,2,12,12,26,177,23,16,16,293,43,23,27,103,32,24,42,298,44,7*7D,1746258498001
NMEA,$GAGSV,3,3,12,26,28,045,31,31,77,062,40,33,56,108,37,06,01,212,,7*77,1746258498001
NMEA,$GAGSV,3,1,11,03,06,331,22,05,17,283,29,09,09,233,23,10,07,189,19,1*7F,1746258498001
NMEA,$GAGSV,3,2,11,12,26,177,19,16,16,293,29,23,27,103,33,24,42,298,36,1*79,1746258498001
NMEA,$GAGSV,3,3,11,26,28,045,31,31,77,062,38,33,56,108,32,1*4E,1746258498001
NMEA,$GBGSV,3,1,10,45,80,248,44,38,19,055,22,36,40,143,33,35,22,221,26,1*75,1746258498001
NMEA,$GBGSV,3,2,10,30,37,052,33,29,80,170,44,26,26,309,44,13,21,084,37,1*70,1746258498001
NMEA,$GBGSV,3,3,10,08,22,066,25,05,16,120,33,1*79,1746258498001
NMEA,$GBGSV,2,1,07,26,26,309,44,29,80,170,44,30,37,052,39,35,22,221,29,3*79,1746258498001
NMEA,$GBGSV,2,2,07,36,40,143,34,38,19,055,24,45,80,248,46,3*43,1746258498001
NMEA,$GBGSV,2,1,07,26,26,309,34,29,80,170,38,30,37,052,33,35,22,221,23,5*73,1746258498001
NMEA,$GBGSV,2,2,07,36,40,143,28,38,19,055,24,45,80,248,41,5*4F,1746258498001
NMEA,$GNGSA,A,3,05,12,16,18,20,25,26,28,29,31,,,0.6,0.3,0.4,1*3A,1746258498009
NMEA,$GNGSA,A,3,65,73,80,82,83,,,,,,,,0.6,0.3,0.4,2*3D,1746258498009
NMEA,$GNGSA,A,3,03,05,09,10,12,16,23,24,26,31,33,,0.6,0.3,0.4,3*39,1746258498009
NMEA,$GNGSA,A,3,05,08,13,26,29,30,35,36,38,45,,,0.6,0.3,0.4,4*3F,1746258498009
NMEA,$GNVTG,,T,,M,0.0,N,0.0,K,A*3D,1746258498009
NMEA,$GNDTM,P90,,0000.000026,S,00000.000000,E,0.978,W84*5C,1746258498009
NMEA,$GNRMC,074818.00,A,4504.228010,N,00741.119040,E,0.0,,030525,3.3,E,A,V*7F,1746258498009
NMEA,$GNGNS,074818.00,4504.228010,N,00741.119040,E,AAAANN,36,0.3,245.7,48.0,,,V*2D,1746258498009
NMEA,$GNGGA,074818.00,4504.228010,N,00741.119040,E,1,12,0.3,245.7,M,48.0,M,,*7B,1746258498009
NMEA,$GPGSV,3,1,12,05,12,090,38,12,11,107,34,16,05,292,24,20,14,054,23,1*69,1746258499004
NMEA,$GPGSV,3,2,12,25,45,108,33,26,31,299,40,28,57,234,27,29,74,040,40,1*69,1746258499004
NMEA,$GPGSV,3,3,12,31,51,283,45,04,05,329,,11,05,033,,18,37,174,,1*6A,1746258499004
NMEA,$GPGSV,2,1,06,04,05,329,21,18,37,174,25,25,45,108,38,26,31,299,40,8*6E,1746258499004
NMEA,$GPGSV,2,2,06,28,57,234,31,11,05,033,,8*61,1746258499004
NMEA,$GLGSV,2,1,08,,00,000,40,82,33,035,41,73,82,004,35,80,34,127,34,1*7E,1746258499004
NMEA,$GLGSV,2,2,08,65,06,343,21,84,30,202,14,83,76,067,25,72,02,293,,1*7B,1746258499004
NMEA,$GAGSV,3,1,12,03,06,331,26,05,17,283,28,09,09,233,26,10,07,189,18,7*7B,1746258499004
NMEA,$GAGSV,3,2,12,12,26,177,23,16,16,293,39,23,27,103,32,24,42,298,36,7*75,1746258499004
NMEA,$GAGSV,3,3,12,26,28,045,30,31,77,062,38,33,56,108,37,06,01,212,,7*79,1746258499004
NMEA,$GAGSV,3,1,11,03,06,331,22,05,17,283,31,09,09,233,23,10,07,189,19,1*76,1746258499004
NMEA,$GAGSV,3,2,11,12,26,177,19,16,16,293,37,23,27,103,32,24,42,298,41,1*77,1746258499004
NMEA,$GAGSV,3,3,11,26,28,045,28,31,77,062,36,33,56,108,39,1*43,1746258499004
NMEA,$GBGSV,3,1,10,45,80,248,41,38,19,055,25,36,40,143,31,35,22,221,23,1*70,1746258499004
NMEA,$GBGSV,3,2,10,30,37,052,35,29,80,170,42,26,26,309,45,13,21,084,35,1*73,1746258499004
NMEA,$GBGSV,3,3,10,08,22,066,25,05,16,120,33,1*79,1746258499004
NMEA,$GBGSV,2,1,07,26,26,309,47,29,80,170,43,30,37,052,34,35,22,221,29,3*70,1746258499004
NMEA,$GBGSV,2,2,07,36,40,143,32,38,19,055,24,45,80,248,45,3*46,1746258499004
NMEA,$GBGSV,2,1,07,26,26,309,36,29,80,170,37,30,37,052,23,35,22,221,23,5*7F,1746258499004
NMEA,$GBGSV,2,2,07,36,40,143,23,38,19,055,24,45,80,248,40,5*45,1746258499004
NMEA,$GNGSA,A,3,05,12,16,18,20,25,26,28,29,31,,,0.6,0.4,0.5,1*3C,1746258499024
NMEA,$GNGSA,A,3,73,80,82,,,,,,,,,,0.6,0.4,0.5,2*33,1746258499024
NMEA,$GNGSA,A,3,03,05,09,12,16,23,24,26,31,33,,,0.6,0.4,0.5,3*3E,1746258499024
NMEA,$GNGSA,A,3,05,08,13,26,29,30,35,36,38,45,,,0.6,0.4,0.5,4*39,1746258499024
NMEA,$GNVTG,,T,,M,0.0,N,0.0,K,A*3D,1746258499024
NMEA,$GNDTM,P90,,0000.000026,S,00000.000000,E,0.978,W84*5C,1746258499024
NMEA,$GNRMC,074819.00,A,4504.227838,N,00741.119035,E,0.0,,030525,3.3,E,A,V*71,1746258499024
NMEA,$GNGNS,074819.00,4504.227838,N,00741.119035,E,AAAANN,33,0.4,245.6,48.0,,,V*20,1746258499024
NMEA,$GNGGA,074819.00,4504.227838,N,00741.119035,E,1,12,0.4,245.6,M,48.0,M,,*73,1746258499024
NMEA,$GPGSV,3,1,12,05,12,090,35,12,11,107,35,16,05,292,24,18,37,174,27,1*68,1746258500013
NMEA,$GPGSV,3,2,12,20,14,054,22,25,45,108,35,26,31,299,46,28,57,234,32,1*63,1746258500013
NMEA,$GPGSV,3,3,12,29,74,040,36,31,51,283,44,04,05,329,,11,05,033,,1*6D,1746258500013
NMEA,$GPGSV,2,1,06,04,05,329,21,18,37,174,25,25,45,108,35,26,31,299,40,8*63,1746258500013
NMEA,$GPGSV,2,2,06,28,57,234,32,11,05,033,,8*62,1746258500013
NMEA,$GLGSV,2,1,08,,00,000,36,82,33,035,38,73,82,004,37,80,34,127,39,1*7E,1746258500013
NMEA,$GLGSV,2,2,08,65,06,343,24,84,30,202,14,83,76,067,28,72,02,293,,1*73,1746258500013
NMEA,$GAGSV,3,1,12,03,06,331,18,05,17,283,34,09,09,233,26,10,07,189,18,7*7B,1746258500013
NMEA,$GAGSV,3,2,12,12,26,177,19,16,16,293,38,23,27,103,32,24,42,298,43,7*7F,1746258500013
NMEA,$GAGSV,3,3,12,26,28,045,38,31,77,062,36,33,56,108,38,06,01,212,,7*70,1746258500013
NMEA,$GAGSV,3,1,11,03,06,331,22,05,17,283,32,09,09,233,23,10,07,189,19,1*75,1746258500013
NMEA,$GAGSV,3,2,11,12,26,177,19,16,16,293,39,23,27,103,38,24,42,298,41,1*73,1746258500013
NMEA,$GAGSV,3,3,11,26,28,045,29,31,77,062,35,33,56,108,38,1*40,1746258500013
NMEA,$GBGSV,3,1,10,45,80,248,40,38,19,055,24,36,40,143,29,35,22,221,25,1*7F,1746258500013
NMEA,$GBGSV,3,2,10,30,37,052,38,29,80,170,36,26,26,309,43,13,21,084,37,1*79,1746258500013
NMEA,$GBGSV,3,3,10,08,22,066,30,05,16,120,33,1*7D,1746258500013
NMEA,$GBGSV,2,1,07,26,26,309,44,29,80,170,38,30,37,052,38,35,22,221,25,3*7F,1746258500013
NMEA,$GBGSV,2,2,07,36,40,143,31,38,19,055,26,45,80,248,42,3*40,1746258500013
NMEA,$GBGSV,2,1,07,26,26,309,45,29,80,170,37,30,37,052,27,35,22,221,18,5*77,1746258500013
NMEA,$GBGSV,2,2,07,36,40,143,26,38,19,055,18,45,80,248,40,5*4F,1746258500013
NMEA,$GNGSA,A,3,05,12,16,18,20,25,26,28,29,31,,,0.6,0.4,0.5,1*3C,1746258500042
NMEA,$GNGSA,A,3,73,80,82,,,,,,,,,,0.6,0.4,0.5,2*33,1746258500042
NMEA,$GNGSA,A,3,03,05,09,12,16,23,24,26,31,33,,,0.6,0.4,0.5,3*3E,1746258500042
NMEA,$GNGSA,A,3,05,08,13,26,29,30,35,36,38,45,,,0.6,0.4,0.5,4*39,1746258500042
NMEA,$GNVTG,,T,,M,0.0,N,0.0,K,A*3D,1746258500042
NMEA,$GNDTM,P90,,0000.000026,S,00000.000000,E,0.978,W84*5C,1746258500042
NMEA,$GNRMC,074820.00,A,4504.227884,N,00741.119031,E,0.0,,030525,3.3,E,A,V*78,1746258500042
NMEA,$GNGNS,074820.00,4504.227884,N,00741.119031,E,AAAANN,33,0.4,245.9,48.0,,,V*26,1746258500042
NMEA,$GNGGA,074820.00,4504.227884,N,00741.119031,E,1,12,0.4,245.9,M,48.0,M,,*75,1746258500042
NMEA,$GPGSV,3,1,12,05,12,090,37,12,11,107,32,16,05,292,24,18,37,174,27,1*6D,1746258501004
NMEA,$GPGSV,3,2,12,20,14,054,22,25,45,108,29,26,31,299,45,28,57,234,32,1*6D,1746258501004
NMEA,$GPGSV,3,3,12,29,74,040,40,31,51,283,44,04,05,329,,11,05,033,,1*6C,1746258501004
NMEA,$GPGSV,2,1,06,04,05,329,21,18,37,174,22,25,45,108,36,26,31,299,39,8*69,1746258501004
NMEA,$GPGSV,2,2,06,28,57,234,27,11,05,033,,8*66,1746258501004
NMEA,$GLGSV,2,1,08,,00,000,34,82,33,035,35,73,82,004,33,80,34,127,29,1*74,1746258501004
NMEA,$GLGSV,2,2,08,65,06,343,26,84,30,202,14,83,76,067,26,72,02,293,,1*7F,1746258501004
NMEA,$GAGSV,3,1,12,03,06,331,18,05,17,283,25,09,09,233,17,10,07,189,18,7*79,1746258501004
NMEA,$GAGSV,3,2,12,12,26,177,19,16,16,293,37,23,27,103,28,24,42,298,38,7*77,1746258501004
NMEA,$GAGSV,3,3,12,26,28,045,40,31,77,062,34,33,56,108,34,06,01,212,,7*71,1746258501004
NMEA,$GAGSV,3,1,11,03,06,331,22,05,17,283,33,09,09,233,23,10,07,189,19,1*74,1746258501004
NMEA,$GAGSV,3,2,11,12,26,177,19,16,16,293,40,23,27,103,37,24,42,298,42,1*71,1746258501004
NMEA,$GAGSV,3,3,11,26,28,045,31,31,77,062,35,33,56,108,36,1*47,1746258501004
NMEA,$GBGSV,3,1,10,45,80,248,39,38,19,055,23,36,40,143,26,35,22,221,23,1*7F,1746258501004
NMEA,$GBGSV,3,2,10,30,37,052,38,29,80,170,37,26,26,309,36,13,21,084,36,1*7B,1746258501004
NMEA,$GBGSV,3,3,10,08,22,066,31,05,16,120,28,1*76,1746258501004
NMEA,$GBGSV,2,1,07,26,26,309,37,29,80,170,39,30,37,052,35,35,22,221,27,3*75,1746258501004
NMEA,$GBGSV,2,2,07,36,40,143,35,38,19,055,29,45,80,248,42,3*4B,1746258501004
NMEA,$GBGSV,2,1,07,26,26,309,43,29,80,170,36,30,37,052,23,35,22,221,18,5*74,1746258501004
NMEA,$GBGSV,2,2,07,36,40,143,27,38,19,055,23,45,80,248,40,5*46,1746258501004
NMEA,$GNGSA,A,3,05,12,16,18,20,25,26,28,29,31,,,0.6,0.4,0.5,1*3C,1746258501048
NMEA,$GNGSA,A,3,73,80,82,,,,,,,,,,0.6,0.4,0.5,2*33,1746258501048
NMEA,$GNGSA,A,3,03,05,09,12,16,23,24,26,31,33,,,0.6,0.4,0.5,3*3E,1746258501048
NMEA,$GNGSA,A,3,05,08,13,26,29,30,35,36,38,45,,,0.6,0.4,0.5,4*39,1746258501048
NMEA,$GNVTG,,T,,M,0.0,N,0.0,K,A*3D,1746258501048
NMEA,$GNDTM,P90,,0000.000026,S,00000.000000,E,0.978,W84*5C,1746258501048
NMEA,$GNRMC,074821.00,A,4504.227655,N,00741.119398,E,0.0,,030525,3.3,E,A,V*7B,1746258501048
NMEA,$GNGNS,074821.00,4504.227655,N,00741.119398,E,AAAANN,33,0.4,245.5,48.0,,,V*29,1746258501048
NMEA,$GNGGA,074821.00,4504.227655,N,00741.119398,E,1,12,0.4,245.5,M,48.0,M,,*7A,1746258501048
NMEA,$GPGSV,3,1,12,05,12,090,34,12,11,107,34,16,05,292,24,20,14,054,22,1*64,1746258502008
NMEA,$GPGSV,3,2,12,25,45,108,34,26,31,299,37,28,57,234,33,29,74,040,39,1*65,1746258502008
NMEA,$GPGSV,3,3,12,31,51,283,43,04,05,329,,11,05,033,,18,37,174,,1*6C,1746258502008
NMEA,$GPGSV,2,1,06,04,05,329,21,18,37,174,22,25,45,108,33,26,31,299,39,8*6C,1746258502008
NMEA,$GPGSV,2,2,06,28,57,234,29,11,05,033,,8*68,1746258502008
NMEA,$GLGSV,2,1,08,,00,000,38,82,33,035,33,73,82,004,37,80,34,127,31,1*73,1746258502008
NMEA,$GLGSV,2,2,08,65,06,343,23,84,30,202,14,83,76,067,24,72,02,293,,1*78,1746258502008
NMEA,$GAGSV,3,1,12,03,06,331,18,05,17,283,34,09,09,233,17,10,07,189,18,7*79,1746258502008
NMEA,$GAGSV,3,2,12,12,26,177,18,16,16,293,38,23,27,103,30,24,42,298,38,7*70,1746258502008
NMEA,$GAGSV,3,3,12,26,28,045,29,31,77,062,32,33,56,108,31,06,01,212,,7*7D,1746258502008
NMEA,$GAGSV,3,1,11,03,06,331,19,05,17,283,29,09,09,233,23,10,07,189,19,1*77,1746258502008
NMEA,$GAGSV,3,2,11,12,26,177,19,16,16,293,38,23,27,103,26,24,42,298,36,1*7D,1746258502008
NMEA,$GAGSV,3,3,11,26,28,045,24,31,77,062,26,33,56,108,34,1*43,1746258502008
NMEA,$GBGSV,3,1,10,45,80,248,41,38,19,055,23,36,40,143,32,35,22,221,23,1*75,1746258502008
NMEA,$GBGSV,3,2,10,30,37,052,34,29,80,170,41,26,26,309,46,13,21,084,34,1*73,1746258502008
NMEA,$GBGSV,3,3,10,08,22,066,28,05,16,120,28,1*7E,1746258502008
NMEA,$GBGSV,2,1,07,26,26,309,46,29,80,170,40,30,37,052,31,35,22,221,27,3*79,1746258502008
NMEA,$GBGSV,2,2,07,36,40,143,25,38,19,055,29,45,80,248,43,3*4B,1746258502008
NMEA,$GBGSV,2,1,07,26,26,309,28,29,80,170,32,30,37,052,31,35,22,221,19,5*7F,1746258502008
NMEA,$GBGSV,2,2,07,36,40,143,27,38,19,055,23,45,80,248,38,5*49,1746258502008
NMEA,$GNGSA,A,3,05,12,16,18,20,25,26,28,29,31,,,0.6,0.4,0.5,1*3C,1746258502083
NMEA,$GNGSA,A,3,73,80,82,,,,,,,,,,0.6,0.4,0.5,2*33,1746258502083
NMEA,$GNGSA,A,3,03,05,09,12,16,23,24,26,31,33,,,0.6,0.4,0.5,3*3E,1746258502083
NMEA,$GNGSA,A,3,05,08,13,26,29,30,35,36,38,45,,,0.6,0.4,0.5,4*39,1746258502083
NMEA,$GNVTG,,T,,M,0.0,N,0.0,K,A*3D,1746258502083
NMEA,$GNDTM,P90,,0000.000026,S,00000.000000,E,0.978,W84*5C,1746258502083
NMEA,$GNRMC,074822.00,A,4504.227852,N,00741.119784,E,0.0,,030525,3.3,E,A,V*78,1746258502083
NMEA,$GNGNS,074822.00,4504.227852,N,00741.119784,E,AAAANN,33,0.4,245.8,48.0,,,V*27,1746258502083
NMEA,$GNGGA,074822.00,4504.227852,N,00741.119784,E,1,12,0.4,245.8,M,48.0,M,,*74,1746258502083
NMEA,$GPGSV,3,1,12,04,05,329,25,05,12,090,34,12,11,107,31,16,05,292,24,1*69,1746258503002
NMEA,$GPGSV,3,2,12,20,14,054,22,25,45,108,31,26,31,299,36,28,57,234,30,1*62,1746258503002
NMEA,$GPGSV,3,3,12,29,74,040,40,31,51,283,48,11,05,033,,18,37,174,,1*66,1746258503002
NMEA,$GPGSV,2,1,06,04,05,329,17,18,37,174,22,25,45,108,36,26,31,299,34,8*61,1746258503002
NMEA,$GPGSV,2,2,06,28,57,234,29,11,05,033,,8*68,1746258503002
NMEA,$GLGSV,2,1,08,,00,000,30,82,33,035,27,73,82,004,41,80,34,127,36,1*78,1746258503002
NMEA,$GLGSV,2,2,08,65,06,343,23,84,30,202,14,83,76,067,29,72,02,293,,1*75,1746258503002
NMEA,$GAGSV,3,1,12,03,06,331,21,05,17,283,36,09,09,233,17,10,07,189,18,7*71,1746258503002
NMEA,$GAGSV,3,2,12,12,26,177,18,16,16,293,39,23,27,103,36,24,42,298,32,7*7D,1746258503002
NMEA,$GAGSV,3,3,12,26,28,045,25,31,77,062,40,33,56,108,38,06,01,212,,7*7D,1746258503002
NMEA,$GAGSV,3,1,11,03,06,331,19,05,17,283,24,09,09,233,23,10,07,189,19,1*7A,1746258503002
NMEA,$GAGSV,3,2,11,12,26,177,19,16,16,293,37,23,27,103,31,24,42,298,29,1*7A,1746258503002
NMEA,$GAGSV,3,3,11,26,28,045,24,31,77,062,32,33,56,108,32,1*40,1746258503002
NMEA,$GBGSV,3,1,10,45,80,248,38,38,19,055,23,36,40,143,31,35,22,221,23,1*78,1746258503002
NMEA,$GBGSV,3,2,10,30,37,052,40,29,80,170,39,26,26,309,41,13,21,084,31,1*7D,1746258503002
NMEA,$GBGSV,3,3,10,08,22,066,30,05,16,120,28,1*77,1746258503002
NMEA,$GBGSV,2,1,07,26,26,309,40,29,80,170,41,30,37,052,39,35,22,221,22,3*73,1746258503002
NMEA,$GBGSV,2,2,07,36,40,143,27,38,19,055,29,45,80,248,41,3*4B,1746258503002
NMEA,$GBGSV,2,1,07,26,26,309,30,29,80,170,32,30,37,052,34,35,22,221,19,5*73,1746258503002
NMEA,$GBGSV,2,2,07,36,40,143,27,38,19,055,23,45,80,248,37,5*46,1746258503002
NMEA,$GNGSA,A,3,05,12,18,20,25,26,28,29,31,,,,0.6,0.4,0.5,1*3B,1746258503013
NMEA,$GNGSA,A,3,73,80,82,,,,,,,,,,0.6,0.4,0.5,2*33,1746258503013
NMEA,$GNGSA,A,3,03,05,09,12,16,23,24,26,31,33,,,0.6,0.4,0.5,3*3E,1746258503013
NMEA,$GNGSA,A,3,05,08,13,26,29,30,35,36,38,45,,,0.6,0.4,0.5,4*39,1746258503013
NMEA,$GNVTG,,T,,M,0.0,N,0.0,K,A*3D,1746258503013
NMEA,$GNDTM,P90,,0000.000026,S,00000.000000,E,0.978,W84*5C,1746258503013
NMEA,$GNRMC,074823.00,A,4504.227463,N,00741.119694,E,0.0,,030525,3.3,E,A,V*77,1746258503013
NMEA,$GNGNS,074823.00,4504.227463,N,00741.119694,E,AAAANN,32,0.4,245.3,48.0,,,V*22,1746258503013
NMEA,$GNGGA,074823.00,4504.227463,N,00741.119694,E,1,12,0.4,245.3,M,48.0,M,,*70,1746258503013
NMEA,$GPGSV,3,1,12,04,05,329,28,05,12,090,38,12,11,107,38,18,37,174,23,1*62,1746258504006
NMEA,$GPGSV,3,2,12,20,14,054,22,25,45,108,37,26,31,299,39,28,57,234,35,1*6E,1746258504006
NMEA,$GPGSV,3,3,12,29,74,040,39,31,51,283,48,11,05,033,,16,05,292,,1*6C,1746258504006
NMEA,$GPGSV,2,1,06,04,05,329,17,18,37,174,18,25,45,108,37,26,31,299,38,8*65,1746258504006
NMEA,$GPGSV,2,2,06,28,57,234,25,11,05,033,,8*64,1746258504006
NMEA,$GLGSV,2,1,08,,00,000,38,82,33,035,37,73,82,004,41,80,34,127,35,1*72,1746258504006
NMEA,$GLGSV,2,2,08,65,06,343,23,84,30,202,14,83,76,067,27,72,02,293,,1*7B,1746258504006
NMEA,$GAGSV,3,1,12,03,06,331,21,05,17,283,35,09,09,233,17,10,07,189,18,7*72,1746258504006
NMEA,$GAGSV,3,2,12,12,26,177,18,16,16,293,40,23,27,103,32,24,42,298,36,7*73,1746258504006
NMEA,$GAGSV,3,3,12,26,28,045,29,31,77,062,37,33,56,108,35,06,01,212,,7*7C,1746258504006
NMEA,$GAGSV,3,1,11,03,06,331,19,05,17,283,29,09,09,233,17,10,07,189,19,1*70,1746258504006
NMEA,$GAGSV,3,2,11,12,26,177,19,16,16,293,39,23,27,103,33,24,42,298,36,1*78,1746258504006
NMEA,$GAGSV,3,3,11,26,28,045,22,31,77,062,34,33,56,108,32,1*40,1746258504006
NMEA,$GBGSV,3,1,10,45,80,248,41,36,40,143,33,35,22,221,24,30,37,052,35,1*77,1746258504006
NMEA,$GBGSV,3,2,10,29,80,170,40,26,26,309,43,13,21,084,31,08,22,066,35,1*7B,1746258504006
NMEA,$GBGSV,3,3,10,05,16,120,26,38,19,055,,1*71,1746258504006
NMEA,$GBGSV,2,1,07,26,26,309,42,29,80,170,41,30,37,052,37,35,22,221,25,3*78,1746258504006
NMEA,$GBGSV,2,2,07,36,40,143,28,38,19,055,29,45,80,248,43,3*46,1746258504006
NMEA,$GBGSV,2,1,07,26,26,309,27,29,80,170,33,30,37,052,33,35,22,221,20,5*79,1746258504006
NMEA,$GBGSV,2,2,07,36,40,143,28,38,19,055,17,45,80,248,41,5*4F,1746258504006
NMEA,$GNGSA,A,3,05,12,18,20,25,26,28,29,31,,,,0.6,0.4,0.5,1*3B,1746258504024
NMEA,$GNGSA,A,3,73,80,82,,,,,,,,,,0.6,0.4,0.5,2*33,1746258504024
NMEA,$GNGSA,A,3,03,05,09,12,16,23,24,26,31,33,,,0.6,0.4,0.5,3*3E,1746258504024
NMEA,$GNGSA,A,3,05,08,13,26,29,30,35,36,38,45,,,0.6,0.4,0.5,4*39,1746258504024
NMEA,$GNVTG,,T,,M,0.0,N,0.0,K,A*3D,1746258504024
NMEA,$GNDTM,P90,,0000.000026,S,00000.000000,E,0.978,W84*5C,1746258504024
NMEA,$GNRMC,074824.00,A,4504.227147,N,00741.119900,E,0.0,,030525,3.3,E,A,V*71,1746258504024
NMEA,$GNGNS,074824.00,4504.227147,N,00741.119900,E,AAAANN,32,0.4,244.5,48.0,,,V*23,1746258504024
NMEA,$GNGGA,074824.00,4504.227147,N,00741.119900,E,1,12,0.4,244.5,M,48.0,M,,*71,1746258504024
NMEA,$GPGSV,3,1,12,04,05,329,28,05,12,090,35,12,11,107,37,20,14,054,19,1*60,1746258505004
NMEA,$GPGSV,3,2,12,25,45,108,38,26,31,299,37,28,57,234,32,29,74,040,41,1*67,1746258505004
NMEA,$GPGSV,3,3,12,31,51,283,45,11,05,033,,16,05,292,,18,37,174,,1*68,1746258505004
NMEA,$GPGSV,2,1,06,04,05,329,17,18,37,174,24,25,45,108,35,26,31,299,42,8*65,1746258505004
NMEA,$GPGSV,2,2,06,28,57,234,33,11,05,033,,8*63,1746258505004
NMEA,$GLGSV,2,1,08,,00,000,41,82,33,035,39,73,82,004,39,80,34,127,29,1*70,1746258505004
NMEA,$GLGSV,2,2,08,65,06,343,24,84,30,202,14,83,76,067,26,72,02,293,,1*7D,1746258505004
NMEA,$GAGSV,3,1,12,03,06,331,21,05,17,283,36,09,09,233,17,10,07,189,18,7*71,1746258505004
NMEA,$GAGSV,3,2,12,12,26,177,18,16,16,293,41,23,27,103,31,24,42,298,37,7*70,1746258505004
NMEA,$GAGSV,3,3,12,26,28,045,33,31,77,062,34,33,56,108,29,06,01,212,,7*79,1746258505004
NMEA,$GAGSV,3,1,10,03,06,331,19,05,17,283,29,09,09,233,23,10,07,189,19,1*76,1746258505004
NMEA,$GAGSV,3,2,10,16,16,293,38,23,27,103,32,24,42,298,39,26,28,045,22,1*77,1746258505004
NMEA,$GAGSV,3,3,10,31,77,062,34,33,56,108,30,1*7C,1746258505004
NMEA,$GBGSV,3,1,10,45,80,248,41,36,40,143,29,35,22,221,24,30,37,052,32,1*7B,1746258505004
NMEA,$GBGSV,3,2,10,29,80,170,39,26,26,309,47,13,21,084,31,08,22,066,34,1*70,1746258505004
NMEA,$GBGSV,3,3,10,05,16,120,26,38,19,055,,1*71,1746258505004
NMEA,$GBGSV,2,1,07,26,26,309,48,29,80,170,39,30,37,052,34,35,22,221,27,3*7C,1746258505004
NMEA,$GBGSV,2,2,07,36,40,143,31,38,19,055,20,45,80,248,44,3*40,1746258505004
NMEA,$GBGSV,2,1,07,26,26,309,31,29,80,170,31,30,37,052,32,35,22,221,20,5*7D,1746258505004
NMEA,$GBGSV,2,2,07,36,40,143,28,38,19,055,17,45,80,248,40,5*4E,1746258505004
NMEA,$GNGSA,A,3,05,12,18,20,25,26,28,29,31,,,,0.6,0.4,0.5,1*3B,1746258505015
NMEA,$GNGSA,A,3,73,80,82,,,,,,,,,,0.6,0.4,0.5,2*33,1746258505015
NMEA,$GNGSA,A,3,03,05,09,12,16,23,24,26,31,33,,,0.6,0.4,0.5,3*3E,1746258505015
NMEA,$GNGSA,A,3,05,08,13,26,29,30,35,36,38,45,,,0.6,0.4,0.5,4*39,1746258505015
NMEA,$GNVTG,,T,,M,0.0,N,0.0,K,A*3D,1746258505015
NMEA,$GNDTM,P90,,0000.000026,S,00000.000000,E,0.978,W84*5C,1746258505015
NMEA,$GNRMC,074825.00,A,4504.226936,N,00741.119948,E,0.0,,030525,3.3,E,A,V*73,1746258505015
NMEA,$GNGNS,074825.00,4504.226936,N,00741.119948,E,AAAANN,32,0.4,244.5,48.0,,,V*21,1746258505015
NMEA,$GNGGA,074825.00,4504.226936,N,00741.119948,E,1,12,0.4,244.5,M,48.0,M,,*73,1746258505015
NMEA,$GPGSV,3,1,12,04,05,329,26,05,12,090,41,12,11,107,35,20,14,054,19,1*6F,1746258506004
NMEA,$GPGSV,3,2,12,25,45,108,41,26,31,299,33,28,57,234,30,29,74,040,41,1*6F,1746258506004
NMEA,$GPGSV,3,3,12,31,51,283,40,11,05,033,,16,05,292,,18,37,174,,1*6D,1746258506004
NMEA,$GPGSV,2,1,06,04,05,329,17,18,37,174,24,25,45,108,37,26,31,299,36,8*64,1746258506004
NMEA,$GPGSV,2,2,06,28,57,234,23,11,05,033,,8*62,1746258506004
NMEA,$GLGSV,2,1,08,,00,000,36,82,33,035,36,73,82,004,40,80,34,127,38,1*71,1746258506004
NMEA,$GLGSV,2,2,08,65,06,343,23,84,30,202,14,83,76,067,28,72,02,293,,1*74,1746258506004
NMEA,$GAGSV,3,1,12,03,06,331,23,05,17,283,36,09,09,233,17,10,07,189,18,7*73,1746258506004
NMEA,$GAGSV,3,2,12,12,26,177,18,16,16,293,35,23,27,103,35,24,42,298,34,7*74,1746258506004
NMEA,$GAGSV,3,3,12,26,28,045,33,31,77,062,38,33,56,108,40,06,01,212,,7*7A,1746258506004
NMEA,$GAGSV,3,1,11,03,06,331,19,05,17,283,29,09,09,233,23,10,07,189,19,1*77,1746258506004
NMEA,$GAGSV,3,2,11,16,16,293,33,23,27,103,31,24,42,298,33,26,28,045,22,1*74,1746258506004
NMEA,$GAGSV,3,3,11,31,77,062,33,33,56,108,34,12,26,177,,1*48,1746258506004
NMEA,$GBGSV,3,1,10,45,80,248,37,38,19,055,24,36,40,143,34,35,22,221,24,1*72,1746258506004
NMEA,$GBGSV,3,2,10,30,37,052,38,29,80,170,38,26,26,309,44,13,21,084,38,1*7F,1746258506004
NMEA,$GBGSV,3,3,10,08,22,066,32,05,16,120,26,1*7B,1746258506004
NMEA,$GBGSV,2,1,07,26,26,309,45,29,80,170,41,30,37,052,39,35,22,221,26,3*72,1746258506004
NMEA,$GBGSV,2,2,07,36,40,143,32,38,19,055,25,45,80,248,40,3*42,1746258506004
NMEA,$GBGSV,2,1,07,26,26,309,32,29,80,170,31,30,37,052,31,35,22,221,20,5*7D,1746258506004
NMEA,$GBGSV,2,2,07,36,40,143,28,38,19,055,17,45,80,248,37,5*4E,1746258506004
NMEA,$GNGSA,A,3,05,12,18,20,25,26,28,29,31,,,,0.6,0.4,0.5,1*3B,1746258506012
NMEA,$GNGSA,A,3,73,80,82,,,,,,,,,,0.6,0.4,0.5,2*33,1746258506012
NMEA,$GNGSA,A,3,03,05,09,12,16,23,24,26,31,33,,,0.6,0.4,0.5,3*3E,1746258506012
NMEA,$GNGSA,A,3,05,08,13,26,29,30,35,36,38,45,,,0.6,0.4,0.5,4*39,1746258506012
NMEA,$GNVTG,,T,,M,0.0,N,0.0,K,A*3D,1746258506012
NMEA,$GNDTM,P90,,0000.000026,S,00000.000000,E,0.978,W84*5C,1746258506012
NMEA,$GNRMC,074826.00,A,4504.226743,N,00741.119919,E,0.0,,030525,3.3,E,A,V*78,1746258506012
NMEA,$GNGNS,074826.00,4504.226743,N,00741.119919,E,AAAANN,32,0.4,244.1,48.0,,,V*2E,1746258506012
