     4.01           OBSERVATION DATA    M                   RINEX VERSION / TYPE
GnssLogger          Xiaomi 12           20250503 074819 UTC PGM / RUN BY / DATE
Google GnssLogger                                           MARKER NAME
Unknown                                                     MARKER NUMBER
Unknown             Unknown                                 OBSERVER / AGENCY
Unknown             GnssLogger          v3.1.0.4            REC # / TYPE / VERS
Unknown             Unknown                                 ANT # / TYPE
        0.0000        0.0000        0.0000                  ANTENNA: DELTA H/E/N
G    6 C1C D1C S1C C5Q D5Q S5Q                              SYS / # / OBS TYPES
R    3 C1C D1C S1C                                          SYS / # / OBS TYPES
C    9 C2I D2I S2I C5P D5P S5P C1P D1P S1P                  SYS / # / OBS TYPES
E    6 C1C D1C S1C C5Q D5Q S5Q                              SYS / # / OBS TYPES
  2025    05    03    07    48   19.0000000     GPS         TIME OF FIRST OBS
 7 R01  1 R09 -2 R10 -7 R16 -1 R18 -3 R19  3 R20  2         GLONASS SLOT / FRQ #
Xiaomi 2107113SG (Android 12) HW Year: 2018 HW Model:       COMMENT
qcom;MPSS.HI.4.3.c2-00084-LC_ALL_PACK-1.4500.49.6980.77;    COMMENT
                                                            END OF HEADER
> 2025 05 03 07 48 19.4249031  0 32                      
G05  24359345.91725      2244.70625        34.90025                                                
G12  24722300.14925     -3311.77725        29.90025                                                
G18  22491758.22124      3113.50024        24.70024                                                
G25  21464308.31025     -2504.75025        30.10025  21461935.45225     -1869.70125        34.60025
G26  22529446.33027      2853.74727        43.40027  22527086.66426      2131.12926        36.60026
G28  21156216.99724     -1175.75024        27.80024  21153859.72925      -877.88525        30.50025
G29  20508775.31126      -873.48326        39.50026                                                
G31  21240571.40027       582.27227        44.00027                                                
R18  21395535.62026     -3537.65826        40.70026
R09  19105165.91027       524.45427        41.50027
R16  21331738.88624     -3126.90024        24.60024
R01  23967032.11024      -330.35024        25.70024
R19  19284320.38425      -602.03425        30.40025
C45  21707611.77426        45.67626        39.50026  21705728.17826        34.38726        38.90026  21707648.94927        46.17427        43.00027
C38  39600239.26624       925.85024        28.40024  39598351.77323       698.15023        22.60023                                                
C36  23279906.59725     -2569.64025        34.30025  23277993.92124     -1936.28024        27.60024  23279906.59725     -2593.14125        35.00025
C35  24785172.62325      3074.39525        31.30025                                                                                                
C30  23493138.78027     -2443.11627        43.80027  23491255.78325     -1840.91025        30.40025  23493165.16127     -2465.51127        44.30027
C29  21468181.32926       473.23626        39.40026  21466294.73525       356.68025        33.90025  21468205.91226       477.69926        38.80026
C26  24590121.05527      2771.79227        43.40027  24588240.15725      2088.82625        34.50025  24590146.83726      2797.14326        38.00026
C13  39581902.76025      1762.62125        31.70025                                                                                                
C08  39500193.72625      1469.89125        30.30025                                                                                                
E03  28300277.26723       787.40023        21.70023                                                
E05  25625321.80024     -1406.73924        23.80024  25623414.22124     -1050.32024        28.00024
E10  28245888.02023      3311.55023        21.10023                                                
E12  26578388.40623      3100.35023        19.70023                                                
E16  27156510.88026      2414.41326        36.20026  27154596.70526      1803.03326        37.90026
E23  26141919.36725     -2146.39325        30.60025                                                
E24  25360328.95125      1886.14425        34.10025  25358420.17225      1408.66825        30.00025
E26  26038956.24726     -1862.27126        40.20026  26037049.86726     -1390.52026        38.00026
E31  23384575.23726      -286.82426        40.50026  23382662.56125      -214.07925        34.00025
E33  24084602.61825       818.46225        31.30025  24082693.53926       611.21126        35.50026
> 2025 05 03 07 48 20.4249031  0 34                      
G04  25076284.36123       773.75023        20.40023                                                
G05  24358945.76426      2244.18426        39.90026                                                
G12  24722899.80425     -3311.54025        33.10025                                                
G18  22491161.40424      3115.75024        24.40024  22488775.35624      2325.37524        25.70024
G20  24219535.07623        51.00023        19.90023                                                
G25  21464772.45925     -2504.07125        34.50025  21462411.59326     -1869.44726        36.10026
G26  22528904.37527      2854.02027        44.00027  22526542.61025      2131.30425        33.10025
G28  21156411.03324     -1176.65024        25.50024  21154074.75025      -878.18325        30.70025
G29  20508947.46326      -874.06526        38.30026                                                
G31  21240461.74627       581.96927        46.10027                                                
R18  21396192.83527     -3537.67527        43.60027
R09  19105071.54627       524.13727        44.70027
R16  21332238.41026     -3128.79926        35.60026
R01  23967094.23723      -330.35023        22.60023
R19  19284458.65825      -602.52825        31.30025
C45  21707607.34826        45.23826        39.80026  21705719.25526        34.18726        38.20026  21707641.52427        45.61127        43.60027
C38  39600102.63124       924.65024        26.30024  39598165.37224       698.81124        24.60024  39600067.25524       936.35024        25.20024
C36  23280390.83226     -2569.55126        36.50026  23278486.85024     -1936.47824        24.70024  23280419.31225     -2592.79625        33.30025
C35  24784593.49425      3074.00425        31.00025  24782699.40624      2316.14724        25.60024  24784604.88624      3102.09124        27.30024
C30  23493605.32727     -2443.05527        44.50027  23491728.02625     -1841.14525        35.20025  23493634.70727     -2465.54027        45.50027
C29  21468087.56426       472.88126        41.20026  21466204.26725       356.50925        33.30025  21468120.54126       477.12126        40.80026
C26  24589588.09428      2772.33528        47.50028  24587708.69525      2089.39825        31.90025  24589614.77527      2797.81427        45.30027
C13  39581565.26425      1762.89325        32.50025                                                                                                
C08  39499912.59124      1470.80024        28.50024                                                                                                
E03  28300121.74524       788.55424        23.80024                                                
E05  25625585.98724     -1406.62024        26.60024  25623681.10624     -1050.52224        24.70024
E09  28137104.79922     -2780.65022        16.20022  28135186.72724     -2076.95024        23.80024
E10  28245251.33124      3319.21524        23.70024                                                
E16  27156052.26826      2415.06826        38.00026  27154136.59425      1803.58225        35.20025
E23  26142325.95625     -2145.86725        30.90025  26140410.58224     -1602.82824        26.60024
E24  25359971.66826      1886.30526        40.40026  25358061.99025      1408.51025        32.30025
E26  26039310.67227     -1862.06727        42.30027  26037404.89126     -1390.39626        38.60026
E31  23384629.26927      -286.80327        42.90027  23382715.09525      -214.17125        31.70025
E33  24084442.89926       818.27426        35.80026  24082537.71726       611.19226        36.40026
> 2025 05 03 07 48 21.4249031  0 33                      
G05  24358465.22824      2242.85024        26.70024                                                
G12  24723647.81825     -3312.12125        29.70025                                                
G18  22490625.40724      3110.10024        25.40024  22488199.18724      2324.19524        25.40024
G25  21465265.94925     -2504.75825        34.70025  21462887.69526     -1870.37226        36.80026
G26  22528356.38627      2853.09827        42.40027  22526000.01826      2130.47626        37.00026
G28  21156669.48525     -1176.35425        33.00025  21154299.62625      -879.08325        33.30025
G29  20509105.78426      -874.67926        38.80026                                                
G31  21240352.05327       580.58227        46.70027                                                
R18  21396848.51327     -3539.08227        43.70027
R09  19104969.04826       522.65226        41.10026
R16  21332870.40424     -3129.62624        29.30024
R20  21680098.72323      3920.60023        18.90023
R19  19284594.79624      -607.15024        28.00024
C45  21707593.58926        44.32826        39.10026  21705710.59226        33.36326        37.60026  21707631.36227        44.78827        41.60027
C38  39599860.73023       929.80023        22.60023  39597987.92623       698.05023        20.30023  39599923.98624       934.12724        27.50024
C36  23280898.71224     -2571.85024        28.60024  23278983.03825     -1937.11725        31.40025  23280897.81325     -2593.72625        32.40025
C35  24783994.84025      3072.78525        31.50025                                                                                                
C30  23494073.03526     -2444.28726        37.70026  23492199.33226     -1841.99926        36.30026  23494103.31427     -2466.73427        43.80027
C29  21467992.86126       471.89926        38.70026  21466114.06125       355.57825        35.00025  21468030.93426       476.29926        39.20026
C26  24589058.39227      2771.07427        45.60027  24587179.59325      2087.91725        34.20025  24589088.37127      2796.59627        46.40027
C13  39581215.73724      1761.54924        29.30024                                                                                                
C08  39499626.02124      1468.55024        26.60024                                                                                                
E03  28299975.47823       787.15223        23.30023                                                
E05  25625860.62924     -1407.58224        27.70024  25623944.65524     -1051.09424        26.80024
E09  28137627.66924     -2782.43524        24.50024                                                
E10  28244618.80023      3313.50023        21.60023                                                
E12  26577236.40523      3096.10023        21.60023                                                
E16  27155592.11826      2414.08926        41.40026  27153678.24326      1802.80526        37.40026
E23  26142744.49724     -2147.09524        29.00024  26140821.02924     -1603.40124        27.60024
E24  25359620.94327      1885.75327        41.50027  25357703.17024      1408.42024        26.10024
E26  26039670.75426     -1863.65526        39.80026  26037759.87726     -1391.63126        38.90026
E31  23384682.96426      -287.70526        41.30026  23382770.58825      -214.70625        30.10025
E33  24084280.74225       816.64725        31.00025  24082382.15725       610.65925        32.10025
> 2025 05 03 07 48 22.4249031  0 33                      
G05  24358033.86025      2243.22425        32.00025                                                
G12  24724324.48325     -3311.24225        29.70025                                                
G18  22490017.16124      3115.50024        27.10024  22487615.52423      2324.05023        22.20023
G20  24219582.50823        54.00023        21.40023                                                
G25  21465751.34625     -2504.36525        33.40025  21463363.79924     -1870.23124        29.20024
G26  22527813.19627      2853.67527        44.20027  22525456.22725      2131.05025        34.90025
G28  21156893.76326     -1177.14726        35.60026  21154524.80325      -879.02525        32.70025
G29  20509299.48424      -874.94324        29.20024                                                
G31  21240240.56427       580.69227        44.00027                                                
R18  21397518.58227     -3538.41427        41.80027
R09  19104874.34727       522.90027        43.00027
R16  21333452.63425     -3129.60825        34.90025
R01  23967156.35923      -333.40023        21.20023
R19  19284682.96824      -599.80024        28.00024
C45  21707581.93025        44.61425        35.40025  21705701.33226        33.55826        36.30026  21707624.80026        44.86926        40.20026
C36  23281377.81424     -2576.25024        23.50024  23279478.62824     -1937.01224        28.30024  23281379.91225     -2602.83625        30.80025
C35  24783405.18225      3072.80725        32.00025  24781525.18324      2315.64324        27.40024  24783451.94924      3101.03824        27.20024
C30  23494544.64127     -2443.53527        42.00027  23492666.74125     -1841.81125        31.50025  23494573.42127     -2466.26227        44.40027
C29  21467899.35926       472.11426        39.50026  21466022.95825       355.53925        32.00025  21467942.52926       476.33426        39.60026
C26  24588525.39427      2771.88627        44.50027  24586646.59525      2088.70525        34.30025  24588556.57327      2797.07327        45.30027
C13  39580877.30525      1763.06625        29.90025                                                                                                
C08  39499339.75225      1468.69425        29.60025                                                                                                
E03  28299833.40923       787.18823        23.30023                                                
E05  25626128.97625     -1407.59725        29.80025  25624209.70524     -1051.23224        23.90024
E09  28138160.13324     -2781.06924        27.70024  28136244.45925     -2076.97025        30.40025
E12  26576628.15924      3097.01624        24.70024                                                
E16  27155132.26927      2414.97427        42.90027  27153219.29425      1803.47225        35.00025
E23  26143158.54425     -2146.54025        30.60025                                                
E24  25359263.02427      1886.24727        43.10027  25357358.74223      1408.20023        23.10023
E26  26040023.34327     -1862.98027        42.60027  26038111.26725     -1391.33125        34.20025
E31  23384737.25926      -287.22126        40.50026  23382829.98024      -219.55424        26.60024
E33  24084131.17926       817.39926        36.40026  24082227.49724       609.65024        27.20024
E10                                                  28242325.12123      2472.40023        19.10023
> 2025 05 03 07 48 23.4249031  0 33                      
G05  24357637.43625      2243.27025        33.70025                                                
G12  24724923.66924     -3310.48324        29.30024                                                
G18  22489401.58824      3112.99824        28.80024                                                
G25  21466223.12026     -2504.21226        36.00026  21463840.67025     -1869.97825        34.60025
G26  22527265.37627      2853.92027        41.80027  22524913.20425      2131.38025        34.50025
G28  21157115.81126     -1177.25726        36.00026  21154748.94925      -879.13225        32.90025
G29  20509433.99125      -874.58925        33.50025                                                
G31  21240128.34227       580.51527        43.70027                                                
R18  21398165.43627     -3538.19627        42.40027
R09  19104781.91227       522.69827        43.20027
R16  21334044.02624     -3129.59224        29.20024
R01  23967270.78123      -328.70023        21.60023
R19  19284788.99624      -606.45024        28.40024
C45  21707575.83526        44.47726        36.50026  21705693.73826        33.54026        35.50026  21707614.20926        44.93526        40.60026
C38  39599505.11023       925.35023        21.60023                                                                                                
C36  23281889.16124     -2571.30024        26.30024  23279969.59024     -1936.67024        28.80024  23281875.37024     -2592.85024        28.60024
C35  24782807.59725      3073.51425        32.40025                                                                                                
C30  23495014.01726     -2443.27526        40.60026  23493141.21424     -1843.67024        29.40024  23495042.49827     -2465.70427        43.40027
C29  21467809.02226       472.10726        38.00026  21465932.92125       355.73725        31.20025  21467852.19226       476.39226        39.70026
C26  24587994.06327      2772.17627        44.60027  24586115.26425      2088.92825        31.90025  24588025.24227      2797.51327        45.30027
C13  39580548.63424      1763.55024        27.50024                                                                                                
C08  39499057.24925      1470.11925        29.50025                                                                                                
E03  28299680.41624       787.48524        23.70024                                                
E05  25626393.59424     -1407.42124        27.90024                                                
E09  28138692.46624     -2778.04324        26.80024                                                
E10  28243345.21623      3312.90023        18.60023                                                
E12  26576037.46924      3097.74824        25.30024                                                
E16  27154671.98927      2415.50327        41.60027  27152759.31325      1803.79325        35.30025
E23  26143572.45925     -2145.99325        31.90025                                                
E24  25358901.97527      1886.55927        42.20027  25356992.29724      1407.05124        25.30024
E26  26040378.79827     -1862.64227        42.50027  26038467.62125     -1390.87425        35.10025
E31  23384792.32226      -287.10726        40.50026  23382886.84124      -214.20024        29.40024
E33  24083976.08726       817.30526        36.30026  24082070.00725       610.43825        32.20025
> 2025 05 03 07 48 24.4249031  0 31                      
G05  24357225.42825      2240.72325        34.90025                                                
G12  24725473.99424     -3313.80024        27.80024                                                
G18  22488795.91424      3113.00024        28.50024  22486423.05723      2323.95023        22.60023
G25  21466710.78926     -2505.94926        36.50026  21464317.84626     -1871.30326        36.40026
G26  22526722.65827      2852.46927        43.00027  22524371.38626      2130.20026        36.80026
G28  21157338.76326     -1179.37826        37.10026  21154969.80325      -880.37925        31.60025
G29  20509614.07426      -876.36726        40.60026                                                
G31  21240015.82727       578.52827        45.00027                                                
R18  21398832.38126     -3540.30826        41.10026
R09  19104689.48327       520.46527        44.20027
R16  21334617.13625     -3131.42725        32.00025
R19  19284918.11324      -604.40024        28.30024
C45  21707571.24526        42.72826        39.80026  21705685.25126        32.28926        36.80026  21707605.42126        43.22426        41.10026
C38  39599347.32624       927.40024        24.80024                                                  39599388.69824       934.95024        24.50024
C36  23282351.64724     -2571.65024        26.80024  23280462.65524     -1937.80524        27.90024  23282375.33125     -2594.81025        34.80025
C35  24782221.10925      3072.88925        31.30025  24780348.00624      2314.96024        25.70024  24782263.08024      3099.90024        25.20024
C30  23495479.50226     -2445.24026        38.20026  23493614.49324     -1842.00024        23.70024  23495512.77926     -2467.61526        39.10026
C29  21467721.39026       470.19726        38.00026  21465840.19225       354.47025        30.50025  21467754.96626       474.57726        37.80026
C26  24587458.84027      2770.64027        44.00027  24585584.23825      2088.20925        32.20025  24587492.11727      2796.32127        45.50027
C13  39580223.56524      1761.26224        29.40024                                                                                                
C08  39498772.95225      1468.60925        30.30025                                                                                                
E03  28299524.73123       786.45023        22.20023                                                
E05  25626663.31425     -1408.33325        30.60025  25624750.03924     -1052.05724        28.60024
E09  28139215.51024     -2782.13424        27.50024  28137303.13425     -2077.59225        30.20025
E12  26575436.59224      3096.22424        24.80024                                                
E16  27154212.61427      2414.50727        42.40027  27152300.53726      1802.97426        35.80026
E23  26144000.16925     -2147.44525        29.70025  26142045.22324     -1603.74524        26.60024
E24  25358544.52926      1885.38826        41.30026  25356628.85525      1409.51525        33.20025
E26  26040733.35927     -1864.65627        42.10027  26038820.68325     -1392.56625        33.10025
E31  23384844.09326      -288.55526        38.50026  23382939.51225      -216.17725        30.20025
E33  24083826.39825       815.37325        31.90025  24081914.92126       608.92826        37.20026
> 2025 05 03 07 48 25.4249031  0 31                      
G05  24356846.61725      2239.87025        31.90025                                                
G12  24726071.90824     -3314.51624        28.80024                                                
G20  24219543.47023        51.85023        22.90023                                                
G25  21467166.00125     -2507.63025        31.90025  21464797.04126     -1873.07526        36.90026
G26  22526187.95627      2850.25627        42.10027  22523829.78826      2128.39126        39.70026
G28  21157564.63425     -1181.85725        33.40025  21155192.37624      -882.79124        23.90024
G29  20509785.38226      -878.35626        40.50026                                                
G31  21239911.32627       575.99027        41.90027                                                
R18  21399510.93825     -3542.83625        35.20025
R09  19104584.98227       517.98627        42.90027
R16  21335172.17925     -3134.17725        31.20025
R19  19285037.25824      -609.05024        27.40024
C45  21707562.37826        40.31626        35.80026  21705678.18325        30.42925        33.10025  21707605.54827        40.72727        43.40027
C36  23282807.45924     -2577.05024        26.20024  23280958.03924     -1939.78924        26.50024  23282867.71726     -2597.33826        37.50026
C35  24781623.75024      3069.00024        29.20024                                                  24781637.84024      3097.31424        26.80024
C30  23495973.98725     -2447.06425        31.40025  23494073.00324     -1844.29824        27.70024  23495984.77926     -2469.65526        38.30026
C29  21467634.27726       468.03126        39.40026  21465748.88225       352.84325        31.10025  21467665.15627       472.22627        41.80027
C26  24586939.72725      2768.96025        32.10025  24585047.73725      2086.21525        31.90025  24586966.70825      2791.66925        32.00025
C13  39579883.12825      1759.32025        30.00025                                                                                                
C08  39498502.36724      1466.05024        27.70024                                                                                                
E03  28299398.64523       782.45023        23.00023                                                
E05  25626935.95325     -1411.50225        35.00025  25625022.37724     -1054.12524        26.90024
E09  28139749.56824     -2784.06724        27.40024                                                
E16  27153751.96026      2412.08726        40.00026  27151840.18324      1801.09224        28.60024
E23  26144378.63425     -2150.38625        30.40025  26142455.76624     -1605.78724        24.90024
E24  25358184.00627      1883.05327        42.50027  25356270.13126      1406.32626        39.10026
E26  26041089.64025     -1867.41925        32.60025  26039177.56425     -1394.16625        32.90025
E31  23384906.27726      -290.86026        37.70026  23382996.59924      -217.30224        27.10024
E33  24083680.52625       812.81025        34.80025  24081760.05625       607.10325        35.40025
E10                                                  28240435.76423      2474.25023        17.90023
C38                                                                                                  39599209.84924       931.79924        26.50024
> 2025 05 03 07 48 26.4249031  0 31                      
G05  24356337.26024      2241.00024        27.10024                                                
G12  24726653.49624     -3314.40024        28.40024                                                
G20  24219517.37924        48.20024        26.10024                                                
G25  21467626.77325     -2508.52225        32.10025  21465274.30225     -1873.22625        33.20025
G26  22525642.32427      2849.91927        43.70027  22523287.15526      2128.14926        36.70026
G28  21157798.46325     -1182.61925        30.80025  21155415.71224      -883.20724        26.40024
G29  20509947.26127      -879.00027        42.10027                                                
G31  21239798.89526       575.02226        40.30026                                                
R18  21400170.17225     -3542.94825        31.30025
R09  19104492.33727       517.25827        43.60027
R16  21335773.85325     -3134.33325        31.70025
R01  23967377.23223      -336.85023        18.50023
R19  19285137.07924      -610.35024        28.30024
C45  21707553.37525        39.70925        34.60025  21705670.97825        30.15125        33.40025  21707596.24626        40.29526        41.40026
C38  39599064.74024       922.80024        23.90024                                                  39599020.37024       931.50324        27.80024
C36  23283320.99424     -2577.25024        27.40024  23281446.99124     -1940.07424        25.70024  23283360.26726     -2597.64726        36.50026
C35  24781034.04924      3070.90024        25.10024  24779158.54723      2313.90023        21.10023  24781074.22124      3097.75624        28.10024
C30  23496425.76526     -2447.39526        40.50026                                                  23496453.94527     -2469.72627        41.50027
C29  21467546.72826       467.32226        37.30026  21465658.93524       352.30924        28.60024  21467574.30926       471.77526        38.00026
C26  24586399.49226      2768.03426        37.60026  24584515.59625      2086.20025        33.50025  24586432.16926      2793.68026        36.00026
C13  39579543.15424      1758.65024        26.50024                                                                                                
C08  39498216.05625      1466.09925        34.30025                                                                                                
E05  25627206.65625     -1411.45825        33.40025  25625291.28225     -1054.36325        31.60025
E09  28140282.88924     -2783.98024        27.30024  28138365.41724     -2079.03524        25.70024
E10  28241481.73123      3311.55023        19.10023                                                
E16  27153293.26826      2412.08926        40.70026  27151381.19226      1801.26626        36.40026
E23  26144799.23424     -2149.69724        27.60024  26142862.87424     -1605.38824        27.30024
E24  25357828.44227      1883.01027        41.60027  25355911.27025      1405.92625        34.90025
E26  26041435.89125     -1867.46025        30.00025  26039531.30924     -1394.19124        28.50024
E31  23384959.03226      -290.91026        38.00026                                                
E33  24083525.22425       812.53225        34.00025  24081606.55225       606.80725        31.90025
> 2025 05 03 07 48 27.4249031  0 31                      
G05  24355927.36025      2238.41325        32.30025                                                
G12  24727353.12725     -3314.97225        29.70025                                                
G18  22487056.25324      3110.00024        25.60024                                                
G20  24219465.43123        50.95023        23.00023                                                
G25  21468091.96725     -2508.48725        34.20025  21465752.08726     -1873.53826        35.50026
G26  22525096.61827      2849.45627        42.00027  22522743.84725      2127.68825        35.40025
G28  21158028.91924     -1183.55624        29.40024  21155641.67224      -883.82424        28.70024
G29  20510112.96226      -879.69726        39.60026                                                
G31  21239697.18127       574.03127        42.40027                                                
R18  21400829.33225     -3544.31525        31.20025
R09  19104388.52527       516.42627        43.60027
R16  21336375.45225     -3135.17925        33.10025
R19  19285242.22224      -610.35024        28.00024
C45  21707546.39625        39.08225        34.30025  21705661.60126        29.30226        36.20026  21707585.06926        39.25326        37.80026
C38  39598830.51824       921.00024        24.20024  39596919.34123       696.20023        20.10023                                                
C36  23283843.44824     -2573.05024        28.80024  23281943.96325     -1940.24225        30.30025  23283852.44225     -2598.33225        33.30025
C35  24780441.57524      3069.30024        26.20024                                                  24780475.75123      3097.80023        23.40023
C30  23496889.46026     -2447.62226        41.40026  23495012.75924     -1843.75024        27.40024  23496925.73526     -2470.12326        41.20026
C29  21467460.00426       466.75426        37.70026  21465569.81325       351.58925        32.60025  21467484.28826       470.95226        36.40026
C26  24585863.67926      2767.73926        40.10026  24583985.77925      2085.76025        33.10025  24585896.35626      2793.02026        38.30026
C13  39579200.70725      1759.18525        31.90025                                                                                                
C08  39497936.56525      1466.26825        32.20025                                                                                                
E03  28299091.86422       782.15022        17.20022                                                
E05  25627476.08525     -1412.84925        31.50025  25625562.51024     -1054.76224        26.60024
E09  28140806.24324     -2777.44324        24.90024                                                
E16  27152837.50026      2411.56026        38.70026  27150923.02525      1800.85625        34.70025
E23  26145189.48025     -2149.01425        32.50025  26143272.30725     -1605.08025        33.20025
E24  25357470.10726      1882.47526        40.50026  25355553.53325      1405.29425        31.70025
E26  26041787.16425     -1867.84025        31.60025  26039886.18024     -1395.35724        29.10024
E31  23385011.71126      -291.66326        37.80026  23383100.83424      -217.35024        28.60024
E33  24083366.25026       811.96826        36.70026  24081452.07525       606.37025        35.30025
> 2025 05 03 07 48 28.4249031  0 31                      
G05  24355510.38726      2239.56926        39.80026                                                
G12  24727991.42425     -3313.04925        33.90025                                                
G20  24219457.67523        56.85023        22.00023                                                
G25  21468584.56426     -2507.85826        39.30026  21466228.49526     -1872.48926        35.50026
G26  22524551.93326      2851.35826        36.90026  22522200.66125      2129.24525        32.60025
G28  21158236.71425     -1181.36725        32.30025  21155868.05425      -882.52925        30.20025
G29  20510285.98127      -877.94827        46.30027                                                
G31  21239580.60127       575.78527        44.00027                                                
R18  21401483.51725     -3541.40525        29.90025
R09  19104301.32426       517.71126        37.60026
R16  21336942.69825     -3132.28125        32.70025
R19  19285364.87625      -610.14225        30.00025
C45  21707541.93827        40.75127        42.40027  21705653.24526        30.66226        38.90026  21707574.61527        41.01627        45.00027
C38  39598672.56624       923.25024        25.60024  39596750.59624       696.78524        24.50024  39598692.35223       932.25023        23.30023
C36  23284328.85124     -2573.00024        29.10024  23282439.25924     -1939.08924        27.10024  23284367.52424     -2597.02224        29.40024
C30  23497360.17226     -2446.21826        39.20026  23495483.47125     -1843.28125        35.20025  23497403.94225     -2469.14425        35.00025
C29  21467367.10726       468.18426        41.40026  21465481.41325       352.81625        35.40025  21467396.18727       472.29727        41.80027
C26  24585335.48327      2769.87427        44.10027  24583456.38325      2087.41625        34.10025  24585364.86227      2795.13927        42.90027
C13  39578864.07926      1760.33126        35.90026                                                                                                
C08  39497652.70025      1467.31525        30.80025                                                                                                
E05  25627749.53423     -1410.75023        20.90023  25625820.96925     -1053.27925        32.80025
E16  27152378.85526      2414.27926        37.90026  27150463.48126      1802.84726        38.60026
E23  26145591.84026     -2148.62226        35.70026  26143680.66324     -1604.94024        29.30024
E24  25357109.19527      1884.75827        44.60027  25355196.51926      1407.32526        38.30026
E26  26042157.74625     -1866.57325        34.40025  26040240.57324     -1393.99524        27.00024
E31  23385069.60927      -289.70527        41.80027  23383157.23325      -216.41425        34.30025
E33  24083210.39726       813.19826        37.50026  24081296.82125       607.21525        34.30025
E03                                                  28297036.82523       584.35023        21.10023
E09                                                  28139422.14024     -2077.61624        27.50024
E10                                                  28238548.51623      2473.25023        17.90023
C35                                                  24777987.51223      2315.30023        23.30023  24779902.88624      3099.15024        26.20024
> 2025 05 03 07 48 29.4249031  0 31                      
G05  24355074.86426      2241.37126        35.50026                                                
G12  24728691.81425     -3310.91725        33.20025                                                
G18  22485808.63025      3113.30025        30.10025  22483460.35524      2322.84524        26.90024
G25  21469065.50626     -2505.80026        40.70026  21466708.83825     -1871.12025        32.40025
G26  22524012.98127      2853.18727        41.60027  22521658.41226      2130.55526        38.00026
G28  21158460.73425     -1180.62625        33.10025  21156093.57225      -881.66425        31.80025
G29  20510452.74027      -876.50627        46.00027                                                
G31  21239469.75227       576.87827        46.30027                                                
R18  21402148.23225     -3541.92525        29.70025
R09  19104211.16126       519.24626        37.50026
R16  21337527.36825     -3131.78225        30.70025
R19  19285482.47025      -608.94425        30.20025
C45  21707532.41927        42.14127        43.40027  21705645.82526        31.77226        38.30026  21707567.49527        42.48027        45.20027
C38  39598503.85723       924.00023        23.20023  39596579.19024       697.86024        26.40024                                                
C36  23284822.08425     -2571.34325        31.10025  23282932.49224     -1937.57624        26.20024  23284855.06125     -2594.86125        32.70025
C30  23497829.12326     -2444.45826        37.20026  23495953.32125     -1842.23925        32.70025                                                
C29  21467274.84626       469.78326        37.60026  21465391.55025       354.01625        32.80025  21467294.63226       473.98026        36.50026
C26  24584803.42627      2771.39127        45.00027  24582925.52625      2088.48625        32.90025  24584833.70527      2796.69627        45.00027
C13  39578530.48525      1762.44025        32.60025                                                                                                
C08  39497376.66625      1469.08225        31.30025                                                                                                
E03  28298774.49723       784.40023        21.70023                                                
E05  25628019.12324     -1409.30224        26.10024  25626092.65625     -1052.19225        35.20025
E09  28141865.82323     -2780.40023        22.40023                                                
E12  26572653.76622      3096.05022        16.30022                                                
E16  27151915.15126      2415.75826        39.60026  27150004.57426      1804.00126        40.10026
E23  26145969.95324     -2146.05024        25.00024  26144089.95425     -1602.70925        31.30025
E24  25356750.41827      1886.39627        45.40027  25354838.34225      1408.73925        34.60025
E26  26042531.36224     -1864.51024        27.80024  26040595.00225     -1392.55425        30.30025
E31  23385123.04726      -287.93226        41.00026  23383210.97125      -215.02825        32.40025
E33  24083062.07424       814.10024        24.00024  24081141.60425       608.40125        31.90025
C35                                                                                                  24779296.48124      3100.92224        26.80024
> 2025 05 03 07 48 30.4249031  0 34                      
G05  24354641.54024      2242.04924        28.70024                                                
G12  24729293.67325     -3310.07325        32.80025                                                
G18  22485225.11024      3112.50024        28.30024  22482869.34024      2325.07124        28.20024
G25  21469545.65026     -2504.34826        40.60026  21467181.18725     -1870.30825        34.00025
G26  22523463.03826      2854.60226        37.10026  22521116.56226      2131.62326        36.60026
G28  21158674.66125     -1180.00525        31.20025  21156319.19225      -881.04125        31.50025
G29  20510618.70127      -875.15427        42.30027                                                
G31  21239363.20226       577.90126        41.00026                                                
R18  21402807.95125     -3538.83225        31.20025
R09  19104096.21626       519.82126        39.60026
R16  21338081.26124     -3130.25024        27.80024
R01  23967739.88623      -337.25023        19.40023
R19  19285589.67124      -606.85024        27.20024
C45  21707525.70026        43.26226        40.30026  21705637.00726        32.49026        40.10026  21707555.97927        43.44527        41.70027
C38  39598325.95624       926.15024        26.40024                                                  39598328.65524       935.85024        26.20024
C36  23285303.42725     -2569.92925        33.10025  23283422.22924     -1937.38324        26.50024  23285342.40025     -2593.95825        32.30025
C30  23498301.47125     -2442.48225        35.20025  23496424.77125     -1841.14725        33.90025  23498342.24325     -2466.00025        29.70025
C29  21467183.28526       470.77426        39.10026  21465300.88826       354.71226        37.50026  21467219.26027       474.94627        41.80027
C26  24584270.27127      2773.01727        45.90027  24582389.97325      2089.80625        35.20025  24584302.04927      2798.30727        47.30027
C13  39578176.00624      1765.45024        27.40024                                                                                                
C08  39497091.44025      1470.83625        33.70025                                                                                                
E03  28298634.67024       786.75224        23.80024                                                
E05  25628274.12224     -1407.99024        28.40024  25626361.44626     -1051.22526        37.10026
E10  28238934.00022      3313.05022        16.90022                                                
E12  26571918.25123      3099.35023        21.90023                                                
E16  27151455.44626      2417.60726        38.60026  27149545.16826      1805.36526        40.30026
E23  26146387.73924     -2144.83624        24.50024  26144499.64725     -1601.19025        32.00025
E24  25356390.54328      1887.98928        47.60028  25354478.16727      1409.91227        41.70027
E26  26042878.99725     -1862.95925        33.30025  26040951.03225     -1391.39225        31.00025
E31  23385181.08326      -286.71826        39.40026  23383265.40926      -214.24426        36.60026
E33  24082902.46126       816.05026        36.60026  24080984.68826       609.11026        36.50026
G04                                                  25072610.30023       575.15023        21.90023
E09                                                  28140480.65823     -2073.50023        22.40023
C35                                                  24776801.48423      2316.80023        22.70023  24778678.18524      3102.50024        24.80024
> 2025 05 03 07 48 31.4249031  0 29                      
G05  24354235.24826      2241.17626        36.30026                                                
G12  24730008.90525     -3311.11825        31.20025                                                
G25  21470011.15526     -2505.83726        38.80026  21467658.98325     -1871.21825        29.80025
G26  22522925.73726      2853.62826        38.20026  22520572.06625      2131.03125        34.30025
G28  21158913.52323     -1177.30023        23.00023  21156541.56524      -882.08824        29.00024
G29  20510787.71127      -876.61427        44.60027                                                
G31  21239248.90827       576.55327        41.50027                                                
R18  21403467.42225     -3540.51925        30.00025
R09  19104004.40726       518.35426        35.60026
R16  21338740.13224     -3128.05024        25.10024
R19  19285699.02224      -612.20024        27.40024
C45  21707515.43426        41.84126        37.60026  21705630.33926        31.67726        39.10026  21707548.41127        42.47627        43.40027
C38  39598133.11724       926.15024        27.20024                                                  39598157.10024       935.66124        26.10024
C36  23285803.10825     -2571.28825        34.10025  23283921.91024     -1938.19124        25.00024  23285818.09825     -2594.90425        30.60025
C35  24778066.53624      3070.60024        24.40024                                                  24778103.71024      3101.77824        29.40024
C30  23498763.97826     -2444.32926        36.90026  23496892.67425     -1841.88125        32.20025  23498794.85725     -2466.39025        30.00025
C29  21467096.57226       469.36526        39.40026  21465211.17826       353.84226        36.20026  21467126.55226       473.96926        41.40026
C26  24583734.16927      2771.97127        44.90027  24581859.26724      2088.80024        28.10024  24583769.24527      2797.63827        46.00027
C13  39577854.55625      1763.37525        32.30025                                                                                                
C08  39496808.96226      1469.44626        35.60026                                                                                                
E05  25628545.06224     -1409.22624        29.20024  25626631.48625     -1051.93025        34.70025
E16  27150995.19126      2416.95226        39.60026  27149084.61426      1804.76126        39.10026
E23  26146837.95525     -2145.74825        30.80025  26144911.78824     -1602.71224        25.70024
E24  25356031.91827      1887.20727        47.30027  25354118.64326      1409.23126        38.40026
E26  26043232.97925     -1865.06425        31.60025  26041308.31125     -1392.30025        33.30025
E31  23385234.67326      -287.64626        40.30026  23383321.39825      -214.86325        33.30025
E33  24082736.90224       815.30024        25.80024  24080829.32325       608.09125        32.10025
G18                                                  22482276.87824      2324.03824        27.90024
E10                                                  28236654.60523      2474.60023        18.70023
> 2025 05 03 07 48 32.4249031  0 31                      
G05  24353830.60526      2238.41826        36.80026                                                
G12  24730659.23225     -3314.16125        31.30025                                                
G20  24219466.32323        44.85023        22.20023                                                
G25  21470504.99026     -2507.94926        36.70026  21468136.32925     -1872.67925        32.10025
G26  22522380.79126      2850.85126        39.00026  22520028.32025      2128.93725        34.40025
G28  21159125.85324     -1184.52724        29.30024  21156767.68525      -884.36725        31.90025
G29  20510955.97227      -879.31827        44.10027                                                
G31  21239138.36127       572.99527        42.50027                                                
R18  21404149.22726     -3542.15526        38.60026
R09  19103904.35326       515.67226        39.80026
R16  21339285.23124     -3136.30024        28.00024
R19  19285850.49424      -610.80024        28.20024
C45  21707511.61326        38.99726        39.50026  21705622.92126        29.53726        39.20026  21707546.68927        39.48027        43.90027
C38  39597945.22424       924.10024        27.20024                                                  39597959.01425       932.66425        30.40025
C36  23286329.02124     -2573.75024        26.50024  23284413.64724     -1939.60624        28.90024  23286345.80925     -2597.68525        33.80025
C30  23499241.32526     -2446.23626        37.70026  23497363.12525     -1844.23725        32.10025  23499274.60226     -2468.45626        39.00026
C29  21467003.41426       466.61026        40.50026  21465120.71726       351.77526        37.10026  21467037.89026       471.12426        40.80026
C26  24583203.31327      2768.96827        47.40027  24581324.51424      2086.75024        28.50024  24583237.79028      2794.49728        48.40028
C08  39496525.73525      1468.31225        30.00025                                                                                                
E03  28298332.48323       783.70023        19.70023                                                
E05  25628814.05224     -1411.71424        28.60024  25626896.28025     -1054.08225        31.00025
E09  28143460.89823     -2779.60023        20.30023  28141538.62924     -2077.24524        25.90024
E12  26570740.97023      3095.60023        20.00023                                                
E16  27150535.68626      2414.13326        39.00026  27148623.61026      1802.99926        36.40026
E23  26147231.35925     -2148.15925        30.70025  26145320.48224     -1604.58724        27.80024
E24  25355672.54427      1884.46627        46.70027  25353758.06926      1407.22926        39.20026
E26  26043579.91626     -1867.33526        38.10026  26041663.34325     -1394.66625        34.00025
E31  23385288.11326      -290.03326        41.40026  23383378.73525      -216.62225        34.10025
E33  24082597.27625       812.18225        29.60025  24080676.20625       606.38825        31.40025
G18                                                  22481688.16224      2322.06724        28.30024
C35                                                                                                  24777520.69025      3098.83125        33.10025
> 2025 05 03 07 48 33.4249031  0 34                      
G05  24353380.63426      2238.85326        36.80026                                                
G12  24731171.59526     -3313.00626        36.10026                                                
G16  24819695.81124      3441.40024        23.70024                                                
G20  24219420.17323        42.55023        23.00023                                                
G25  21470987.07426     -2508.05326        38.30026  21468616.01525     -1873.13125        33.40025
G26  22521843.58126      2851.08526        36.20026  22519488.71125      2128.94325        32.40025
G28  21159351.01526     -1184.36826        37.70026  21156997.64425      -884.29225        30.80025
G29  20511110.98227      -878.94827        42.50027                                                
G31  21239028.05527       573.09527        45.30027                                                
R18  21404816.28327     -3542.96227        43.90027
R09  19103815.03327       515.42327        42.30027
R16  21339886.33325     -3135.81925        30.40025
R01  23967843.93623      -335.90023        20.80023
R20  21671284.11122      3915.50022        14.20022
R19  19285920.06424      -615.85024        25.60024
C45  21707504.73627        39.28927        42.40027  21705614.84426        29.46226        41.30026  21707538.01327        39.44027        45.30027
C38  39597766.86524       920.70024        28.50024                                                  39597768.06424       932.06824        26.30024
C36  23286804.21026     -2573.72126        35.70026  23284903.82524     -1939.22724        24.60024                                                
C30  23499712.01626     -2446.20226        39.80026  23497830.21924     -1843.98724        28.20024  23499745.29325     -2468.60725        35.10025
C29  21466914.39326       466.92626        40.10026  21465031.69626       351.75726        35.60026  21466950.66826       470.99526        40.00026
C26  24582673.59828      2769.35028        50.10028  24580792.10024      2087.25024        28.00024  24582705.67628      2794.56828        51.60028
C08  39496255.64024      1468.95024        27.20024                                                                                                
E03  28298200.89223       783.05023        22.20023                                                
E05  25629076.68825     -1412.15025        34.90025  25627164.01224     -1053.94824        25.00024
E10  28237313.04422      3314.10022        17.40022                                                
E12  26570171.38223      3094.85023        20.20023                                                
E16  27150077.02127      2414.53927        44.40027  27148166.74424      1803.55024        26.40024
E23  26147638.19525     -2147.80425        30.50025  26145727.91824     -1603.99324        24.90024
E24  25355317.30827      1884.85527        42.90027  25353398.93625      1407.51525        34.60025
E26  26043933.08925     -1867.11725        35.20025  26042012.31923     -1393.40023        22.90023
E31  23385342.09325      -289.76825        34.60025  23383432.71524      -216.75024        28.90024
E33  24082434.50625       803.62225        29.60025  24080522.43024       606.35024        26.70024
G18                                                  22481085.89724      2322.25024        27.00024
C35                                                                                                  24776931.01624      3095.12424        27.30024
> 2025 05 03 07 48 34.4249031  0 33                      
G05  24352933.55625      2241.41625        30.90025                                                
G12  24731733.91826     -3310.69426        37.60026                                                
G16  24819053.56824      3440.10024        23.50024                                                
G20  24219420.38524        46.95024        23.90024                                                
G25  21471449.56625     -2506.09625        34.70025  21469088.40025     -1871.19825        33.90025
G26  22521302.36827      2853.61327        45.80027  22518945.69924      2129.66224        28.20024
G28  21159573.97326     -1182.47526        40.30026  21157225.39925      -883.00225        33.10025
G29  20511277.27927      -877.31527        43.60027                                                
G31  21238922.74127       574.99027        45.10027                                                
R18  21405450.55625     -3541.35225        32.70025
R09  19103705.22127       517.02227        41.80027
R16  21340467.84325     -3133.27625        31.90025
R01  23967973.05924      -342.05024        27.80024
R19  19286046.48924      -611.82524        29.40024
C45  21707496.55426        41.06726        39.30026  21705606.66226        30.90126        38.60026  21707527.73227        41.46527        44.00027
C38  39597578.50825       926.59725        29.50025  39595682.32124       697.93524        23.70024  39597590.79925       935.01225        31.00025
C36  23287345.84724     -2570.40024        28.80024  23285400.79325     -1937.97925        29.60025  23287347.04626     -2595.04026        36.10026
C30  23500182.60325     -2444.30925        31.80025  23498303.20425     -1842.09025        31.50025  23500242.26225     -2468.60025        31.40025
C29  21466824.96727       468.62627        41.70027  21464941.07226       353.03826        36.20026  21466858.84427       472.86127        43.50027
C26  24582142.27826      2771.98526        39.50026  24580257.78326      2088.85326        35.80026  24582179.45226      2797.25126        38.70026
C13  39576841.56426      1763.28826        37.80026                                                                                                
E03  28298044.31324       784.58924        24.90024                                                
E05  25629340.71825     -1409.33325        32.50025  25627436.73624     -1052.53924        28.20024
E09  28144505.00624     -2779.05024        24.00024  28142599.22524     -2075.31624        25.20024
E12  26569561.21723      3098.95023        22.50023                                                
E16  27149617.35227      2417.34427        45.40027  27147703.47725      1803.95025        29.70025
E23  26148061.71525     -2145.59125        32.50025  26146131.65126     -1602.41826        36.60026
E24  25354953.87227      1887.35027        42.30027  25353044.19425      1409.45525        34.20025
E26  26044299.04825     -1864.88125        30.70025  26042372.58225     -1393.12525        30.50025
E31  23385401.96427      -287.77127        42.30027  23383488.08924      -214.94024        27.40024
E33  24082277.62726       813.87126        36.30026                                                
G18                                                  22480503.91223      2323.70023        22.80023
C35                                                                                                  24776342.73624      3102.65024        27.90024
> 2025 05 03 07 48 35.4249031  0 34                      
G05  24352516.57226      2238.24226        38.30026                                                
G12  24732329.33325     -3313.70925        32.60025                                                
G20  24219436.30124        44.55024        27.30024                                                
G25  21471914.87126     -2509.14926        36.20026  21469566.29726     -1873.51226        39.10026
G26  22520758.87127      2850.53127        42.40027  22518403.10225      2128.67025        34.30025
G28  21159803.04126     -1185.88426        36.80026  21157450.57025      -885.64525        32.30025
G29  20511457.78127      -880.54627        43.50027                                                
G31  21238811.24527       571.47027        43.60027                                                
R18  21406119.12026     -3544.79926        37.40026
R09  19103618.90827       513.58427        42.30027
R16  21341029.68126     -3134.98326        37.90026
R01  23968093.90223      -342.45023        21.20023
R19  19286187.71825      -615.14425        29.90025
C45  21707485.78827        37.73327        44.30027  21705598.29526        28.58026        41.40026  21707522.36327        38.13927        46.10027
C38  39597453.52123       929.30023        22.10023                                                  39597424.74124       934.25024        24.30024
C36  23287807.55425     -2574.03325        33.30025  23285894.57924     -1940.74524        27.80024                                                
C35  24775718.59524      3069.05024        25.50024  24773844.29223      2314.20023        22.80023  24775749.77324      3098.59824        28.80024
C30  23500651.20625     -2447.79025        32.70025  23498769.40825     -1844.14825        33.10025  23500686.28126     -2469.40226        38.80026
C29  21466735.65627       465.32927        43.80027  21464851.16126       350.88826        38.10026  21466767.73427       469.67527        43.90027
C26  24581610.47327      2769.09127        44.10027  24579726.87725      2086.84525        33.80025  24581642.85127      2794.72527        43.50027
C13  39576504.62426      1760.38826        37.00026                                                                                                
C08  39495682.67624      1467.60024        25.10024                                                                                                
C05  39865516.84525        50.60025        32.90025                                                                                                
E03  28297902.23824       781.26724        26.40024                                                
E05  25629616.85326     -1412.35226        35.80026  25627707.77524     -1054.75224        29.40024
E09  28145041.06224     -2774.13024        25.80024                                                
E12  26568985.64223      3095.30023        23.00023                                                
E16  27149158.39727      2414.73927        42.90027  27147245.12124      1802.27824        29.40024
E23  26148469.15925     -2150.45225        32.20025  26146539.69525     -1603.77625        33.20025
E24  25354597.74527      1884.51927        43.80027  25352682.97126      1407.14526        35.60026
