     4.01           OBSERVATION DATA    M                   RINEX VERSION / TYPE
GnssLogger          samsung 13          20250503 091302 UTC PGM / RUN BY / DATE
Google GnssLogger                                           MARKER NAME
Unknown                                                     MARKER NUMBER
Unknown             Unknown                                 OBSERVER / AGENCY
Unknown             GnssLogger          v3.1.0.4            REC # / TYPE / VERS
Unknown             Unknown                                 ANT # / TYPE
        0.0000        0.0000        0.0000                  ANTENNA: DELTA H/E/N
G    4 C1C D1C S1C L1C                                      SYS / # / OBS TYPES
R    4 C1C D1C S1C L1C                                      SYS / # / OBS TYPES
C    4 C2C D2C S2C L2C                                      SYS / # / OBS TYPES
  2025    05    03    09    13   02.0000000     GPS         TIME OF FIRST OBS
 3 R09 -2 R10 -7 R19  3                                     GLONASS SLOT / FRQ #
samsung SM-A515F (Android 13) HW Year: 2016 HW Model:       COMMENT
S.LSI,K102                                                  COMMENT
                                                            END OF HEADER
> 2025 05 03 09 13 02.9999998  0 17                      
G26  20555206.02728      -255.15428        49.40028
G16  21751247.82426      1461.83626        39.70026
G05  23521793.30127     -1960.74727        42.00027
G23  24007005.29626      2093.24626        39.30026
G18  20651964.04326      -745.07326        38.50026
G29  22202162.06327     -3628.19527        44.50027
G25  24526129.21426     -4838.04026        38.80026
G28  23573517.39325     -4625.76125        30.60025
G31  22285036.39024     -3738.53624        24.70024
C26  22656868.67627      -279.68527        42.50027
R09  20347073.91426     -4295.70126        39.40026
C08  38618526.05126      -879.26526        36.60026
C29  22067006.62927     -2723.18727        43.00027
C13  38302252.80226      -380.28326        36.50026
R19  21472443.53726     -4699.73426        35.50026
C30  26257572.76125     -4186.28625        32.90025
C35  22412716.49925       480.16525        30.80025
> 2025 05 03 09 13 03.9999998  0 17                      
G26  20555016.85828      -256.30928        49.40028      -249.68028
G16  21750731.88226      1459.83626        41.10026      1466.36726
G05  23521932.10527     -1963.55327        41.80027     -1956.76327
G23  24006366.73826      2091.16226        39.30026      2097.57326
G18  20651865.11126      -745.78526        38.50026      -739.19326
G25  24526811.84126     -4839.49826        38.60026     -4833.15326
G29  22202609.95327     -3630.13227        43.20027     -3623.57527
G28  23574164.04615     -4622.20215        30.50015     -4617.52915
G31  22285501.66814     -3744.08114        25.60014     -3736.37314
C26  22656684.30417      -280.47017        44.50017      -274.41617
R09  20347640.52226     -4298.46926        38.70026     -4292.43026
C29  22067291.43216     -2723.47816        40.90016     -2717.35016
C08  38618453.80116      -877.90216        36.20016      -872.57516
C13  38302088.21616      -380.11116        36.00016      -375.79416
R19  21473076.69825     -4701.97825        35.10025     -4655.11525
C35  22412389.12615       477.27715        31.60015       483.28815
C30  26258144.46515     -4183.65015        32.70015     -4179.08515
> 2025 05 03 09 13 04.9999999  0 18                      
G26  20554846.57628      -258.08328        49.20028      -501.01728
G16  21750236.32526      1458.18926        41.10026      2931.22826
G05  23522088.59727     -1965.24727        41.60027     -3915.23727
G23  24005755.16226      2089.65326        39.30026      4193.81226
G18  20651787.16526      -748.02026        38.40026     -1480.32626
G25  24527516.35426     -4841.04826        38.50026     -9667.62626
G29  22203078.22927     -3630.61527        41.90027     -7247.89927
G28  23574842.17615     -4626.80015        30.30015     -9237.29515
G31  22285980.73714     -3750.01414        26.30014     -7477.89614
C26  22656517.02017      -282.82517        44.50017      -550.55717
C29  22067596.32116     -2725.35416        39.80016     -5436.08016
R10  19359107.86925      -794.02025        35.40025                
R09  20348247.90126     -4299.58126        38.10026     -8704.01426
C08  38618409.43116      -881.24816        35.90016     -1746.68616
C13  38301933.52316      -384.23116        35.60016      -753.25116
R19  21473699.66725     -4703.09325        34.60025     -9158.64325
C35  22412077.64215       473.10315        32.20015       964.16915
C30  26258732.65815     -4179.88715        32.40015     -8353.41415
> 2025 05 03 09 13 05.9999999  0 18                      
G26  20554657.70728      -259.94228        49.10028      -754.19428
G16  21749716.78426      1456.49226        41.10026      4394.40826
G05  23522226.50126     -1966.40926        41.40026     -5875.10626
G23  24005114.80526      2090.20326        39.30026      6289.92526
G18  20651692.73126      -749.21526        38.40026     -2222.95126
G25  24528202.87826     -4840.48026        38.40026    -14502.21026
G29  22203533.01426     -3632.26926        40.70026    -10873.62526
G28  23575482.83315     -4627.47415        30.10015    -13858.30615
G31  22286457.10714     -3750.59814        26.30014    -11221.57514
C26  22656336.54517      -284.69217        44.40017      -828.41017
C29  22067876.02716     -2727.17416        39.00016     -8156.18116
R09  20348798.92026     -4302.04426        37.60026    -12912.39826
R10  19359021.22815      -794.70615        35.40015      -800.82015
C08  38618335.38316      -882.03616        35.60016     -2621.82316
C13  38301775.53315      -384.76215        35.20015     -1131.46815
C35  22411749.96815       475.95015        32.60015      1444.86115
R19  21474364.30725     -4704.31525        34.10025    -13980.61325
C30  26259304.36215     -4182.52815        32.10015    -12528.07715
> 2025 05 03 09 13 06.9999999  0 18                      
G26  20554486.82528      -261.76528        48.90028     -1009.15128
G16  21749221.52726      1454.52426        41.00026      5855.26326
G05  23522380.29526     -1969.08626        41.20026     -7837.17526
G23  24004498.13226      2088.90926        39.30026      8385.18226
G29  22204014.48126     -3633.85026        39.80026    -14501.32326
G18  20651610.28826      -751.11026        38.30026     -2967.28726
G25  24528898.69726     -4841.75326        38.30026    -19337.62926
G28  23576126.18715     -4629.92015        33.10015    -18481.31315
G31  22286933.17714     -3745.59314        26.20014    -14962.58514
C26  22656171.35917      -287.09617        44.20017     -1108.21917
C29  22068182.41516     -2729.37516        38.70016    -10877.73616
C13  38301627.73515      -386.67315        35.20015     -1511.01815
R09  20349397.60526     -4302.61026        37.00026    -17276.61126
R10  19358946.28025      -795.95525        35.20025     -1568.04525
C08  38618284.71815      -884.34015        35.20015     -3498.44615
C35  22411442.68115       475.24715        32.90015      1925.00815
R19  21475027.44825     -4706.68625        33.80025    -18698.45325
C30  26259884.16015     -4181.13715        31.90015    -16705.34115
> 2025 05 03 09 13 07.9999999  0 18                      
G05  23522518.20026     -1971.93226        41.10026     -9801.92426
G16  21748709.48216      1457.00816        41.00016      7318.11716
G26  20554298.85528      -262.28428        48.30028     -1265.09628
G29  22204465.96826     -3637.12526        39.50026    -18131.24526
G18  20651518.85126      -752.71426        38.40026     -3713.31226
G25  24529576.52816     -4845.14916        38.10016    -24175.64116
G23  24003863.47116      2082.94416        38.90016     10476.62816
G28  23576768.94225     -4630.05725        34.20025    -23105.12625
G31  22287401.15314     -3751.97414        26.40014    -18707.01014
C30  26260452.56715     -4182.27715        34.20015    -20883.55415
C29  22068469.01716     -2728.73416        39.20016    -13601.62216
C26  22655986.98717      -286.61817        43.40017     -1388.82317
C13  38301465.24716      -388.91816        36.00016     -1893.18816
R09  20349958.51716     -4305.82516        36.50016    -21538.47916
R10  19358868.63425      -798.62025        35.00025     -2416.91625
C08  38618213.96715      -884.55815        35.00015     -4379.03915
C35  22411111.71015       473.14515        32.90015      2404.85115
R19  21475675.29925     -4708.45125        33.50025    -23433.16825
> 2025 05 03 09 13 08.9999999  0 18                      
G05  23522648.60926     -1967.90926        40.90026    -11764.87226
G16  21748197.73616      1449.22916        40.80016      8775.63216
G29  22204920.45316     -3631.90416        39.30016    -21758.08116
G26  20554107.88717      -261.21717        46.80017     -1520.64817
G18  20651428.01426      -752.15526        38.40026     -4459.51626
G23  24003226.71216      2083.52316        38.30016     12566.53516
G25  24530267.24916     -4845.96916        38.00016    -29015.05216
G28  23577412.89715     -4636.00115        34.20015    -27733.15815
G31  22287873.92614     -3753.06314        26.40014    -22453.28714
C30  26261017.67617     -4184.69517        42.10017    -25060.33317
C29  22068754.71916     -2729.84616        39.60016    -16322.88316
C26  22655804.41317      -286.72417        41.80017     -1670.57417
R09  20350520.32826     -4312.14426        36.10026    -25804.93226
C13  38301301.56116      -385.42216        36.00016     -2274.86216
C08  38618149.21215      -879.64215        34.80015     -5253.16915
R10  19358771.50115      -798.71015        34.90015     -3163.58315
R19  21476311.15915     -4707.17415        33.30015    -28102.82715
C35  22410784.03715       477.10615        32.90015      2884.96815
> 2025 05 03 09 13 09.9999999  0 17                      
G05  23522802.10326     -1974.39026        40.80026    -13731.50326
G29  22205389.62916     -3637.69116        39.20016    -25388.37716
G26  20553941.80217      -267.32217        45.00017     -1780.10117
G18  20651347.37016      -757.61916        38.30016     -5209.38516
G25  24530972.36126     -4845.30226        37.80026    -33854.44726
G23  24002613.03716      2084.40016        37.90016     14656.71816
G16  21747696.18316      1451.08516        40.30016     10232.80616
G31  22288385.07214     -3756.81514        26.40014    -26202.64614
C29  22069059.90816     -2730.50416        39.90016    -19048.90216
C30  26261599.27317     -4187.01217        41.90017    -29239.56117
C26  22655640.72616      -288.66716        40.70016     -1953.24816
R09  20351109.72016     -4307.19616        36.00016    -30120.24516
C13  38301153.76316      -389.48216        35.90016     -2657.05116
C08  38618095.54915      -884.67115        34.70015     -6132.18215
R10  19358702.54915      -803.24915        34.70015     -3962.84215
R19  21476977.29815     -4709.51415        33.20015    -32835.20615
C35  22410475.85015       470.34315        32.80015      3363.46915
> 2025 05 03 09 13 10.9999999  0 15                      
G05  23522944.80426     -1974.28726        40.70026    -15699.34226
G29  22205841.71616     -3637.72516        39.10016    -29019.73016
G26  20553750.53517      -265.67817        43.60017     -2039.80817
G18  20651255.93316      -755.90616        38.20016     -5959.38216
G25  24531653.78926     -4846.67326        37.60026    -38694.80026
G23  24001981.07426      2084.63826        37.70026     16747.10226
G16  21747182.63916      1454.14116        38.70016     11691.85616
G31  22288867.13814     -3756.79714        26.30014    -29953.06914
G27  23843474.20613      1976.87813        18.80013      3966.94713
C29  22069342.01216     -2731.89316        39.90016    -21774.68416
C26  22655457.25316      -290.43216        40.00016     -2237.91216
R09  20351681.12416     -4308.91816        35.90016    -34437.88816
C08  38618029.29515      -888.84015        34.70015     -7013.23615
R19  21477624.85015     -4709.96815        33.10015    -37568.39215
C35  22410154.47315       471.99915        32.70015      3839.51215
> 2025 05 03 09 13 11.9999999  0 19                      
G05  23523107.59126     -1975.45226        40.50026    -17668.31226
G29  22206312.98916     -3638.99016        39.00016    -32652.23116
G26  20553578.75427      -267.90827        42.40027     -2301.03727
G23  24001368.59826      2083.47126        37.20026     18836.82326
G16  21746693.97716      1452.72216        36.80016     13150.63316
G18  20651183.98316      -758.25016        37.50016     -6710.93516
G25  24532358.30216     -4847.26916        37.20016    -43535.82116
G31  22289361.79614     -3756.89014        26.20014    -33703.85914
G28  23579364.24624     -4639.42824        28.10024                
G27  23842870.42413      1974.24113        18.70013      5947.09013
C29  22069648.40016     -2733.46816        39.80016    -24501.48016
C26  22655294.16616      -292.47716        39.40016     -2523.39416
C08  38617981.32815      -887.81915        34.60015     -7894.66915
R19  21478283.79425     -4710.29325        32.90025    -42264.03325
C30  26262756.47216     -4191.87516        37.70016    -37601.83916
C35  22409835.19415       470.80815        32.40015      4318.60415
C13  38300853.37115      -388.23115        34.50015     -3424.19915
R10  19358561.04715      -799.14415        32.30015     -5638.42715
R09  20352254.32815     -4317.29015        35.10015    -38666.86415
> 2025 05 03 09 13 12.9999999  0 19                      
G05  23523249.69326     -1976.85926        40.30026    -19638.64626
G26  20553392.58227      -268.54027        41.50027     -2563.24327
G16  21746182.83115      1450.09715        35.30015     14607.52115
G18  20651091.94716      -760.27416        35.90016     -7464.40616
G29  22206766.57516     -3639.49416        38.40016    -36285.50016
G25  24533039.43016     -4849.81416        35.90016    -48378.81016
G23  24000735.13716      2082.56416        36.60016     20925.67116
G31  22289837.26714     -3758.25814        26.00014    -37455.73414
G28  23580012.39714     -4636.05014        27.20014     -4630.19114
G27  23842253.45113      1967.24813        18.60013      7922.53313
C26  22655110.99316      -292.90516        38.90016     -2810.13416
C08  38617911.17615      -889.22315        34.50015     -8777.02215
R19  21478915.45615     -4710.81815        32.80015    -46910.72815
C35  22409509.61915       470.37315        31.70015      4792.39915
R10  19358459.71715      -807.60815        30.90015     -6360.68915
C30  26263323.38016     -4188.10516        35.70016    -41785.12616
C29  22069933.20316     -2734.38016        39.00016    -27228.95116
C13  38300686.38715      -388.70715        32.80015     -3803.73215
R09  20352841.32115     -4320.88415        33.10015    -43067.02615
> 2025 05 03 09 13 13.9999999  0 17                      
G05  23523399.29026     -1978.54426        40.10026    -21610.50926
G26  20553227.99626      -270.06226        40.80026     -2826.74126
G18  20651008.60415      -758.25415        34.60015     -8217.12015
G29  22207237.54916     -3639.49116        37.00016    -39918.97216
G16  21745684.57615      1446.26715        34.20015     16061.27515
G25  24533733.45015     -4848.87015        34.20015    -53221.77615
G23  24000123.26015      2087.12915        35.10015     23017.31915
G28  23580668.34314     -4633.53514        26.70014     -9258.66814
G31  22290325.02914     -3763.96214        25.80014    -41211.72314
G27  23841654.46613      1966.09613        18.60013      9895.69113
C26  22654948.80516      -294.87116        38.60016     -3098.23516
C08  38617856.61415      -890.28815        34.40015     -9660.40015
R10  19358384.76915      -807.19615        30.40015     -7128.67515
C35  22409199.93415       464.07115        31.20015      5264.41615
C30  26263908.57415     -4186.84815        34.20015    -45967.55815
C13  38300544.88515      -395.67115        31.40015     -4188.54315
R09  20353420.52015     -4319.50015        31.10015    -47328.09215
> 2025 05 03 09 13 14.9999999  0 19                      
G26  20553042.12526      -270.98026        40.30026     -3091.33126
G05  23523539.89226     -1979.50426        39.50026    -23583.57026
G18  20650915.36915      -761.67615        33.90015     -8971.91315
G29  22207686.93816     -3644.16716        35.60016    -43555.68016
G16  21745165.63515      1443.73415        33.40015     17512.24615
G25  24534417.57615     -4852.09715        33.00015    -58066.93615
G23  23999488.30015      2080.13915        33.30015     25105.19215
G28  23581317.09414     -4639.02614        26.30014    -13890.28314
G31  22290797.20214     -3762.12214        25.60014    -44967.90614
G27  23841037.79313      1960.93713        18.40013     11864.60013
C26  22654766.83116      -295.60916        38.30016     -3387.27816
C08  38617796.65615      -891.49515        34.20015    -10543.55715
C29  22070522.59515     -2735.89915        34.60015    -32684.73615
R10  19358300.52715      -806.68515        30.20015     -7942.46115
C35  22408869.26315       463.88215        30.80015      5735.35715
C30  26264469.48615     -4178.14115        32.90015    -50143.07015
C13  38300379.09915      -396.19415        30.40015     -4578.92215
R09  20354007.51414     -4316.62814        29.40014    -51728.25214
R19  21480200.36714     -4702.81714        29.10014    -56222.44614
> 2025 05 03 09 13 15.9999999  0 19                      
G26  20552876.34026      -272.05426        40.00026     -3356.95226
G05  23523694.58526     -1980.77426        38.30026    -25557.82926
G18  20650837.72315      -763.98515        33.40015     -9728.88815
G29  22208162.40915     -3643.48115        34.60015    -47192.95915
G16  21744665.88115      1448.91915        32.70015     18965.79615
G25  24535122.68815     -4850.60715        32.10015    -62911.78415
G23  23998874.32515      2076.17515        32.10015     27189.21315
G28  23581989.82814     -4637.82014        26.00014    -18522.09214
G31  22291293.05914     -3760.56914        25.30014    -48723.07014
G27  23840442.70513      1959.57913        18.20013     13831.23513
C26  22654603.14516      -296.31516        38.10016     -3677.38416
C29  22070830.18215     -2737.12215        33.50015    -35414.89815
R10  19358238.17115      -812.39915        30.10015     -8776.04315
C35  22408561.37615       465.54515        30.40015      6206.35515
C08  38617742.39315      -889.58615        33.90015    -11429.50515
C30  26265051.08315     -4178.64615        31.80015    -54313.95815
C13  38300232.50115      -392.83915        29.70015     -4965.91015
R09  20354619.69014     -4317.37814        28.10014    -56165.81514
R19  21480877.29814     -4700.73314        27.40014    -61013.76114
> 2025 05 03 09 13 16.9999999  0 19                      
G26  20552689.56926      -273.29226        39.70026     -3623.79026
G05  23523834.58826     -1982.05126        37.30026    -27533.38726
G18  20650739.99015      -762.72415        33.10015    -10485.79915
G29  22208625.58815     -3640.40015        33.80015    -50828.42415
G16  21744155.93415      1445.40615        32.30015     20417.81415
G25  24535813.41015     -4854.05015        31.40015    -67758.87215
G23  23998236.66615      2084.02815        31.30015     29277.13715
G28  23582633.78214     -4637.23114        26.30014    -23153.62214
G31  22291778.42314     -3763.27414        25.10014    -52479.74614
G27  23839839.82213      1956.91413        18.10013     15795.28713
C26  22654422.96926      -297.06326        38.00026     -3968.63726
C29  22071123.67915     -2739.18715        33.00015    -38145.57715
R10  19358155.12815      -810.11415        30.40015     -9598.21615
C08  38617674.94015      -897.56015        33.20015    -12316.64315
C35  22408232.50315       464.79315        30.10015      6676.62015
C30  26265615.29315     -4192.59015        30.90015    -58494.33915
C13  38300068.21514      -396.92114        29.10014     -5355.68114
R09  20355137.73114     -4317.45914        27.10014    -60198.46614
R19  21481528.44714     -4694.71514        25.90014    -65765.31514
> 2025 05 03 09 13 17.9999999  0 19                      
G26  20552521.38626      -274.12726        39.60026     -3891.54226
G05  23523985.68426     -1982.92026        36.50026    -29509.90926
G18  20650659.04615      -763.54015        32.80015    -11243.18415
G29  22209100.75915     -3644.03215        33.20015    -54465.65615
G16  21743655.88015      1439.50815        31.90015     21865.43815
G25  24536514.92415     -4851.50815        30.80015    -72604.96415
G23  23997627.78815      2081.88715        30.70015     31364.98315
G28  23583311.31314     -4638.67714        26.70014    -27785.97314
G31  22292285.07214     -3763.79014        24.90014    -56237.22114
G27  23839250.13113      1952.85013        18.00013     17755.81813
C26  22654260.78226      -298.54726        38.10026     -4260.84426
C29  22071429.46715     -2738.38915        32.80015    -40877.21815
R10  19358081.07915      -813.06215        30.50015    -10369.25515
C08  38617627.87315      -889.23615        32.30015    -13204.58415
C35  22407924.01715       468.24815        29.70015      7149.54315
C30  26266204.68515     -4189.70815        30.10015    -62681.21615
C13  38299928.81114      -393.80114        28.60014     -5744.83014
R09  20355749.60814     -4309.91314        26.30014    -64632.97114
R19  21482169.70314     -4704.70114        24.70014    -70366.05014
> 2025 05 03 09 13 18.9999999  0 19                      
G26  20552336.71326      -275.25626        39.50026     -4160.40126
G05  23524125.68726     -1984.63726        35.80026    -31487.94526
G29  22209560.04215     -3641.81115        32.80015    -58102.04615
G18  20650561.91315      -760.16715        32.50015    -11998.52815
G16  21743137.23915      1449.00515        31.60015     23317.88115
G25  24537199.35015     -4852.88615        30.40015    -77451.69115
G23  23996982.93415      2081.31515        30.30015     33452.37315
G28  23583938.47914     -4643.71314        27.00014    -32422.00514
G31  22292770.73614     -3763.62314        24.70014    -59994.90014
G27  23838637.35513      1951.46013        17.80013     19714.19913
C26  22654081.20626      -299.81326        38.60026     -4554.26026
C29  22071722.36515     -2740.30515        32.80015    -43609.95215
R10  19358000.73515      -814.78215        30.60015    -11204.39815
C08  38617567.91415      -892.99815        31.60015    -14090.37515
C35  22407601.44014       463.25814        29.40014      7619.83114
C30  26266770.69314     -4192.10714        29.40014    -66865.74514
C13  38299769.02214      -392.33214        28.20014     -6133.38314
R09  20356298.82814     -4316.21214        25.70014    -68832.95114
R19  21482839.44014     -4717.79014        23.80014    -75216.34414
> 2025 05 03 09 13 19.9999999  0 19                      
G26  20552149.34326      -276.47826        39.40026     -4430.43026
G05  23524260.89325     -1985.51125        35.30025    -33467.05725
G29  22210017.82515     -3643.42615        32.40015    -61739.21915
G18  20650467.77915      -768.01315        32.20015    -12758.40915
G16  21742623.09515      1445.19815        31.40015     24769.40315
G23  23996344.97615      2077.07015        30.00015     35536.79315
G25  24537883.77715     -4848.53815        30.10015    -82295.71915
G28  23584574.33914     -4640.81614        27.40014    -37057.32014
G31  22293251.60314     -3761.20414        24.60014    -63751.02214
G27  23838017.08413      1954.00113        17.70013     21673.57013
C26  22653898.93226      -300.57926        38.70026     -4848.57826
C29  22072005.06915     -2740.58315        32.70015    -46343.37315
R10  19357906.30015      -815.30715        30.60015    -11964.03115
C08  38617496.26415      -893.62715        31.10015    -14980.38815
C35  22407267.17214       457.35614        29.10014      8085.01614
C30  26267339.39914     -4194.90314        28.80014    -71053.77414
C13  38299611.33114      -395.64714        27.80014     -6521.64814
R09  20356867.23414     -4321.00114        25.20014    -73133.78614
R19  21483479.49713     -4720.78413        23.10013    -79908.96313
> 2025 05 03 09 13 20.9999999  0 19                      
G26  20551980.56026      -277.29826        39.30026     -4701.36026
G05  23524415.88625     -1986.53825        34.90025    -35447.17525
G18  20650407.82015      -770.82115        32.00015    -13521.63915
G29  22210495.39415     -3643.34915        32.20015    -65376.56615
G16  21742123.64115      1444.84315        31.20015     26220.41815
G23  23995737.29715      2076.45815        29.80015     37619.85115
G25  24538582.89315     -4849.62415        29.90015    -87139.53515
G28  23585244.37514     -4640.65114        27.70014    -41692.24914
G31  22293736.66714     -3762.27514        24.40014    -67507.30214
G27  23837422.59613      1960.75913        17.60013     23637.81313
C26  22653736.44526      -301.77526        38.70026     -5143.95826
C29  22072307.55915     -2740.96515        32.80015    -49077.62215
R10  19357842.14515      -817.33515        30.70015    -12788.45915
C08  38617451.29515      -895.57315        30.80015    -15869.14815
C35  22406949.99114       456.82714        28.80014      8547.36514
C30  26267914.70114     -4187.74814        28.30014    -75238.60714
C13  38299480.62114      -400.72914        27.50014     -6913.05014
R09  20357480.90914     -4332.92314        24.90014    -77578.98914
R19  21484108.46113     -4726.41513        22.60013    -84443.10913
> 2025 05 03 09 13 21.9999999  0 19                      
G26  20551794.08926      -278.45526        39.30026     -4973.41126
G05  23524558.58725     -1988.08125        34.50025    -37428.20625
G18  20650318.18215      -771.84415        31.80015    -14286.71515
G29  22210948.68015     -3651.34815        31.90015    -69019.35315
G23  23995102.03715      2076.69615        30.20015     39702.56615
G16  21741618.49115      1439.16515        31.00015     27667.43115
G25  24539278.11115     -4849.83615        29.80015    -91983.47015
G28  23585888.92914     -4642.18514        27.90014    -46328.12114
G31  22294221.73114     -3762.90914        24.40014    -71264.10714
G27  23836811.01913      1962.78313        17.60013     25604.98013
C26  22653555.97026      -302.57926        38.60026     -5440.27626
C29  22072598.95815     -2742.09415        33.00015    -51812.72215
R10  19357757.90315      -818.71415        30.80015    -13603.00815
C08  38617385.64015      -892.99615        30.70015    -16758.93015
C35  22406623.21814       454.74514        28.50014      9010.04914
C30  26268489.40314     -4190.08214        27.90014    -79421.41814
C13  38299325.62914      -403.31214        27.20014     -7308.60514
R09  20358085.59114     -4327.75314        24.60014    -82073.12914
R19  21484768.90413     -4726.70213        22.20013    -89244.41213
> 2025 05 03 09 13 22.9999999  0 18                      
G26  20551626.20526      -279.50226        39.20026     -5246.48326
G05  23524723.47325     -1989.16525        34.20025    -39410.88125
G18  20650247.13115      -769.81915        31.60015    -15051.00715
G23  23994487.46215      2077.78815        30.50015     41785.94215
G29  22211421.75315     -3651.12815        31.70015    -72663.75615
G25  24539986.22115     -4861.61115        29.60015    -96835.24515
G28  23586557.46614     -4644.74914        28.20014    -50965.96814
G31  22294712.49214     -3764.47614        24.60014    -75022.08214
G27  23836223.12613      1966.77013        17.50013     27575.82913
C26  22653397.08026      -303.78326        38.40026     -5737.66226
C29  22072911.94115     -2744.50915        33.20015    -54548.58915
R10  19357698.54415      -821.97915        30.80015    -14452.60515
C08  38617335.87515      -895.77115        30.70015    -17649.00215
C35  22406325.52414       451.22214        28.30014      9468.44114
C30  26269069.80114     -4192.15214        27.40014    -83606.30414
C13  38299176.33214      -406.85914        26.80014     -7708.00114
R09  20358683.37714     -4335.58514        24.30014    -86434.28614
R19  21485466.82113     -4717.19213        22.00013    -94147.47613
> 2025 05 03 09 13 23.9999999  0 19                      
G26  20551441.53326      -280.52226        39.20026     -5520.62526
G05  23524861.67725     -1990.23725        33.90025    -41394.70325
G18  20650156.29415      -773.19215        31.50015    -15817.33715
G23  23993851.60215      2074.03215        30.80015     43866.98715
G29  22211872.94015     -3648.68015        31.40015    -76307.11715
G25  24540676.34315     -4853.20815        29.50015   -101684.08215
G28  23587209.21514     -4645.86914        28.40014    -55605.26914
G16  21740620.78115      1438.71515        29.50015     30554.07815
G31  22295186.46414     -3764.87814        24.80014    -78780.76414
G27  23835598.65812      1971.02112        17.40012     29550.69012
C26  22653218.10326      -304.86426        38.30026     -6036.17226
C29  22073196.44415     -2743.01015        33.30015    -57285.15715
C08  38617272.01915      -900.18715        30.90015    -18543.40215
R10  19357615.80115      -816.61315        30.90015    -15275.54215
C35  22406000.84814       452.17714        28.00014      9926.73814
C30  26269635.51014     -4195.95914        27.00014    -87793.55614
C13  38299009.04814      -408.54814        26.50014     -8109.60714
R09  20359242.49014     -4328.16014        24.10014    -90684.69214
R19  21486096.98513     -4727.22913        21.90013    -98787.28413
> 2025 05 03 09 13 24.9999999  0 18                      
G26  20551257.76026      -281.40826        39.20026     -5795.70326
G05  23525009.47525     -1991.47625        33.70025    -43380.21925
G23  23993218.74015      2075.60715        31.20015     45948.31615
G18  20650065.15715      -772.82515        31.40015    -16584.08815
G25  24541357.77214     -4854.92114        29.40014   -106533.06814
G28  23587848.07314     -4642.64314        28.60014    -60242.89114
G16  21740106.93714      1438.44314        28.60014     31998.26414
G31  22295660.73514     -3761.65914        24.80014    -82537.52414
G29  22212332.52215     -3646.47915        30.50015    -79948.64915
C26  22653036.72926      -305.86326        38.20026     -6335.71126
C29  22073484.84415     -2743.40415        33.40015    -60022.52015
C08  38617204.86515      -894.61115        31.10015    -19433.30215
R10  19357530.66015      -821.31015        31.00015    -16086.28015
C35  22405675.87314       456.02614        27.80014     10384.47714
C30  26270205.71514     -4197.36414        26.70014    -91982.79014
C13  38298842.66314      -403.34314        26.20014     -8508.36814
R09  20359808.19814     -4318.42214        23.90014    -94971.77214
R19  21486727.74813     -4717.69513        22.30013   -103429.38413
> 2025 05 03 09 13 25.9999999  0 18                      
G26  20551094.37326      -282.38326        39.10026     -6071.70526
G05  23525167.76525     -1992.23025        33.40025    -45365.60025
G23  23992608.06315      2074.68315        31.50015     48029.16115
G18  20649996.80515      -773.28715        31.30015    -17351.25115
G25  24542061.68414     -4856.52814        29.40014   -111383.13914
G28  23588511.81314     -4646.81614        28.80014    -64882.69914
G16  21739620.07414      1437.99114        28.00014     33442.26614
G31  22296149.69714     -3764.36214        24.80014    -86295.40814
G29  22212794.80214     -3645.53114        28.70014    -83588.90314
C26  22652875.44126      -306.32726        38.00026     -6635.86626
C29  22073793.33115     -2743.25315        33.40015    -62760.43715
C08  38617158.99715      -897.32515        31.40015    -20323.17015
R10  19357456.61215      -825.71615        31.10015    -16858.08015
C35  22405373.08314       451.65814        27.50014     10844.94114
C30  26270802.60214     -4200.86514        26.40014    -96177.09014
C13  38298702.66014      -404.76814        25.90014     -8906.13914
R09  20360381.10114     -4322.42514        23.80014    -99199.22014
R19  21487404.97913     -4720.00213        22.80013   -108222.23113
> 2025 05 03 09 13 26.9999999  0 18                      
G26  20550914.79826      -283.06826        39.00026     -6348.52226
G05  23525305.37025     -1993.50225        33.20025    -47352.66625
G23  23991980.29815      2075.38015        31.80015     50110.26115
G18  20649905.06815      -773.77915        31.30015    -18118.92815
G28  23589158.46514     -4643.95914        29.10014    -69521.38014
G25  24542751.50714     -4856.47914        29.30014   -116233.58814
G16  21739108.92814      1435.46414        27.60014     34884.47414
G31  22296629.66414     -3766.17914        24.80014    -90054.92814
G29  22213243.59114     -3646.85214        27.30014    -87229.66114
C26  22652697.66426      -307.36726        37.90026     -6936.96726
C29  22074075.73515     -2744.80915        33.40015    -65499.14115
C08  38617094.84215      -898.13315        31.70015    -21215.98115
R10  19357375.06815      -825.32315        31.30015    -17687.12015
C35  22405047.20914       453.49314        27.40014     11303.51614
C30  26271362.61414     -4201.60114        26.10014   -100373.83914
C13  38298538.37414      -405.65114        25.60014     -9304.75614
R09  20360940.81414     -4332.59514        24.00014   -103454.97514
R19  21488059.72613     -4717.76413        23.10013   -112992.91913
> 2025 05 03 09 13 27.9999999  0 18                      
G26  20550751.11126      -284.25326        38.90026     -6626.35126
G05  23525467.25825     -1994.38625        33.10025    -49340.66725
G23  23991357.02915      2073.50515        32.10015     52190.24415
G18  20649836.11615      -775.26715        31.20015    -18887.72015
G28  23589827.00314     -4647.08314        29.20014    -74161.72014
G25  24543452.12214     -4853.59814        29.20014   -121082.19314
G16  21738617.56814      1434.19414        27.30014     36325.28514
G31  22297113.23014     -3768.52914        24.80014    -93816.51014
G29  22213715.46514     -3649.27814        26.20014    -90872.15514
C26  22652537.27526      -308.23326        37.70026     -7238.91426
C29  22074387.52015     -2746.90615        33.40015    -68238.47415
C08  38617043.27715      -901.31515        31.90015    -22110.50915
R10  19357309.71315      -825.13615        31.50015    -18504.68315
C35  22404731.82714       459.18314        27.20014     11766.45214
C30  26271954.10514     -4199.19514        25.90014   -104568.20214
C13  38298397.17114      -402.40014        25.30014     -9702.82114
R09  20361524.81014     -4324.02114        24.40014   -107741.25414
R19  21488719.26913     -4720.08513        23.30013   -117690.85913
> 2025 05 03 09 13 28.9999999  0 18                      
G26  20550572.13526      -284.68926        38.80026     -6904.85626
G05  23525609.36025     -1995.20825        33.00025    -51329.57725
G23  23990724.16725      2073.33925        32.20025     54269.69525
G18  20649750.07515      -778.80515        31.20015    -19659.29115
G28  23590469.75814     -4644.46914        29.20014    -78800.91814
G25  24544133.85014     -4857.76014        29.10014   -125933.00814
G16  21738118.71414      1437.07714        27.10014     37767.50414
G31  22297578.80714     -3771.11114        24.70014    -97580.55014
G29  22214184.04014     -3648.69414        25.30014    -94514.88814
C26  22652357.09926      -309.02026        37.60026     -7541.71526
C29  22074677.41915     -2745.51915        33.40015    -70978.19815
C08  38616980.62115      -900.28815        32.30015    -23005.70115
R10  19357213.48015      -827.06515        31.60015    -19255.16415
C35  22404409.25014       456.94314        27.20014     12229.06814
C30  26272518.01414     -4199.83314        25.70014   -108761.65714
C13  38298232.88514      -402.38214        25.10014    -10100.07914
R09  20362127.69214     -4326.50814        24.40014   -112226.22514
R19  21489367.72014     -4725.99014        23.60014   -122427.87114
> 2025 05 03 09 13 29.9999999  0 18                      
G26  20550382.96626      -286.11526        38.60026     -7184.52626
G05  23525750.86225     -1996.68225        32.90025    -53319.76125
G23  23990095.20325      2072.53825        32.20025     56348.44825
G18  20649655.64115      -776.87015        31.30015    -20430.48715
G28  23591123.00514     -4646.80914        29.20014    -83441.28414
G25  24544822.47314     -4856.88714        29.10014   -130783.96414
G16  21737602.77114      1434.59314        27.00014     39208.54814
G31  22298053.07914     -3772.85514        24.60014   -101346.56014
G29  22214642.72314     -3651.57014        24.70014    -98159.60514
C26  22652176.32526      -310.13926        37.40026     -7845.53526
C29  22074969.71615     -2746.50315        33.30015    -73718.94415
C08  38616913.46715      -901.27915        32.30015    -23900.20815
R10  19357140.33115      -827.68415        31.70015    -20128.44215
C35  22404084.87514       457.56614        27.10014     12692.99914
C30  26273080.42514     -4196.59214        25.60014   -112953.82214
C13  38298073.99514      -404.28414        25.00014    -10497.18814
R19  21490005.67914     -4724.30314        23.80014   -127109.00914
R09  20362712.58714     -4308.04914        24.30014   -116615.68914
> 2025 05 03 09 13 30.9999999  0 18                      
G26  20550213.58326      -286.76026        38.50026     -7464.97726
G05  23525910.05125     -1997.57325        33.10025    -55311.42625
G23  23989476.13115      2072.28515        32.20015     58426.83515
G18  20649581.29215      -778.61915        31.40015    -21202.68615
G28  23591795.74014     -4653.90814        29.20014    -88086.73414
G25  24545527.28514     -4859.19614        29.00014   -135636.47014
G16  21737105.71514      1435.58814        27.60014     40649.90114
G29  22215115.79514     -3648.50714        24.40014   -101802.90514
G31  22298569.62114     -3778.18014        24.50014   -105116.73914
C26  22652018.03426      -310.80326        37.30026     -8150.10126
C29  22075274.90515     -2747.52115        33.30015    -76460.06015
C08  38616866.99915      -901.39715        32.30015    -24795.35515
R10  19357079.77315      -826.74615        31.70015    -20972.70115
C35  22403777.58814       449.04614        27.00014     13152.89014
C30  26273666.21914     -4193.86414        25.40014   -117142.76814
C13  38297929.49514      -400.28014        24.80014    -10893.33814
R19  21490661.32514     -4724.68414        24.10014   -131786.28114
R09  20363273.79914     -4309.39714        24.20014   -120780.48414
> 2025 05 03 09 13 31.9999999  0 17                      
G26  20550026.81226      -287.90726        38.50026     -7746.50326
G05  23526055.75125     -1998.60125        33.20025    -57303.65325
G29  22215573.87815     -3648.84015        32.60015   -105446.00415
G16  21736587.97315      1434.48615        32.20015     42090.57415
G23  23988837.27415      2071.49815        32.10015     60504.52715
G18  20649490.75515      -776.16215        31.40015    -21973.63115
G25  24546210.21214     -4861.96014        29.00014   -140491.38514
G28  23592439.39414     -4652.67114        29.10014    -92733.10514
C26  22651838.45926      -312.05326        37.20026     -8455.79726
C29  22075562.70615     -2748.13115        33.30015    -79202.12615
C08  38616805.84215      -902.21815        32.20015    -25691.29415
R10  19356993.43215      -830.87515        31.70015    -21775.80815
C35  22403460.10714       448.20914        26.90014     13607.64514
R19  21491319.36914     -4723.13314        24.50014   -136575.33814
C30  26274237.02414     -4196.53414        25.30014   -121331.43014
C13  38297769.70614      -406.71114        24.70014    -11291.04914
R09  20363834.41114     -4328.62514        24.10014   -125040.82414
> 2025 05 03 09 13 32.9999999  0 17                      
G26  20549838.84326      -288.54426        38.50026     -8028.79926
G05  23526196.65325     -1999.96225        33.40025    -59297.12925
G29  22216037.65715     -3653.70315        32.60015   -109092.26515
G16  21736078.92615      1433.17515        32.40015     43530.15715
G23  23988208.30915      2071.04515        32.10015     62581.69815
G18  20649407.11315      -778.38815        31.40015    -22745.63015
G25  24546900.93414     -4852.55614        29.00014   -145340.82114
G28  23593075.55414     -4649.07314        29.10014    -97377.37014
C26  22651661.58126      -312.59326        37.20026     -8762.21826
C29  22075855.00415     -2748.11615        33.20015    -81944.50815
C08  38616747.98215      -904.12215        32.10015    -26587.73515
R10  19356921.18215      -830.13815        31.70015    -22654.42515
C35  22403134.23314       457.39214        26.80014     14067.71614
R19  21491936.34214     -4723.23114        24.90014   -141143.19714
C30  26274809.92814     -4195.79714        25.10014   -125521.95314
C13  38297614.71314      -404.44714        24.60014    -11691.06814
R09  20364422.00414     -4341.35114        24.00014   -129443.27814
> 2025 05 03 09 13 33.9999999  0 17                      
G26  20549671.25926      -289.66326        38.40026     -8312.06026
G05  23526352.84525     -2000.49225        33.40025    -61291.33825
G16  21735583.06925      1432.95825        32.50025     44969.26925
G29  22216506.23325     -3653.05925        32.60025   -112739.11425
G23  23987592.83515      2069.56815        32.00015     64657.74715
G18  20649327.96815      -779.57515        31.40015    -23518.73515
G25  24547606.64614     -4862.70714        29.00014   -150195.16114
G28  23593740.49314     -4646.99714        29.00014   -102019.51314
C26  22651503.89026      -313.57526        37.30026     -9069.49926
C29  22076163.79015     -2751.28715        33.20015    -84688.06915
C08  38616698.81615      -905.29215        32.10015    -27485.73215
R10  19356854.02915      -835.65815        31.60015    -23462.07515
C35  22402816.45314       451.96114        26.70014     14528.04514
R19  21492612.97414     -4728.05714        25.20014   -145933.75014
C13  38297473.21114      -408.87914        24.50014    -12092.22114
C30  26275393.62414     -4195.24614        24.90014   -129711.58214
R09  20365020.98914     -4341.02614        23.80014   -133811.31114
> 2025 05 03 09 13 34.9999999  0 17                      
G26  20549492.28326      -290.51026        38.40026     -8596.25826
G05  23526494.94625     -2001.71225        33.70025    -63286.65325
G16  21735068.02625      1432.19625        32.60025     46407.66825
G29  22216963.71625     -3653.55525        32.50025   -116386.53925
G23  23986963.57115      2072.33015        31.90015     66735.21415
G18  20649244.02615      -784.87615        31.30015    -24295.79115
G25  24548295.86814     -4864.75914        29.00014   -155052.55414
G28  23594390.74314     -4649.95914        28.90014   -106662.97314
C26  22651324.31426      -314.66626        37.30026     -9377.84226
C29  22076447.69315     -2751.53715        33.10015    -87431.81815
C08  38616630.46315      -904.19415        32.00015    -28384.39915
R10  19356782.07915      -836.16915        31.60015    -24342.21615
C35  22402495.37514       453.10214        26.70014     14985.91414
R19  21493269.81914     -4732.31214        25.30014   -150714.38914
C13  38297323.31514      -410.16214        24.40014    -12495.87214
C30  26275960.23114     -4194.26414        24.70014   -133901.35414
R09  20365608.88214     -4336.70814        23.70014   -138215.29314
> 2025 05 03 09 13 36.0000000  0 17                      
G26  20549338.48926      -291.26126        38.40026     -8881.25526
G05  23526667.32725     -2002.82325        33.90025    -65283.06625
G16  21734581.76215      1432.34615        32.60015     47845.94115
G29  22217454.17715     -3654.39115        32.40015   -120034.70115
G18  20649179.27115      -783.24015        31.30015    -25073.06115
G23  23986355.29215      2070.56915        31.70015     68811.99215
G25  24549009.67414     -4854.65814        28.90014   -159904.21714
G28  23595069.47314     -4655.42714        28.80014   -111310.50414
C26  22651176.81726      -315.22126        37.30026     -9686.89726
C29  22076767.57215     -2756.11415        33.00015    -90177.97615
R10  19356730.51415      -835.07915        31.60015    -25173.54515
C08  38616597.48615      -908.39915        31.90015    -29284.13915
C35  22402202.17814       452.34314        26.60014     15443.40514
R19  21493953.04614     -4730.42514        25.30014   -155478.95414
C30  26276565.51214     -4198.98214        24.50014   -138091.21214
C13  38297185.41014      -409.16014        24.30014    -12899.65614
R09  20366218.06114     -4343.56214        23.60014   -142576.48714
> 2025 05 03 09 13 36.9999999  0 17                      
G26  20549150.81926      -292.12326        38.40026     -9167.05826
G05  23526800.73525     -2003.74625        33.90025    -67280.42325
G16  21734068.51715      1432.86015        32.40015     49284.55215
G29  22217902.96615     -3654.87615        32.20015   -123683.39515
G18  20649079.44015      -787.21315        31.30015    -25853.01515
G23  23985717.63315      2070.52915        31.60015     70888.55115
G25  24549690.50314     -4859.19014        29.00014   -164756.95414
G28  23595712.82814     -4649.94614        28.80014   -115955.70314
C26  22650988.84726      -316.09526        37.20026     -9996.73726
C29  22077043.08115     -2753.81215        32.90015    -92928.78415
R10  19356627.68515      -837.61215        31.70015    -25949.91915
C08  38616522.23815      -906.71615        31.80015    -30185.58015
C35  22401873.30614       452.62314        26.80014     15900.66414
R19  21494572.71714     -4730.46514        25.20014   -160123.31514
C30  26277125.22514     -4204.49114        24.50014   -142288.03814
C13  38297021.12414      -406.46714        24.20014    -13301.63314
R09  20366749.89214     -4329.46614        23.50014   -146742.81014
> 2025 05 03 09 13 38.0000000  0 16                      
G26  20548997.32526      -292.87226        38.50026     -9453.67626
G05  23526974.61425     -2004.72025        33.90025    -69278.79325
G16  21733587.65015      1430.00015        32.30015     50721.32015
G23  23985118.34815      2066.47515        31.40015     72962.28515
G25  24550392.91714     -4863.58414        29.00014   -169613.02914
G29  22218386.83115     -3653.71215        31.90015   -127331.53915
G28  23596382.86414     -4652.07914        28.70014   -120601.59414
C26  22650839.85026      -316.93926        37.20026    -10307.44826
C29  22077368.65615     -2754.55415        32.70015    -95674.89515
R10  19356581.81715      -837.50715        31.90015    -26810.23215
C08  38616485.36315      -910.29115        31.70015    -31087.87915
C35  22401581.00814       446.95914        26.90014     16354.81314
R19  21495237.95614     -4724.58014        25.20014   -164791.43914
C30  26277723.01114     -4200.72514        24.40014   -146485.54814
C13  38296880.82114      -406.23414        24.10014    -13702.51314
R09  20367358.17114     -4330.44114        23.50014   -151099.42014
> 2025 05 03 09 13 39.0000000  0 16                      
G26  20548812.35326      -294.02526        38.50026     -9741.32426
G05  23527114.91725     -2005.63925        34.00025    -71278.10225
G29  22218842.21615     -3657.68515        31.40015   -130982.13715
G23  23984489.98315      2067.94615        31.20015     75036.07115
G25  24551092.93214     -4864.58014        29.10014   -174470.86814
G28  23597029.21714     -4651.03714        28.60014   -125247.01014
G18  20648934.04024      -787.89324        28.20024                
C26  22650663.57226      -318.01026        37.20026    -10619.15226
C29  22077660.65415     -2753.57315        32.60015    -98422.32415
R10  19356491.28015      -838.81515        31.90015    -27591.98415
C08  38616425.40515      -903.59915        31.60015    -31990.20415
C35  22401247.93914       447.94314        27.20014     16809.27114
C30  26278280.32514     -4197.98414        24.90014   -150677.81214
R19  21495879.51214     -4730.79314        25.10014   -169491.71314
C13  38296709.04014      -405.37014        24.20014    -14102.29814
R09  20367898.69713     -4338.80113        23.40013   -155251.26313
> 2025 05 03 09 13 39.9999999  0 17                      
G26  20548619.58726      -294.48526        38.50026    -10029.58426
G05  23527251.92225     -2006.62125        34.20025    -73278.34125
G18  20648830.91215      -787.02515        31.20015      -781.12615
G29  22219291.60515     -3655.07015        31.10015   -134631.77315
G23  23983841.23215      2067.55515        31.10015     77109.64915
G25  24551769.26414     -4861.27714        29.30014   -179327.05614
G28  23597657.28214     -4650.98414        28.50014   -129892.19414
G16  21732544.07315      1429.59315        29.60015     53595.47215
C26  22650477.10126      -318.04926        37.10026    -10931.17626
C29  22077940.96015     -2753.20015        32.40015   -101168.90015
R10  19356397.44515      -840.37815        31.90015    -28416.41115
C08  38616334.86815      -906.94415        31.50015    -32890.25415
C35  22400913.67014       447.55214        27.30014     17264.97814
R19  21496528.86314     -4729.95814        25.40014   -174296.04014
C30  26278829.54514     -4197.44614        25.10014   -154869.59414
C13  38296539.05814      -410.36114        24.60014    -14504.67214
R09  20368450.91514     -4343.76814        23.60014   -159528.37514
> 2025 05 03 09 13 41.0000000  0 17                      
G05  23527427.60125     -2007.59325        34.40025    -75279.58725
G26  20548471.78916      -294.78816        38.00016    -10318.30016
G18  20648769.15515      -787.13215        31.80015     -1562.35915
G29  22219776.66915     -3655.25215        31.10015   -138281.25915
G23  23983227.55715      2071.97615        30.90015     79186.05715
G25  24552485.46815     -4862.18015        29.50015   -184183.34415
G28  23598327.01814     -4652.47314        28.30014   -134538.34314
G16  21732068.30214      1426.95614        28.20014     55029.43814
C26  22650327.80426      -319.62226        36.90026    -11244.40426
C29  22078257.84015     -2754.61115        32.50015   -103916.42415
R10  19356336.88715      -839.47515        31.80015    -29198.92715
C08  38616312.68315      -906.80015        31.40015    -33793.44115
C35  22400616.57614       445.82214        27.30014     17717.63514
R19  21497195.00214     -4728.80914        25.70014   -178967.22814
C13  38296401.45314      -406.44714        24.80014    -14907.92314
C30  26279432.12814     -4197.19014        25.10014   -159061.38714
R09  20369070.28614     -4344.89914        23.80014   -163940.76014
> 2025 05 03 09 13 42.0000000  0 17                      
G26  20548286.51716      -296.60816        36.90016    -10608.36916
G05  23527567.30425     -2008.60625        34.50025    -77281.83225
G18  20648689.11015      -788.21215        32.20015     -2344.33715
G29  22220228.75615     -3656.15415        31.00015   -141931.28315
G23  23982610.58415      2066.24515        30.70015     81259.60015
G25  24553170.49415     -4864.30115        29.60015   -189041.06815
G28  23598983.26414     -4660.22614        28.20014   -139189.97114
G16  21731547.26314      1424.89514        27.50014     56461.26714
C26  22650150.62726      -320.39126        36.70026    -11558.53526
C29  22078551.93715     -2755.08215        33.10015   -106664.31515
R10  19356260.74015      -842.65815        31.80015    -30055.42615
C08  38616243.73115      -905.71815        31.30015    -34693.32015
C35  22400295.19814       439.29114        27.20014     18165.49114
R19  21497853.34614     -4731.15814        25.90014   -183757.05214
C13  38296245.56114      -408.51914        25.00014    -15309.52814
C30  26280005.03114     -4199.98614        25.00014   -163253.82814
R09  20369652.48314     -4342.48714        24.00014   -168316.47214
> 2025 05 03 09 13 43.0000000  0 17                      
G26  20548100.34626      -297.00826        36.40026    -10899.65526
G05  23527708.80625     -2009.18025        34.50025    -79284.79225
G18  20648605.76815      -790.04015        32.30015     -3127.78115
G29  22220685.04015     -3657.86615        30.90015   -145582.62815
G23  23981981.32015      2065.97015        30.60015     83332.00415
G25  24553863.91415     -4862.51015        29.60015   -193898.07715
G16  21731050.50714      1425.94714        27.50014     57893.08414
G28  23599626.31914     -4656.75614        28.00014   -143841.11014
C26  22649974.04926      -320.79526        36.70026    -11873.23526
C29  22078845.13415     -2753.49415        33.10015   -109412.44015
R10  19356192.98615      -843.56015        31.70015    -30959.21115
C08  38616177.17715      -906.62315        31.20015    -35593.81215
C35  22399976.21914       446.18014        27.10014     18615.70614
R19  21498487.40714     -4732.82914        26.00014   -188415.99314
C13  38296085.47214      -410.06614        25.00014    -15712.92914
C30  26280579.13414     -4198.69414        24.80014   -167448.23414
R09  20370228.68414     -4347.16714        24.00014   -172659.32914
> 2025 05 03 09 13 44.0000000  0 17                      
G26  20547937.85926      -297.79926        37.10026    -11191.17126
G05  23527875.79115     -2011.31015        34.50015    -81288.87415
G18  20648531.71915      -790.70015        32.30015     -3912.11715
G29  22221160.51115     -3656.22515        31.00015   -149233.28215
G23  23981364.94715      2068.26215        30.50015     85405.59315
G25  24554571.42415     -4859.14815        29.60015   -198752.56815
G16  21730563.94414      1426.60414        28.30014     59325.37214
G28  23600289.16014     -4648.00314        27.90014   -148486.21514
C26  22649814.26026      -321.67026        37.10026    -12188.67326
C29  22079156.31815     -2754.64515        33.10015   -112160.65215
R10  19356134.82715      -844.84315        31.70015    -31814.14715
C08  38616140.30215      -908.51515        31.00015    -36494.89515
C35  22399673.72914       448.49514        27.00014     19070.15814
R19  21499169.73514     -4728.76914        26.00014   -193236.39514
C13  38295942.77014      -414.33714        25.00014    -16120.05414
R09  20370802.48714     -4344.68114        24.00014   -176891.36014
C30  26281158.63214     -4195.00914        24.70014   -171638.07114
> 2025 05 03 09 13 45.0000000  0 17                      
G26  20547756.18426      -298.65026        37.20026    -11483.54726
G05  23528017.59225     -2011.06325        34.50025    -83293.88125
G18  20648453.17315      -789.96715        32.20015     -4696.31115
G29  22221622.19115     -3661.38215        31.10015   -152887.19415
G23  23980743.47715      2058.29415        30.40015     87472.88315
G25  24555252.25315     -4862.01315        29.50015   -203608.18015
G16  21730048.90014      1427.14114        28.80014     60758.12614
G28  23600934.61314     -4649.52114        27.80014   -153130.37014
C26  22649639.78126      -322.49726        37.50026    -12504.95526
C29  22079443.22015     -2754.97915        33.00015   -114910.13915
R10  19356042.49115      -842.98415        31.60015    -32586.74715
C08  38616072.24915      -910.38515        30.90015    -37398.89315
C35  22399342.75814       443.40514        27.00014     19521.52514
R19  21499824.48114     -4729.09714        26.10014   -198007.84614
C13  38295780.88314      -412.88414        24.90014    -16527.35114
C30  26281716.54614     -4200.98614        24.60014   -175830.57514
R09  20371423.05714     -4340.01714        24.20014   -181471.83814
> 2025 05 03 09 13 46.0000000  0 17                      
G26  20547575.70926      -299.60126        37.30026    -11776.83126
G05  23528164.19125     -2012.57725        34.50025    -85300.02725
G18  20648359.63815      -792.74415        32.10015     -5482.29615
G29  22222077.87615     -3656.96415        31.30015   -156539.23315
G23  23980114.21215      2066.20115        30.30015     89543.35715
G16  21729543.45014      1424.87214        29.10014     62189.53514
G25  24555935.77914     -4865.67714        29.40014   -208466.59614
G28  23601586.06214     -4649.53514        27.60014   -157774.20514
C26  22649461.70426      -323.24026        37.50026    -12822.00326
C29  22079735.21715     -2757.02115        32.90015   -117660.48315
R10  19355967.24315      -846.28815        31.60015    -33448.58415
C08  38616002.69815      -904.04615        30.80015    -38299.63615
C35  22399020.18114       442.90014        26.90014     19970.24914
R19  21500469.03514     -4717.72614        26.10014   -202723.42514
C13  38295617.79514      -412.57014        25.20014    -16934.23114
C30  26282285.55214     -4203.80714        24.60014   -180026.23514
R09  20371973.17614     -4346.56914        24.20014   -185674.10914
> 2025 05 03 09 13 47.0000000  0 17                      
G26  20547415.32026      -300.21726        37.40026    -12070.79126
G05  23528334.77325     -2012.93525        34.40025    -87306.75525
G18  20648290.68615      -792.99215        32.10015     -6269.00815
G29  22222559.34215     -3659.31315        31.30015   -160192.17815
G23  23979510.43015      2064.37415        30.20015     91613.71015
G16  21729051.79014      1425.85514        29.40014     63621.18714
G25  24556637.29414     -4869.84114        29.30014   -213328.68614
G28  23602260.59514     -4654.67014        27.40014   -162421.32014
C26  22649305.21226      -324.15426        37.60026    -13139.87926
C29  22080040.10625     -2756.22025        32.80025   -120410.85925
R10  19355905.18615      -844.67515        31.60015    -34283.69015
C08  38615965.22415      -904.00415        30.60015    -39198.65515
C35  22398716.19114       443.13414        26.90014     20417.54914
R19  21501154.36114     -4731.67014        26.00014   -207559.13814
C13  38295478.99214      -410.73314        25.20014    -17339.97914
C30  26282880.94014     -4196.91814        24.90014   -184221.12414
R09  20372589.85014     -4342.16714        24.20014   -190135.35714
> 2025 05 03 09 13 48.0000000  0 16                      
G26  20547234.84526      -301.10226        37.60026    -12365.61626
G05  23528470.57925     -2014.22825        34.40025    -89314.58725
G18  20648205.24525      -794.41125        32.10025     -7056.95525
G29  22223020.72315     -3661.10415        31.40015   -163846.66715
G16  21728532.25015      1424.04715        29.70015     65051.66715
G23  23978892.25815      2059.49715        30.00015     93680.72415
G25  24557333.11214     -4861.26114        29.20014   -218186.32914
C26  22649130.73326      -324.79326        37.80026    -13458.50626
C29  22080333.00425     -2757.60825        32.70025   -123162.19725
R10  19355837.73215      -849.94615        31.80015    -35188.24015
C08  38615903.76615      -909.14215        30.50015    -40099.79215
C35  22398397.81214       444.11414        26.90014     20866.59514
C13  38295325.19814      -415.57014        25.50014    -17748.69814
R19  21501772.83214     -4734.16014        25.90014   -212136.94714
C30  26283462.83714     -4198.82914        25.10014   -188412.63314
R09  20373169.94814     -4350.11814        24.10014   -194499.60814
> 2025 05 03 09 13 49.0000001  0 16                      
G26  20547089.44626      -301.71626        37.80026    -12661.12726
G05  23528648.35625     -2014.92325        34.40025    -91323.23825
G18  20648143.18825      -794.74025        32.10025     -7845.52325
G29  22223505.48715     -3657.36215        31.70015   -167499.16515
G16  21728062.47515      1424.72415        29.90015     66482.21915
G23  23978301.36715      2058.88915        29.90015     95746.23115
G25  24558042.72114     -4857.03614        29.00014   -223039.66114
C26  22648984.13526      -325.54126        37.90026    -13777.86926
R10  19355790.96515      -849.67215        31.90015    -36042.44815
C29  22080656.77925     -2757.93125        32.60025   -125914.05825
C08  38615862.09515      -913.05115        30.30015    -41004.86915
C35  22398102.81614       440.58114        27.20014     21315.28714
C13  38295207.67914      -414.61514        25.80014    -18156.01214
R19  21502437.47214     -4733.98814        25.80014   -216799.71514
C30  26284063.02214     -4199.37214        25.10014   -192605.29314
R09  20373776.72814     -4354.02514        24.10014   -198844.75714
