NMEA,$PSAMCLK,2364,55158300,16,9744915,61859,551583000*7F,1746263564000
NMEA,$GPGGA,091245.000,4503.2227,N,00741.2415,E,1,16,0.8,195.9,M,48.2,M,,*55,1746263564000
NMEA,$PSAMSA,091245.000,4503.2227,N,00741.2415,E,0,M,,*65,1746263564000
NMEA,$GPGLL,4503.2227,N,00741.2415,E,091245.000,A,A*55,1746263564000
NMEA,$GPVTG,354.5,T,,M,0.2,N,0.3,K,A*0B,1746263564000
NMEA,$GPGSV,3,1,09,05,21,052,42,16,39,305,40,18,75,130,39,23,16,142,39*72,1746263564000
NMEA,$GPGSV,3,2,09,25,11,131,39,26,67,291,49,28,23,202,31,29,38,067,45*74,1746263564000
NMEA,$GPGSV,3,3,09,31,38,227,25*49,1746263564000
NMEA,$GLGSV,1,1,02,73,47,160,41,83,33,037,36*68,1746263564000
NMEA,$BDGSV,2,1,08,205,21,116,41,208,31,050,37,213,36,070,37,226,53,287,43*61,1746263564000
NMEA,$BDGSV,2,2,08,229,60,053,44,230,08,059,33,232,04,038,34,235,54,246,31*60,1746263564000
NMEA,$GPGSA,A,3,18,26,16,31,29,28,05,25,,,,,1.4,0.8,1.2*37,1746263564000
NMEA,$GNGSA,A,3,73,83,,,,,,,,,,,1.4,0.8,1.2*2D,1746263564000
NMEA,$BDGSA,A,3,208,213,226,229,230,235,,,,,,,1.4,0.8,1.2*2D,1746263564000
NMEA,$GPRMC,091245.000,A,4503.2227,N,00741.2415,E,0.2,354.5,030525,,,A*66,1746263564000
NMEA,$PSAMCLK,2364,55158300,16,9744915,61859,551583000*7F,1746263564000
NMEA,$PSAMCLK,2364,55158400,16,9745113,123716,551584000*43,1746263565000
NMEA,$GPGGA,091246.000,4503.2227,N,00741.2415,E,1,16,0.8,196.1,M,48.2,M,,*5D,1746263565000
NMEA,$PSAMSA,091246.000,4503.2227,N,00741.2415,E,1,M,,*67,1746263565000
NMEA,$GPGLL,4503.2227,N,00741.2415,E,091246.000,A,A*56,1746263565000
NMEA,$GPVTG,354.5,T,,M,0.0,N,0.0,K,A*0A,1746263565000
NMEA,$GPGSV,3,1,09,05,21,052,42,16,39,305,41,18,75,130,39,23,16,142,39*73,1746263565000
NMEA,$GPGSV,3,2,09,25,11,131,39,26,67,291,49,28,23,202,31,29,38,067,44*75,1746263565000
NMEA,$GPGSV,3,3,09,31,38,227,26*4A,1746263565000
NMEA,$GLGSV,1,1,02,73,47,160,40,83,33,037,36*69,1746263565000
NMEA,$BDGSV,2,1,08,205,21,116,41,208,31,050,37,213,36,070,37,226,53,287,45*67,1746263565000
NMEA,$BDGSV,2,2,08,229,60,053,43,230,08,059,33,232,04,038,35,235,54,246,32*65,1746263565000
NMEA,$GPGSA,A,3,18,26,16,31,29,28,05,25,,,,,1.4,0.8,1.2*37,1746263565000
NMEA,$GNGSA,A,3,73,83,,,,,,,,,,,1.4,0.8,1.2*2D,1746263565000
NMEA,$BDGSA,A,3,208,213,226,229,230,235,,,,,,,1.4,0.8,1.2*2D,1746263565000
NMEA,$GPRMC,091246.000,A,4503.2227,N,00741.2415,E,0.0,354.5,030525,,,A*67,1746263565000
NMEA,$PSAMCLK,2364,55158400,16,9745113,123716,551584000*43,1746263565000
NMEA,$PSAMCLK,2364,55158500,16,9745223,185574,551585000*49,1746263566000
NMEA,$GPGGA,091247.000,4503.2227,N,00741.2415,E,1,16,0.8,196.1,M,48.2,M,,*5C,1746263566000
NMEA,$PSAMSA,091247.000,4503.2227,N,00741.2415,E,1,M,,*66,1746263566000
NMEA,$GPGLL,4503.2227,N,00741.2415,E,091247.000,A,A*57,1746263566000
NMEA,$GPVTG,354.5,T,,M,0.0,N,0.0,K,A*0A,1746263566000
NMEA,$GPGSV,3,1,09,05,21,052,42,16,39,305,41,18,75,130,39,23,16,142,39*73,1746263566000
NMEA,$GPGSV,3,2,09,25,11,131,39,26,67,291,49,28,23,202,31,29,38,067,44*75,1746263566000
NMEA,$GPGSV,3,3,09,31,38,227,26*4A,1746263566000
NMEA,$GLGSV,1,1,04,71,08,344,33,73,47,160,40,74,78,287,35,83,33,037,35*66,1746263566000
NMEA,$BDGSV,2,1,08,205,21,116,40,208,31,050,37,213,36,070,37,226,53,287,45*66,1746263566000
NMEA,$BDGSV,2,2,08,229,60,053,43,230,08,059,33,232,04,038,35,235,54,246,32*65,1746263566000
NMEA,$GPGSA,A,3,18,26,16,31,29,05,25,,,,,,1.4,0.8,1.2*3D,1746263566000
NMEA,$GNGSA,A,3,73,74,83,,,,,,,,,,1.4,0.8,1.2*2E,1746263566000
NMEA,$BDGSA,A,3,208,213,226,229,230,235,,,,,,,1.4,0.8,1.2*2D,1746263566000
NMEA,$GPRMC,091247.000,A,4503.2227,N,00741.2415,E,0.0,354.5,030525,,,A*66,1746263566000
NMEA,$PSAMCLK,2364,55158500,16,9745223,185574,551585000*49,1746263566000
NMEA,$PSAMCLK,2364,55158600,17,9745310,247441,551586000*43,1746263567000
NMEA,$GPGGA,091248.000,4503.2227,N,00741.2415,E,1,17,0.8,196.1,M,48.2,M,,*52,1746263567000
NMEA,$PSAMSA,091248.000,4503.2227,N,00741.2415,E,0,M,,*68,1746263567000
NMEA,$GPGLL,4503.2227,N,00741.2415,E,091248.000,A,A*58,1746263567000
NMEA,$GPVTG,354.5,T,,M,0.0,N,0.0,K,A*0A,1746263567000
NMEA,$GPGSV,3,1,09,05,21,052,42,16,39,305,41,18,75,130,39,23,16,142,39*73,1746263567000
NMEA,$GPGSV,3,2,09,25,11,131,39,26,67,291,49,28,23,202,31,29,38,067,43*72,1746263567000
NMEA,$GPGSV,3,3,09,31,38,227,26*4A,1746263567000
NMEA,$GLGSV,1,1,04,71,08,344,35,73,47,160,40,74,78,287,35,83,33,037,35*60,1746263567000
NMEA,$BDGSV,2,1,08,205,21,116,40,208,31,050,37,213,36,070,36,226,53,287,44*66,1746263567000
NMEA,$BDGSV,2,2,08,229,60,053,42,230,08,059,33,232,04,038,36,235,54,246,33*66,1746263567000
NMEA,$GPGSA,A,3,18,26,16,31,29,28,05,25,,,,,1.4,0.8,1.0*35,1746263567000
NMEA,$GNGSA,A,3,73,74,83,,,,,,,,,,1.4,0.8,1.0*2C,1746263567000
NMEA,$BDGSA,A,3,208,213,226,229,230,235,,,,,,,1.4,0.8,1.0*2F,1746263567000
NMEA,$GPRMC,091248.000,A,4503.2227,N,00741.2415,E,0.0,354.5,030525,,,A*69,1746263567000
NMEA,$PSAMCLK,2364,55158600,17,9745310,247441,551586000*43,1746263567000
NMEA,$PSAMCLK,2364,55158700,17,9745424,309311,551587000*4A,1746263568000
NMEA,$GPGGA,091249.000,4503.2227,N,00741.2415,E,1,17,0.8,196.1,M,48.2,M,,*53,1746263568000
NMEA,$PSAMSA,091249.000,4503.2227,N,00741.2415,E,0,M,,*69,1746263568000
NMEA,$GPGLL,4503.2227,N,00741.2415,E,091249.000,A,A*59,1746263568000
NMEA,$GPVTG,354.5,T,,M,0.0,N,0.0,K,A*0A,1746263568000
NMEA,$GPGSV,3,1,09,05,21,052,42,16,39,305,41,18,75,130,39,23,16,142,39*73,1746263568000
NMEA,$GPGSV,3,2,09,25,11,131,39,26,67,291,49,28,23,202,33,29,38,067,43*70,1746263568000
NMEA,$GPGSV,3,3,09,31,38,227,26*4A,1746263568000
NMEA,$GLGSV,1,1,04,71,08,344,37,73,47,160,39,74,78,287,35,83,33,037,35*6C,1746263568000
NMEA,$BDGSV,2,1,08,205,21,116,39,208,31,050,37,213,36,070,36,226,53,287,44*68,1746263568000
NMEA,$BDGSV,2,2,08,229,60,053,42,230,08,059,33,232,04,038,37,235,54,246,33*67,1746263568000
NMEA,$GPGSA,A,3,18,26,16,31,29,28,05,25,,,,,1.4,0.8,1.0*35,1746263568000
NMEA,$GNGSA,A,3,73,74,83,,,,,,,,,,1.4,0.8,1.0*2C,1746263568000
NMEA,$BDGSA,A,3,208,213,226,229,230,235,,,,,,,1.4,0.8,1.0*2F,1746263568000
NMEA,$GPRMC,091249.000,A,4503.2227,N,00741.2415,E,0.0,354.5,030525,,,A*68,1746263568000
NMEA,$PSAMCLK,2364,55158700,17,9745424,309311,551587000*4A,1746263568000
NMEA,$PSAMCLK,2364,55158800,17,9745591,371174,551588000*4B,1746263569000
NMEA,$GPGGA,091250.000,4503.2227,N,00741.2415,E,1,17,0.8,196.1,M,48.2,M,,*5B,1746263569000
NMEA,$PSAMSA,091250.000,4503.2227,N,00741.2415,E,0,M,,*61,1746263569000
NMEA,$GPGLL,4503.2227,N,00741.2415,E,091250.000,A,A*51,1746263569000
NMEA,$GPVTG,354.5,T,,M,0.0,N,0.0,K,A*0A,1746263569000
NMEA,$GPGSV,3,1,09,05,21,052,42,16,39,305,41,18,75,130,39,23,16,142,39*73,1746263569000
NMEA,$GPGSV,3,2,09,25,11,131,39,26,67,291,49,28,23,202,34,29,38,067,42*76,1746263569000
NMEA,$GPGSV,3,3,09,31,38,227,26*4A,1746263569000
NMEA,$GLGSV,1,1,04,71,08,344,40,73,47,160,39,74,78,287,35,83,33,037,35*6C,1746263569000
NMEA,$BDGSV,2,1,08,205,21,116,39,208,31,050,36,213,36,070,36,226,53,287,44*69,1746263569000
NMEA,$BDGSV,2,2,08,229,60,053,42,230,08,059,34,232,04,038,37,235,54,246,33*60,1746263569000
NMEA,$GPGSA,A,3,18,26,16,31,29,28,05,25,,,,,1.4,0.8,1.0*35,1746263569000
NMEA,$GNGSA,A,3,73,74,83,,,,,,,,,,1.4,0.8,1.0*2C,1746263569000
NMEA,$BDGSA,A,3,208,213,226,229,230,235,,,,,,,1.4,0.8,1.0*2F,1746263569000
NMEA,$GPRMC,091250.000,A,4503.2227,N,00741.2415,E,0.0,354.5,030525,,,A*60,1746263569000
NMEA,$PSAMCLK,2364,55158800,17,9745591,371174,551588000*4B,1746263569000
NMEA,$PSAMCLK,2364,55158900,17,9745597,433034,551589000*49,1746263570000
NMEA,$GPGGA,091251.000,4503.2227,N,00741.2415,E,1,17,0.8,196.1,M,48.2,M,,*5A,1746263570000
NMEA,$PSAMSA,091251.000,4503.2227,N,00741.2415,E,0,M,,*60,1746263570000
NMEA,$GPGLL,4503.2227,N,00741.2415,E,091251.000,A,A*50,1746263570000
NMEA,$GPVTG,354.5,T,,M,0.0,N,0.0,K,A*0A,1746263570000
NMEA,$GPGSV,3,1,09,05,21,052,42,16,39,305,41,18,75,130,39,23,16,142,39*73,1746263570000
NMEA,$GPGSV,3,2,09,25,11,131,38,26,67,291,48,28,23,202,34,29,38,067,42*76,1746263570000
NMEA,$GPGSV,3,3,09,31,38,227,26*4A,1746263570000
NMEA,$GLGSV,1,1,04,71,08,344,42,73,46,161,39,74,78,286,35,83,33,037,35*6F,1746263570000
NMEA,$BDGSV,2,1,08,205,21,116,39,208,31,050,36,213,36,070,36,226,53,287,43*6E,1746263570000
NMEA,$BDGSV,2,2,08,229,60,053,41,230,08,059,42,232,04,038,37,235,54,246,33*62,1746263570000
NMEA,$GPGSA,A,3,18,26,16,31,29,28,05,25,,,,,1.4,0.8,1.0*35,1746263570000
NMEA,$GNGSA,A,3,73,74,83,,,,,,,,,,1.4,0.8,1.0*2C,1746263570000
NMEA,$BDGSA,A,3,208,213,226,229,230,235,,,,,,,1.4,0.8,1.0*2F,1746263570000
NMEA,$GPRMC,091251.000,A,4503.2227,N,00741.2415,E,0.0,354.5,030525,,,A*61,1746263570000
NMEA,$PSAMCLK,2364,55158900,17,9745597,433034,551589000*49,1746263570000
NMEA,$PSAMCLK,2364,55159000,16,9745602,494891,551590000*4D,1746263571000
NMEA,$GPGGA,091252.000,4503.2227,N,00741.2415,E,1,16,0.8,196.1,M,48.2,M,,*58,1746263571000
NMEA,$PSAMSA,091252.000,4503.2227,N,00741.2415,E,0,M,,*63,1746263571000
NMEA,$GPGLL,4503.2227,N,00741.2415,E,091252.000,A,A*53,1746263571000
NMEA,$GPVTG,354.5,T,,M,0.0,N,0.0,K,A*0A,1746263571000
NMEA,$GPGSV,3,1,10,05,21,052,41,16,39,305,41,18,75,130,39,23,16,142,39*78,1746263571000
NMEA,$GPGSV,3,2,10,25,11,131,38,26,67,291,47,27,15,268,19,28,23,202,34*73,1746263571000
NMEA,$GPGSV,3,3,10,29,38,067,42,31,38,227,26*75,1746263571000
NMEA,$GLGSV,1,1,04,71,08,344,42,73,46,161,38,74,78,286,35,83,33,037,34*6F,1746263571000
NMEA,$BDGSV,2,1,08,205,21,116,38,208,31,050,36,213,36,070,36,226,53,287,43*6F,1746263571000
NMEA,$BDGSV,2,2,08,229,60,053,41,230,08,059,42,232,04,038,37,235,54,246,33*62,1746263571000
NMEA,$GPGSA,A,3,18,26,16,31,29,05,25,,,,,,1.4,0.8,1.2*3D,1746263571000
NMEA,$GNGSA,A,3,73,74,83,,,,,,,,,,1.4,0.8,1.2*2E,1746263571000
NMEA,$BDGSA,A,3,208,213,226,229,230,235,,,,,,,1.4,0.8,1.2*2D,1746263571000
NMEA,$GPRMC,091252.000,A,4503.2227,N,00741.2415,E,0.0,354.5,030525,,,A*62,1746263571000
NMEA,$PSAMCLK,2364,55159000,16,9745602,494891,551590000*4D,1746263571000
NMEA,$PSAMCLK,2364,55159100,14,9745698,556750,551591000*41,1746263572000
NMEA,$GPGGA,091253.000,4503.2227,N,00741.2415,E,1,14,0.8,196.1,M,48.2,M,,*5B,1746263572000
NMEA,$PSAMSA,091253.000,4503.2227,N,00741.2415,E,0,M,,*62,1746263572000
NMEA,$GPGLL,4503.2227,N,00741.2415,E,091253.000,A,A*52,1746263572000
NMEA,$GPVTG,354.5,T,,M,0.0,N,0.0,K,A*0A,1746263572000
NMEA,$GPGSV,3,1,10,05,21,052,41,16,39,305,40,18,75,130,39,23,16,142,38*78,1746263572000
NMEA,$GPGSV,3,2,10,25,11,131,38,26,67,291,46,27,15,268,19,28,23,202,32*74,1746263572000
NMEA,$GPGSV,3,3,10,29,38,067,42,31,38,227,26*75,1746263572000
NMEA,$GLGSV,1,1,04,71,08,344,41,73,46,161,38,74,78,286,34,83,33,037,34*6D,1746263572000
NMEA,$BDGSV,2,1,08,205,21,116,37,208,31,050,36,213,36,070,36,226,53,287,42*61,1746263572000
NMEA,$BDGSV,2,2,08,229,60,053,41,230,08,059,41,232,04,038,36,235,54,246,33*60,1746263572000
NMEA,$GPGSA,A,3,18,26,16,29,05,25,,,,,,,1.6,0.8,1.4*3B,1746263572000
NMEA,$GNGSA,A,3,73,74,83,,,,,,,,,,1.6,0.8,1.4*2A,1746263572000
NMEA,$BDGSA,A,3,208,213,226,229,235,,,,,,,,1.6,0.8,1.4*18,1746263572000
NMEA,$GPRMC,091253.000,A,4503.2227,N,00741.2415,E,0.0,354.5,030525,,,A*63,1746263572000
NMEA,$PSAMCLK,2364,55159100,14,9745698,556750,551591000*41,1746263572000
NMEA,$PSAMCLK,2364,55159200,16,9745861,618609,551592000*4F,1746263573000
NMEA,$GPGGA,091254.000,4503.2227,N,00741.2415,E,1,16,0.8,196.1,M,48.2,M,,*5E,1746263573000
NMEA,$PSAMSA,091254.000,4503.2227,N,00741.2415,E,0,M,,*65,1746263573000
NMEA,$GPGLL,4503.2227,N,00741.2415,E,091254.000,A,A*55,1746263573000
NMEA,$GPVTG,354.5,T,,M,0.0,N,0.0,K,A*0A,1746263573000
NMEA,$GPGSV,3,1,10,05,21,052,41,16,39,305,39,18,75,130,38,23,16,142,38*77,1746263573000
NMEA,$GPGSV,3,2,10,25,11,131,38,26,67,291,46,27,15,268,19,28,23,202,32*74,1746263573000
NMEA,$GPGSV,3,3,10,29,38,067,41,31,38,227,26*76,1746263573000
NMEA,$GLGSV,1,1,04,71,08,344,40,73,46,161,37,74,78,286,34,83,33,037,34*63,1746263573000
NMEA,$BDGSV,2,1,08,205,21,116,35,208,31,050,36,213,36,070,35,226,53,287,42*60,1746263573000
NMEA,$BDGSV,2,2,08,229,60,053,41,230,08,059,40,232,04,038,36,235,54,246,33*61,1746263573000
NMEA,$GPGSA,A,3,18,26,16,29,28,05,25,,,,,,1.4,0.8,1.2*35,1746263573000
NMEA,$GNGSA,A,3,73,74,83,,,,,,,,,,1.4,0.8,1.2*2E,1746263573000
NMEA,$BDGSA,A,3,208,213,226,229,230,235,,,,,,,1.4,0.8,1.2*2D,1746263573000
NMEA,$GPRMC,091254.000,A,4503.2227,N,00741.2415,E,0.0,354.5,030525,,,A*64,1746263573000
NMEA,$PSAMCLK,2364,55159200,16,9745861,618609,551592000*4F,1746263573000
NMEA,$PSAMCLK,2364,55159300,17,9745942,680471,551593000*42,1746263574000
NMEA,$GPGGA,091255.000,4503.2227,N,00741.2415,E,1,17,0.8,196.1,M,48.2,M,,*5E,1746263574000
NMEA,$PSAMSA,091255.000,4503.2227,N,00741.2415,E,0,M,,*64,1746263574000
NMEA,$GPGLL,4503.2227,N,00741.2415,E,091255.000,A,A*54,1746263574000
NMEA,$GPVTG,354.5,T,,M,0.0,N,0.0,K,A*0A,1746263574000
NMEA,$GPGSV,3,1,10,05,21,052,41,16,39,305,38,18,75,130,37,23,16,142,38*79,1746263574000
NMEA,$GPGSV,3,2,10,25,11,131,37,26,67,291,45,27,15,268,19,28,23,202,31*7B,1746263574000
NMEA,$GPGSV,3,3,10,29,38,067,41,31,38,227,26*76,1746263574000
NMEA,$GLGSV,1,1,04,71,08,344,38,73,46,161,36,74,78,286,33,83,33,037,34*6A,1746263574000
NMEA,$BDGSV,2,1,08,205,21,116,34,208,31,050,36,213,36,070,35,226,53,287,42*61,1746263574000
NMEA,$BDGSV,2,2,08,229,60,053,40,230,08,059,39,232,04,038,35,235,54,246,32*6C,1746263574000
NMEA,$GPGSA,A,3,18,26,16,31,29,28,05,25,,,,,1.4,0.8,1.0*35,1746263574000
NMEA,$GNGSA,A,3,73,74,83,,,,,,,,,,1.4,0.8,1.0*2C,1746263574000
NMEA,$BDGSA,A,3,208,213,226,229,230,235,,,,,,,1.4,0.8,1.0*2F,1746263574000
NMEA,$GPRMC,091255.000,A,4503.2227,N,00741.2415,E,0.0,354.5,030525,,,A*65,1746263574000
NMEA,$PSAMCLK,2364,55159300,17,9745942,680471,551593000*42,1746263574000
NMEA,$PSAMCLK,2364,55159400,17,9745968,742334,551594000*43,1746263575000
NMEA,$GPGGA,091256.000,4503.2227,N,00741.2415,E,1,17,0.8,196.1,M,48.2,M,,*5D,1746263575000
NMEA,$PSAMSA,091256.000,4503.2227,N,00741.2415,E,1,M,,*66,1746263575000
NMEA,$GPGLL,4503.2227,N,00741.2415,E,091256.000,A,A*57,1746263575000
NMEA,$GPVTG,354.5,T,,M,0.0,N,0.0,K,A*0A,1746263575000
NMEA,$GPGSV,3,1,10,05,21,052,41,16,39,305,38,18,75,130,37,23,16,142,37*76,1746263575000
NMEA,$GPGSV,3,2,10,25,11,131,36,26,67,291,45,27,15,268,19,28,23,202,31*7A,1746263575000
NMEA,$GPGSV,3,3,10,29,38,067,40,31,38,227,26*77,1746263575000
NMEA,$GLGSV,1,1,04,71,08,344,37,73,46,161,35,74,78,286,33,83,33,037,33*61,1746263575000
NMEA,$BDGSV,2,1,08,205,21,116,32,208,31,050,35,213,36,070,34,226,53,287,41*66,1746263575000
NMEA,$BDGSV,2,2,08,229,60,053,39,230,08,059,38,232,04,038,34,235,54,246,32*62,1746263575000
NMEA,$GPGSA,A,3,18,26,16,31,29,28,05,25,,,,,1.4,0.8,1.0*35,1746263575000
NMEA,$GNGSA,A,3,73,74,83,,,,,,,,,,1.4,0.8,1.0*2C,1746263575000
NMEA,$BDGSA,A,3,208,213,226,229,230,235,,,,,,,1.4,0.8,1.0*2F,1746263575000
NMEA,$GPRMC,091256.000,A,4503.2227,N,00741.2415,E,0.0,354.5,030525,,,A*66,1746263575000
NMEA,$PSAMCLK,2364,55159400,17,9745968,742334,551594000*43,1746263575000
NMEA,$PSAMCLK,2364,55159500,16,9746019,804197,551595000*48,1746263576000
NMEA,$GPGGA,091257.000,4503.2227,N,00741.2415,E,1,16,0.8,196.1,M,48.2,M,,*5D,1746263576000
NMEA,$PSAMSA,091257.000,4503.2227,N,00741.2415,E,1,M,,*67,1746263576000
NMEA,$GPGLL,4503.2227,N,00741.2415,E,091257.000,A,A*56,1746263576000
NMEA,$GPVTG,354.5,T,,M,0.0,N,0.0,K,A*0A,1746263576000
NMEA,$GPGSV,3,1,10,05,21,052,40,16,39,305,37,18,75,130,36,23,16,142,36*78,1746263576000
NMEA,$GPGSV,3,2,10,25,11,131,36,26,67,291,44,27,15,268,19,28,23,202,30*7A,1746263576000
NMEA,$GPGSV,3,3,10,29,38,067,39,31,38,227,26*79,1746263576000
NMEA,$GLGSV,1,1,04,71,08,344,35,73,46,161,34,74,78,286,33,83,33,037,32*63,1746263576000
NMEA,$BDGSV,2,1,08,205,21,116,31,208,31,050,35,213,36,070,33,226,53,287,41*62,1746263576000
NMEA,$BDGSV,2,2,08,229,60,053,38,230,08,059,37,232,04,038,33,235,54,246,32*6B,1746263576000
NMEA,$GPGSA,A,3,18,26,16,29,28,05,25,,,,,,1.4,0.8,1.2*35,1746263576000
NMEA,$GNGSA,A,3,73,74,83,,,,,,,,,,1.4,0.8,1.2*2E,1746263576000
NMEA,$BDGSA,A,3,208,213,226,229,230,235,,,,,,,1.4,0.8,1.2*2D,1746263576000
NMEA,$GPRMC,091257.000,A,4503.2227,N,00741.2415,E,0.0,354.5,030525,,,A*67,1746263576000
NMEA,$PSAMCLK,2364,55159500,16,9746019,804197,551595000*48,1746263576000
NMEA,$PSAMCLK,2364,55159600,16,9746041,866060,551596000*48,1746263577000
NMEA,$GPGGA,091258.000,4503.2227,N,00741.2415,E,1,16,0.8,196.1,M,48.2,M,,*52,1746263577000
NMEA,$PSAMSA,091258.000,4503.2227,N,00741.2415,E,1,M,,*68,1746263577000
NMEA,$GPGLL,4503.2227,N,00741.2415,E,091258.000,A,A*59,1746263577000
NMEA,$GPVTG,354.5,T,,M,0.0,N,0.0,K,A*0A,1746263577000
NMEA,$GPGSV,3,1,10,05,21,052,40,16,39,305,37,18,75,130,36,23,16,142,36*78,1746263577000
NMEA,$GPGSV,3,2,10,25,11,131,35,26,67,291,44,27,15,268,19,28,23,202,30*79,1746263577000
NMEA,$GPGSV,3,3,10,29,38,067,39,31,38,227,26*79,1746263577000
NMEA,$GLGSV,1,1,04,71,08,344,34,73,46,161,33,74,78,286,32,83,33,037,31*67,1746263577000
NMEA,$BDGSV,2,1,08,205,21,116,29,208,31,050,35,213,36,070,33,226,53,287,41*6B,1746263577000
NMEA,$BDGSV,2,2,08,229,60,053,38,230,08,059,37,232,04,038,32,235,54,246,32*6A,1746263577000
NMEA,$GPGSA,A,3,18,26,16,29,28,05,25,,,,,,1.4,0.8,1.0*37,1746263577000
NMEA,$GNGSA,A,3,73,74,83,,,,,,,,,,1.4,0.8,1.0*2C,1746263577000
NMEA,$BDGSA,A,3,208,213,226,229,230,235,,,,,,,1.4,0.8,1.0*2F,1746263577000
NMEA,$GPRMC,091258.000,A,4503.2227,N,00741.2415,E,0.0,354.5,030525,,,A*68,1746263577000
NMEA,$PSAMCLK,2364,55159600,16,9746041,866060,551596000*48,1746263577000
NMEA,$PSAMCLK,2364,55159700,16,9746076,927923,551597000*46,1746263578000
NMEA,$GPGGA,091259.000,4503.2227,N,00741.2415,E,1,16,0.8,196.1,M,48.2,M,,*53,1746263578000
NMEA,$PSAMSA,091259.000,4503.2227,N,00741.2415,E,1,M,,*69,1746263578000
NMEA,$GPGLL,4503.2227,N,00741.2415,E,091259.000,A,A*58,1746263578000
NMEA,$GPVTG,354.5,T,,M,0.0,N,0.0,K,A*0A,1746263578000
NMEA,$GPGSV,3,1,10,05,21,052,39,16,39,305,36,18,75,130,36,23,16,142,35*74,1746263578000
NMEA,$GPGSV,3,2,10,25,11,131,35,26,67,291,43,27,15,268,18,28,23,202,30*7F,1746263578000
NMEA,$GPGSV,3,3,10,29,38,067,38,31,38,227,26*78,1746263578000
NMEA,$GLGSV,1,1,04,71,08,344,32,73,46,161,33,74,78,286,32,83,33,037,30*60,1746263578000
NMEA,$BDGSV,2,1,08,205,21,116,28,208,31,050,35,213,36,070,32,226,53,287,40*6A,1746263578000
NMEA,$BDGSV,2,2,08,229,60,053,37,230,08,059,36,232,04,038,31,235,54,246,31*64,1746263578000
NMEA,$GPGSA,A,3,18,26,16,29,28,05,25,,,,,,1.4,0.8,1.0*37,1746263578000
NMEA,$GNGSA,A,3,73,74,83,,,,,,,,,,1.4,0.8,1.0*2C,1746263578000
NMEA,$BDGSA,A,3,208,213,226,229,230,235,,,,,,,1.4,0.8,1.0*2F,1746263578000
NMEA,$GPRMC,091259.000,A,4503.2227,N,00741.2415,E,0.0,354.5,030525,,,A*69,1746263578000
NMEA,$PSAMCLK,2364,55159700,16,9746076,927923,551597000*46,1746263578000
NMEA,$PSAMCLK,2364,55159800,15,9746114,989786,551598000*45,1746263579000
NMEA,$GPGGA,091300.000,4503.2227,N,00741.2415,E,1,15,0.8,196.1,M,48.2,M,,*5D,1746263579000
NMEA,$PSAMSA,091300.000,4503.2227,N,00741.2415,E,1,M,,*64,1746263579000
NMEA,$GPGLL,4503.2227,N,00741.2415,E,091300.000,A,A*55,1746263579000
NMEA,$GPVTG,354.5,T,,M,0.0,N,0.0,K,A*0A,1746263579000
NMEA,$GPGSV,3,1,10,05,21,052,39,16,39,305,36,18,75,130,35,23,16,142,34*76,1746263579000
NMEA,$GPGSV,3,2,10,25,11,131,34,26,67,291,43,27,15,268,18,28,23,202,29*76,1746263579000
NMEA,$GPGSV,3,3,10,29,38,067,37,31,38,227,26*77,1746263579000
NMEA,$GLGSV,1,1,04,71,08,344,31,73,46,161,32,74,78,286,32,83,33,037,29*6A,1746263579000
NMEA,$BDGSV,2,1,08,205,21,116,26,208,31,050,34,213,36,070,32,226,53,287,40*65,1746263579000
NMEA,$BDGSV,2,2,08,229,60,053,37,230,08,059,35,232,04,038,30,235,54,246,31*66,1746263579000
NMEA,$GPGSA,A,3,18,26,16,29,05,25,,,,,,,1.6,0.8,1.2*3D,1746263579000
NMEA,$GNGSA,A,3,73,74,83,,,,,,,,,,1.6,0.8,1.2*2C,1746263579000
NMEA,$BDGSA,A,3,208,213,226,229,230,235,,,,,,,1.6,0.8,1.2*2F,1746263579000
NMEA,$GPRMC,091300.000,A,4503.2227,N,00741.2415,E,0.0,354.5,030525,,,A*64,1746263579000
NMEA,$PSAMCLK,2364,55159800,15,9746114,989786,551598000*45,1746263579000
NMEA,$PSAMCLK,2364,55159900,17,9746147,1051650,551599000*76,1746263580000
NMEA,$GPGGA,091301.000,4503.2227,N,00741.2415,E,1,17,0.8,196.1,M,48.2,M,,*5E,1746263580000
NMEA,$PSAMSA,091301.000,4503.2227,N,00741.2415,E,1,M,,*65,1746263580000
NMEA,$GPGLL,4503.2227,N,00741.2415,E,091301.000,A,A*54,1746263580000
NMEA,$GPVTG,354.5,T,,M,0.0,N,0.0,K,A*0A,1746263580000
NMEA,$GPGSV,3,1,10,05,21,052,38,16,39,305,35,18,75,130,35,23,16,142,34*74,1746263580000
NMEA,$GPGSV,3,2,10,25,11,131,34,26,67,291,43,27,15,268,18,28,23,202,29*76,1746263580000
NMEA,$GPGSV,3,3,10,29,38,067,37,31,38,227,26*77,1746263580000
NMEA,$GLGSV,1,1,04,71,08,344,30,73,46,161,31,74,78,286,32,83,33,037,29*68,1746263580000
NMEA,$BDGSV,2,1,08,205,21,116,25,208,31,050,34,213,36,070,32,226,53,287,40*66,1746263580000
NMEA,$BDGSV,2,2,08,229,60,053,37,230,08,059,35,232,04,038,30,235,54,246,31*66,1746263580000
NMEA,$GPGSA,A,3,18,26,16,31,29,28,05,25,,,,,1.4,0.8,1.0*35,1746263580000
NMEA,$GNGSA,A,3,73,74,83,,,,,,,,,,1.4,0.8,1.0*2C,1746263580000
NMEA,$BDGSA,A,3,208,213,226,229,230,235,,,,,,,1.4,0.8,1.0*2F,1746263580000
NMEA,$GPRMC,091301.000,A,4503.2227,N,00741.2415,E,0.0,354.5,030525,,,A*65,1746263580000
NMEA,$PSAMCLK,2364,55159900,17,9746147,1051650,551599000*76,1746263580000
NMEA,$PSAMCLK,2364,55160000,17,9746195,1113513,551600000*7A,1746263581000
NMEA,$GPGGA,091302.000,4503.2227,N,00741.2415,E,1,17,0.8,196.1,M,48.2,M,,*5D,1746263581000
NMEA,$PSAMSA,091302.000,4503.2227,N,00741.2415,E,1,M,,*66,1746263581000
NMEA,$GPGLL,4503.2227,N,00741.2415,E,091302.000,A,A*57,1746263581000
NMEA,$GPVTG,354.5,T,,M,0.0,N,0.0,K,A*0A,1746263581000
NMEA,$GPGSV,3,1,10,05,21,052,38,16,39,305,35,18,75,130,35,23,16,142,34*74,1746263581000
NMEA,$GPGSV,3,2,10,25,11,131,33,26,67,291,42,27,15,268,18,28,23,202,29*70,1746263581000
NMEA,$GPGSV,3,3,10,29,38,067,36,31,38,227,25*75,1746263581000
NMEA,$GLGSV,1,1,04,71,08,344,29,73,46,161,31,74,78,286,32,83,33,037,28*61,1746263581000
NMEA,$BDGSV,2,1,08,205,21,116,23,208,31,050,33,213,36,070,31,226,53,287,40*64,1746263581000
NMEA,$BDGSV,2,2,08,229,60,053,36,230,08,059,34,232,04,038,29,235,54,246,31*6E,1746263581000
NMEA,$GPGSA,A,3,18,26,16,31,29,28,05,25,,,,,1.4,0.8,1.0*35,1746263581000
NMEA,$GNGSA,A,3,73,74,83,,,,,,,,,,1.4,0.8,1.0*2C,1746263581000
NMEA,$BDGSA,A,3,208,213,226,229,230,235,,,,,,,1.4,0.8,1.0*2F,1746263581000
NMEA,$GPRMC,091302.000,A,4503.2227,N,00741.2415,E,0.0,354.5,030525,,,A*66,1746263581000
NMEA,$PSAMCLK,2364,55160000,17,9746195,1113513,551600000*7A,1746263581000
NMEA,$PSAMCLK,2364,55160100,17,9746227,1175377,551601000*74,1746263582000
NMEA,$GPGGA,091303.000,4503.2227,N,00741.2415,E,1,17,0.8,196.1,M,48.2,M,,*5C,1746263582000
NMEA,$PSAMSA,091303.000,4503.2227,N,00741.2415,E,1,M,,*67,1746263582000
NMEA,$GPGLL,4503.2227,N,00741.2415,E,091303.000,A,A*56,1746263582000
NMEA,$GPVTG,354.5,T,,M,0.0,N,0.0,K,A*0A,1746263582000
NMEA,$GPGSV,3,1,10,05,21,052,38,16,39,305,35,18,75,130,34,23,16,142,33*72,1746263582000
NMEA,$GPGSV,3,2,10,25,11,131,33,26,67,291,42,27,15,268,18,28,23,202,29*70,1746263582000
NMEA,$GPGSV,3,3,10,29,38,067,36,31,38,227,25*75,1746263582000
NMEA,$GLGSV,1,1,04,71,08,344,28,73,46,161,30,74,78,286,32,83,33,037,28*61,1746263582000
NMEA,$BDGSV,2,1,08,205,21,116,22,208,31,050,33,213,36,070,31,226,53,287,40*65,1746263582000
NMEA,$BDGSV,2,2,08,229,60,053,36,230,08,059,33,232,04,038,28,235,54,246,30*69,1746263582000
NMEA,$GPGSA,A,3,18,26,16,31,29,28,05,25,,,,,1.4,0.8,1.0*35,1746263582000
NMEA,$GNGSA,A,3,73,74,83,,,,,,,,,,1.4,0.8,1.0*2C,1746263582000
NMEA,$BDGSA,A,3,208,213,226,229,230,235,,,,,,,1.4,0.8,1.0*2F,1746263582000
NMEA,$GPRMC,091303.000,A,4503.2227,N,00741.2415,E,0.0,354.5,030525,,,A*67,1746263582000
NMEA,$PSAMCLK,2364,55160100,17,9746227,1175377,551601000*74,1746263582000
NMEA,$PSAMCLK,2364,55160200,17,9746283,1237236,551602000*7B,1746263583000
NMEA,$GPGGA,091304.000,4503.2227,N,00741.2415,E,1,17,0.8,196.1,M,48.2,M,,*5B,1746263583000
NMEA,$PSAMSA,091304.000,4503.2227,N,00741.2415,E,0,M,,*61,1746263583000
NMEA,$GPGLL,4503.2227,N,00741.2415,E,091304.000,A,A*51,1746263583000
NMEA,$GPVTG,354.5,T,,M,0.0,N,0.0,K,A*0A,1746263583000
NMEA,$GPGSV,3,1,10,05,21,052,37,16,39,305,34,18,75,130,34,23,16,142,33*7C,1746263583000
NMEA,$GPGSV,3,2,10,25,11,131,33,26,67,291,42,27,15,268,18,28,23,202,29*70,1746263583000
NMEA,$GPGSV,3,3,10,29,38,067,36,31,38,227,25*75,1746263583000
NMEA,$GLGSV,1,1,04,71,08,344,27,73,46,161,30,74,78,286,32,83,33,037,27*61,1746263583000
NMEA,$BDGSV,2,1,08,205,21,116,20,208,31,050,33,213,36,070,30,226,53,287,40*66,1746263583000
NMEA,$BDGSV,2,2,08,229,60,053,36,230,08,059,33,232,04,038,28,235,54,246,30*69,1746263583000
NMEA,$GPGSA,A,3,18,26,16,31,29,28,05,25,,,,,1.4,0.8,1.0*35,1746263583000
NMEA,$GNGSA,A,3,73,74,83,,,,,,,,,,1.4,0.8,1.0*2C,1746263583000
NMEA,$BDGSA,A,3,208,213,226,229,230,235,,,,,,,1.4,0.8,1.0*2F,1746263583000
NMEA,$GPRMC,091304.000,A,4503.2227,N,00741.2415,E,0.0,354.5,030525,,,A*60,1746263583000
NMEA,$PSAMCLK,2364,55160200,17,9746283,1237236,551602000*7B,1746263583000
NMEA,$PSAMCLK,2364,55160300,14,9746483,1299103,551603000*7F,1746263584000
NMEA,$GPGGA,091305.000,4503.2227,N,00741.2415,E,1,14,0.8,196.1,M,48.2,M,,*59,1746263584000
NMEA,$PSAMSA,091305.000,4503.2227,N,00741.2415,E,0,M,,*60,1746263584000
NMEA,$GPGLL,4503.2227,N,00741.2415,E,091305.000,A,A*50,1746263584000
NMEA,$GPVTG,354.5,T,,M,0.0,N,0.0,K,A*0A,1746263584000
NMEA,$GPGSV,3,1,10,05,21,052,37,16,39,305,34,18,75,130,34,23,16,142,33*7C,1746263584000
NMEA,$GPGSV,3,2,10,25,11,131,33,26,67,291,42,27,15,268,18,28,23,202,29*70,1746263584000
NMEA,$GPGSV,3,3,10,29,38,067,35,31,38,227,25*76,1746263584000
NMEA,$GLGSV,1,1,04,71,08,344,27,73,46,161,29,74,78,286,32,83,33,037,27*69,1746263584000
NMEA,$BDGSV,2,1,08,205,21,116,19,208,31,050,33,213,36,070,30,226,53,287,40*6C,1746263584000
NMEA,$BDGSV,2,2,08,229,60,053,36,230,08,059,32,232,04,038,27,235,54,246,30*67,1746263584000
NMEA,$GPGSA,A,3,18,26,16,31,29,28,05,25,,,,,1.4,0.8,1.2*37,1746263584000
NMEA,$GNGSA,A,3,74,,,,,,,,,,,,1.4,0.8,1.2*21,1746263584000
NMEA,$BDGSA,A,3,208,226,229,230,235,,,,,,,,1.4,0.8,1.2*1D,1746263584000
NMEA,$GPRMC,091305.000,A,4503.2227,N,00741.2415,E,0.0,354.5,030525,,,A*61,1746263584000
NMEA,$PSAMCLK,2364,55160300,14,9746483,1299103,551603000*7F,1746263584000
NMEA,$PSAMCLK,2364,55160400,15,9746522,1360969,551604000*77,1746263585000
NMEA,$GPGGA,091306.000,4503.2227,N,00741.2415,E,1,15,1.0,196.1,M,48.2,M,,*52,1746263585000
NMEA,$PSAMSA,091306.000,4503.2227,N,00741.2415,E,1,M,,*62,1746263585000
NMEA,$GPGLL,4503.2227,N,00741.2415,E,091306.000,A,A*53,1746263585000
NMEA,$GPVTG,354.5,T,,M,0.0,N,0.0,K,A*0A,1746263585000
NMEA,$GPGSV,3,1,10,05,21,052,37,16,39,305,33,18,75,130,34,23,16,142,33*7B,1746263585000
NMEA,$GPGSV,3,2,10,25,11,131,32,26,67,291,42,27,15,268,18,28,23,202,29*71,1746263585000
NMEA,$GPGSV,3,3,10,29,38,067,35,31,38,227,25*76,1746263585000
NMEA,$GLGSV,1,1,04,71,08,344,26,73,46,161,29,74,78,286,32,83,33,037,26*69,1746263585000
NMEA,$BDGSV,2,1,08,205,21,116,17,208,31,050,33,213,36,070,30,226,53,287,39*6C,1746263585000
NMEA,$BDGSV,2,2,08,229,60,053,35,230,08,059,32,232,04,038,26,235,54,246,30*65,1746263585000
NMEA,$GPGSA,A,3,18,26,16,31,29,28,05,,,,,,1.6,1.0,1.2*3B,1746263585000
NMEA,$GNGSA,A,3,74,83,,,,,,,,,,,1.6,1.0,1.2*21,1746263585000
NMEA,$BDGSA,A,3,208,213,226,229,230,235,,,,,,,1.6,1.0,1.2*26,1746263585000
NMEA,$GPRMC,091306.000,A,4503.2227,N,00741.2415,E,0.0,354.5,030525,,,A*62,1746263585000
NMEA,$PSAMCLK,2364,55160400,15,9746522,1360969,551604000*77,1746263585000
NMEA,$PSAMCLK,2364,55160500,17,9746556,1422835,551605000*7F,1746263586000
NMEA,$GPGGA,091307.000,4503.2227,N,00741.2415,E,1,17,0.8,196.1,M,48.2,M,,*58,1746263586000
NMEA,$PSAMSA,091307.000,4503.2227,N,00741.2415,E,1,M,,*63,1746263586000
NMEA,$GPGLL,4503.2227,N,00741.2415,E,091307.000,A,A*52,1746263586000
NMEA,$GPVTG,354.5,T,,M,0.0,N,0.0,K,A*0A,1746263586000
NMEA,$GPGSV,3,1,10,05,21,052,36,16,39,305,32,18,75,130,34,23,16,142,33*7B,1746263586000
NMEA,$GPGSV,3,2,10,25,11,131,32,26,67,291,41,27,15,268,18,28,23,202,29*72,1746263586000
NMEA,$GPGSV,3,3,10,29,38,067,34,31,38,227,25*77,1746263586000
NMEA,$GLGSV,1,1,04,71,08,344,26,73,46,161,28,74,78,286,32,83,33,037,26*68,1746263586000
NMEA,$BDGSV,2,1,08,205,21,116,16,208,31,050,33,213,36,070,29,226,53,287,39*65,1746263586000
NMEA,$BDGSV,2,2,08,229,60,053,35,230,08,059,31,232,04,038,26,235,54,246,29*6E,1746263586000
NMEA,$GPGSA,A,3,18,26,16,31,29,28,05,25,,,,,1.4,0.8,1.0*35,1746263586000
NMEA,$GNGSA,A,3,73,74,83,,,,,,,,,,1.4,0.8,1.0*2C,1746263586000
NMEA,$BDGSA,A,3,208,213,226,229,230,235,,,,,,,1.4,0.8,1.0*2F,1746263586000
NMEA,$GPRMC,091307.000,A,4503.2227,N,00741.2415,E,0.0,354.5,030525,,,A*63,1746263586000
NMEA,$PSAMCLK,2364,55160500,17,9746556,1422835,551605000*7F,1746263586000
NMEA,$PSAMCLK,2364,55160600,16,9746568,1484702,551606000*74,1746263587000
NMEA,$GPGGA,091308.000,4503.2227,N,00741.2415,E,1,16,0.8,196.1,M,48.2,M,,*56,1746263587000
NMEA,$PSAMSA,091308.000,4503.2227,N,00741.2415,E,1,M,,*6C,1746263587000
NMEA,$GPGLL,4503.2227,N,00741.2415,E,091308.000,A,A*5D,1746263587000
NMEA,$GPVTG,354.5,T,,M,0.0,N,0.0,K,A*0A,1746263587000
NMEA,$GPGSV,3,1,10,05,21,052,36,16,39,305,32,18,75,130,33,23,16,142,33*7C,1746263587000
NMEA,$GPGSV,3,2,10,25,11,131,32,26,67,291,41,27,15,268,18,28,23,202,29*72,1746263587000
NMEA,$GPGSV,3,3,10,29,38,067,33,31,38,227,25*70,1746263587000
NMEA,$GLGSV,1,1,04,71,08,344,27,73,46,161,28,74,78,286,32,83,33,037,26*69,1746263587000
NMEA,$BDGSV,2,1,08,205,21,116,14,208,31,050,32,213,36,070,29,226,53,287,39*66,1746263587000
NMEA,$BDGSV,2,2,08,229,60,053,35,230,08,059,31,232,04,038,25,235,54,246,29*6D,1746263587000
NMEA,$GPGSA,A,3,18,26,16,31,29,28,05,25,,,,,1.4,0.8,1.2*37,1746263587000
NMEA,$GNGSA,A,3,73,74,83,,,,,,,,,,1.4,0.8,1.2*2E,1746263587000
NMEA,$BDGSA,A,3,208,213,226,229,235,,,,,,,,1.4,0.8,1.2*1C,1746263587000
NMEA,$GPRMC,091308.000,A,4503.2227,N,00741.2415,E,0.0,354.5,030525,,,A*6C,1746263587000
NMEA,$PSAMCLK,2364,55160600,16,9746568,1484702,551606000*74,1746263587000
NMEA,$PSAMCLK,2364,55160700,14,9746596,1546569,551607000*77,1746263588000
NMEA,$GPGGA,091309.000,4503.2227,N,00741.2415,E,1,14,0.8,196.1,M,48.2,M,,*55,1746263588000
NMEA,$PSAMSA,091309.000,4503.2227,N,00741.2415,E,1,M,,*6D,1746263588000
NMEA,$GPGLL,4503.2227,N,00741.2415,E,091309.000,A,A*5C,1746263588000
NMEA,$GPVTG,354.5,T,,M,0.0,N,0.0,K,A*0A,1746263588000
NMEA,$GPGSV,3,1,10,05,21,052,36,16,39,305,31,18,75,130,33,23,16,142,32*7E,1746263588000
NMEA,$GPGSV,3,2,10,25,11,131,32,26,67,291,41,27,15,268,16,28,23,202,29*7C,1746263588000
NMEA,$GPGSV,3,3,10,29,38,067,32,31,38,227,25*71,1746263588000
NMEA,$GLGSV,1,1,04,71,08,344,27,73,46,161,28,74,78,286,32,83,33,037,25*6A,1746263588000
NMEA,$BDGSV,2,1,08,205,21,116,14,208,31,050,32,213,36,070,28,226,53,287,39*67,1746263588000
NMEA,$BDGSV,2,2,08,229,60,053,35,230,08,059,30,232,04,038,25,235,54,246,29*6C,1746263588000
NMEA,$GPGSA,A,3,18,26,16,31,28,05,,,,,,,1.4,0.8,1.2*3B,1746263588000
NMEA,$GNGSA,A,3,73,74,,,,,,,,,,,1.4,0.8,1.2*25,1746263588000
NMEA,$BDGSA,A,3,208,213,226,229,230,235,,,,,,,1.4,0.8,1.2*2D,1746263588000
NMEA,$GPRMC,091309.000,A,4503.2227,N,00741.2415,E,0.0,354.5,030525,,,A*6D,1746263588000
NMEA,$PSAMCLK,2364,55160700,14,9746596,1546569,551607000*77,1746263588000
NMEA,$PSAMCLK,2364,55160800,17,9746640,1608436,551608000*7E,1746263589000
NMEA,$GPGGA,091310.000,4503.2227,N,00741.2415,E,1,17,0.8,196.1,M,48.2,M,,*5E,1746263589000
NMEA,$PSAMSA,091310.000,4503.2227,N,00741.2415,E,1,M,,*65,1746263589000
NMEA,$GPGLL,4503.2227,N,00741.2415,E,091310.000,A,A*54,1746263589000
NMEA,$GPVTG,354.5,T,,M,0.0,N,0.0,K,A*0A,1746263589000
NMEA,$GPGSV,3,1,10,05,21,052,36,16,39,305,31,18,75,130,33,23,16,142,32*7E,1746263589000
NMEA,$GPGSV,3,2,10,25,11,131,31,26,67,291,41,27,15,268,15,28,23,202,29*7C,1746263589000
NMEA,$GPGSV,3,3,10,29,38,067,31,31,38,227,25*72,1746263589000
NMEA,$GLGSV,1,1,04,71,08,344,27,73,46,161,27,74,78,286,32,83,33,037,25*65,1746263589000
NMEA,$BDGSV,2,1,08,205,21,116,13,208,31,050,32,213,36,070,28,226,53,287,39*60,1746263589000
NMEA,$BDGSV,2,2,08,229,60,053,35,230,08,059,30,232,04,038,24,235,54,246,29*6D,1746263589000
NMEA,$GPGSA,A,3,18,26,16,31,29,28,05,25,,,,,1.4,0.8,1.0*35,1746263589000
NMEA,$GNGSA,A,3,73,74,83,,,,,,,,,,1.4,0.8,1.0*2C,1746263589000
NMEA,$BDGSA,A,3,208,213,226,229,230,235,,,,,,,1.4,0.8,1.0*2F,1746263589000
NMEA,$GPRMC,091310.000,A,4503.2227,N,00741.2415,E,0.0,354.5,030525,,,A*65,1746263589000
NMEA,$PSAMCLK,2364,55160800,17,9746640,1608436,551608000*7E,1746263589000
NMEA,$PSAMCLK,2364,55160900,17,9746681,1670304,551609000*7A,1746263590000
NMEA,$GPGGA,091311.000,4503.2227,N,00741.2415,E,1,17,0.8,196.1,M,48.2,M,,*5F,1746263590000
NMEA,$PSAMSA,091311.000,4503.2227,N,00741.2415,E,1,M,,*64,1746263590000
NMEA,$GPGLL,4503.2227,N,00741.2415,E,091311.000,A,A*55,1746263590000
NMEA,$GPVTG,354.5,T,,M,0.0,N,0.0,K,A*0A,1746263590000
NMEA,$GPGSV,3,1,10,05,21,052,35,16,39,305,31,18,75,130,33,23,16,142,32*7D,1746263590000
NMEA,$GPGSV,3,2,10,25,11,131,31,26,67,291,41,27,15,268,14,28,23,202,29*7D,1746263590000
NMEA,$GPGSV,3,3,10,29,38,067,31,31,38,227,25*72,1746263590000
NMEA,$GLGSV,1,1,04,71,08,344,27,73,46,161,27,74,78,286,32,83,33,037,25*65,1746263590000
NMEA,$BDGSV,2,1,08,205,21,116,12,208,31,050,32,213,36,070,28,226,53,287,39*61,1746263590000
NMEA,$BDGSV,2,2,08,229,60,053,35,230,08,059,29,232,04,038,24,235,54,246,29*65,1746263590000
NMEA,$GPGSA,A,3,18,26,16,31,29,28,05,25,,,,,1.4,0.8,1.0*35,1746263590000
NMEA,$GNGSA,A,3,73,74,83,,,,,,,,,,1.4,0.8,1.0*2C,1746263590000
NMEA,$BDGSA,A,3,208,213,226,229,230,235,,,,,,,1.4,0.8,1.0*2F,1746263590000
NMEA,$GPRMC,091311.000,A,4503.2227,N,00741.2415,E,0.0,354.5,030525,,,A*64,1746263590000
NMEA,$PSAMCLK,2364,55160900,17,9746681,1670304,551609000*7A,1746263590000
NMEA,$PSAMCLK,2364,55161000,16,9746717,1732172,551610000*71,1746263591000
NMEA,$GPGGA,091312.000,4503.2227,N,00741.2415,E,1,16,0.8,196.1,M,48.2,M,,*5D,1746263591000
NMEA,$PSAMSA,091312.000,4503.2227,N,00741.2415,E,1,M,,*67,1746263591000
NMEA,$GPGLL,4503.2227,N,00741.2415,E,091312.000,A,A*56,1746263591000
NMEA,$GPVTG,354.5,T,,M,0.0,N,0.0,K,A*0A,1746263591000
NMEA,$GPGSV,3,1,10,05,21,052,35,16,39,305,30,18,75,130,33,23,16,142,32*7C,1746263591000
NMEA,$GPGSV,3,2,10,25,11,131,31,26,67,291,40,27,15,268,13,28,23,202,29*7B,1746263591000
NMEA,$GPGSV,3,3,10,29,38,067,30,31,38,227,25*73,1746263591000
NMEA,$GLGSV,1,1,04,71,08,344,27,73,46,161,27,74,78,286,32,83,33,037,25*65,1746263591000
NMEA,$BDGSV,2,1,07,208,31,050,32,213,36,070,28,226,53,287,39,229,60,053,35*60,1746263591000
NMEA,$BDGSV,2,2,07,230,08,059,29,232,04,038,23,235,54,246,29*62,1746263591000
NMEA,$GPGSA,A,3,18,26,16,31,29,28,05,25,,,,,1.4,0.8,1.2*37,1746263591000
NMEA,$GNGSA,A,3,74,83,,,,,,,,,,,1.4,0.8,1.2*2A,1746263591000
NMEA,$BDGSA,A,3,208,213,226,229,230,235,,,,,,,1.4,0.8,1.2*2D,1746263591000
NMEA,$GPRMC,091312.000,A,4503.2227,N,00741.2415,E,0.0,354.5,030525,,,A*67,1746263591000
NMEA,$PSAMCLK,2364,55161000,16,9746717,1732172,551610000*71,1746263591000
NMEA,$PSAMCLK,2364,55161100,14,9746770,1794040,551611000*7E,1746263592000
NMEA,$GPGGA,091313.000,4503.2227,N,00741.2415,E,1,14,0.8,196.1,M,48.2,M,,*5E,1746263592000
NMEA,$PSAMSA,091313.000,4503.2227,N,00741.2415,E,1,M,,*66,1746263592000
NMEA,$GPGLL,4503.2227,N,00741.2415,E,091313.000,A,A*57,1746263592000
NMEA,$GPVTG,354.5,T,,M,0.0,N,0.0,K,A*0A,1746263592000
NMEA,$GPGSV,3,1,10,05,21,052,35,16,39,305,30,18,75,130,33,23,16,142,32*7C,1746263592000
NMEA,$GPGSV,3,2,10,25,11,131,31,26,67,291,40,27,15,268,13,28,23,202,29*7B,1746263592000
NMEA,$GPGSV,3,3,10,29,38,067,30,31,38,227,25*73,1746263592000
NMEA,$GLGSV,1,1,04,71,08,344,27,73,46,161,27,74,78,286,32,83,33,037,25*65,1746263592000
NMEA,$BDGSV,2,1,07,208,31,050,32,213,36,070,27,226,53,287,38,229,60,053,34*6F,1746263592000
NMEA,$BDGSV,2,2,07,230,08,059,29,232,04,038,23,235,54,246,28*63,1746263592000
NMEA,$GPGSA,A,3,18,26,16,31,29,05,25,,,,,,1.6,0.8,1.4*39,1746263592000
NMEA,$GNGSA,A,3,74,83,,,,,,,,,,,1.6,0.8,1.4*2E,1746263592000
NMEA,$BDGSA,A,3,208,213,226,229,235,,,,,,,,1.6,0.8,1.4*18,1746263592000
NMEA,$GPRMC,091313.000,A,4503.2227,N,00741.2415,E,0.0,354.5,030525,,,A*66,1746263592000
NMEA,$PSAMCLK,2364,55161100,14,9746770,1794040,551611000*7E,1746263592000
NMEA,$PSAMCLK,2364,55161200,15,9746815,1855908,551612000*74,1746263593000
NMEA,$GPGGA,091314.000,4503.2227,N,00741.2415,E,1,15,0.8,196.1,M,48.2,M,,*58,1746263593000
NMEA,$PSAMSA,091314.000,4503.2227,N,00741.2415,E,1,M,,*61,1746263593000
NMEA,$GPGLL,4503.2227,N,00741.2415,E,091314.000,A,A*50,1746263593000
NMEA,$GPVTG,354.5,T,,M,0.0,N,0.0,K,A*0A,1746263593000
NMEA,$GPGSV,3,1,10,05,20,052,35,16,39,305,32,18,75,130,33,23,16,142,32*7F,1746263593000
NMEA,$GPGSV,3,2,10,25,11,131,31,26,67,291,40,27,15,268,12,28,23,202,29*7A,1746263593000
NMEA,$GPGSV,3,3,10,29,38,067,33,31,38,227,23*76,1746263593000
NMEA,$GLGSV,1,1,04,71,08,344,26,73,46,161,26,74,78,286,32,83,33,037,25*65,1746263593000
NMEA,$BDGSV,2,1,07,208,31,050,32,213,36,069,27,226,53,287,38,229,60,053,34*67,1746263593000
NMEA,$BDGSV,2,2,07,230,08,059,28,232,04,038,23,235,54,246,28*62,1746263593000
NMEA,$GPGSA,A,3,18,26,16,29,28,05,25,,,,,,1.4,0.8,1.2*35,1746263593000
NMEA,$GNGSA,A,3,73,74,,,,,,,,,,,1.4,0.8,1.2*25,1746263593000
NMEA,$BDGSA,A,3,208,213,226,229,230,235,,,,,,,1.4,0.8,1.2*2D,1746263593000
NMEA,$GPRMC,091314.000,A,4503.2227,N,00741.2415,E,0.0,354.5,030525,,,A*61,1746263593000
NMEA,$PSAMCLK,2364,55161200,15,9746815,1855908,551612000*74,1746263593000
NMEA,$PSAMCLK,2364,55161300,16,9746840,1917776,551613000*77,1746263594000
NMEA,$GPGGA,091315.000,4503.2227,N,00741.2415,E,1,16,0.8,196.1,M,48.2,M,,*5A,1746263594000
NMEA,$PSAMSA,091315.000,4503.2227,N,00741.2415,E,1,M,,*60,1746263594000
NMEA,$GPGLL,4503.2227,N,00741.2415,E,091315.000,A,A*51,1746263594000
NMEA,$GPVTG,354.5,T,,M,0.0,N,0.0,K,A*0A,1746263594000
NMEA,$GPGSV,3,1,09,05,20,052,35,16,39,305,32,18,75,130,32,23,16,142,32*76,1746263594000
NMEA,$GPGSV,3,2,09,25,11,131,31,26,67,291,40,28,23,202,29,29,38,067,33*7D,1746263594000
NMEA,$GPGSV,3,3,09,31,38,227,22*4E,1746263594000
NMEA,$GLGSV,1,1,04,71,08,344,26,73,46,161,26,74,78,286,32,83,33,037,25*65,1746263594000
NMEA,$BDGSV,2,1,07,208,31,050,32,213,36,069,27,226,53,287,38,229,59,053,34*6D,1746263594000
NMEA,$BDGSV,2,2,07,230,08,059,28,232,04,038,22,235,54,246,28*63,1746263594000
NMEA,$GPGSA,A,3,18,26,16,29,28,05,25,,,,,,1.4,0.8,1.0*37,1746263594000
NMEA,$GNGSA,A,3,73,74,83,,,,,,,,,,1.4,0.8,1.0*2C,1746263594000
NMEA,$BDGSA,A,3,208,213,226,229,230,235,,,,,,,1.4,0.8,1.0*2F,1746263594000
NMEA,$GPRMC,091315.000,A,4503.2227,N,00741.2415,E,0.0,354.5,030525,,,A*60,1746263594000
NMEA,$PSAMCLK,2364,55161300,16,9746840,1917776,551613000*77,1746263594000
NMEA,$PSAMCLK,2364,55161400,16,9746878,1979644,551614000*74,1746263595000
NMEA,$GPGGA,091316.000,4503.2227,N,00741.2415,E,1,16,0.8,196.1,M,48.2,M,,*59,1746263595000
NMEA,$PSAMSA,091316.000,4503.2227,N,00741.2415,E,1,M,,*63,1746263595000
NMEA,$GPGLL,4503.2227,N,00741.2415,E,091316.000,A,A*52,1746263595000
NMEA,$GPVTG,354.5,T,,M,0.0,N,0.0,K,A*0A,1746263595000
NMEA,$GPGSV,3,1,09,05,20,052,35,16,39,305,33,18,75,130,32,23,16,142,32*77,1746263595000
NMEA,$GPGSV,3,2,09,25,11,131,30,26,67,291,40,28,23,202,29,29,38,067,33*7C,1746263595000
NMEA,$GPGSV,3,3,09,31,38,227,20*4C,1746263595000
NMEA,$GLGSV,1,1,04,71,08,344,26,73,46,161,26,74,78,284,32,83,32,037,25*66,1746263595000
NMEA,$BDGSV,2,1,07,208,31,050,32,213,36,069,27,226,53,287,38,229,59,053,34*6D,1746263595000
NMEA,$BDGSV,2,2,07,230,07,059,28,232,04,038,22,235,55,246,28*6D,1746263595000
NMEA,$GPGSA,A,3,18,26,16,29,28,05,25,,,,,,1.4,0.8,1.0*37,1746263595000
NMEA,$GNGSA,A,3,73,74,83,,,,,,,,,,1.4,0.8,1.0*2C,1746263595000
NMEA,$BDGSA,A,3,208,213,226,229,230,235,,,,,,,1.4,0.8,1.0*2F,1746263595000
NMEA,$GPRMC,091316.000,A,4503.2227,N,00741.2415,E,0.0,354.5,030525,,,A*63,1746263595000
NMEA,$PSAMCLK,2364,55161400,16,9746878,1979644,551614000*74,1746263595000
NMEA,$PSAMCLK,2364,55161500,16,9746933,2041513,551615000*7A,1746263596000
NMEA,$GPGGA,091317.000,4503.2227,N,00741.2415,E,1,16,0.8,196.1,M,48.2,M,,*58,1746263596000
NMEA,$PSAMSA,091317.000,4503.2227,N,00741.2415,E,1,M,,*62,1746263596000
NMEA,$GPGLL,4503.2227,N,00741.2415,E,091317.000,A,A*53,1746263596000
NMEA,$GPVTG,354.5,T,,M,0.0,N,0.0,K,A*0A,1746263596000
NMEA,$GPGSV,3,1,09,05,20,052,35,16,39,305,33,18,75,130,32,23,16,142,32*77,1746263596000
NMEA,$GPGSV,3,2,09,25,11,131,30,26,67,291,40,28,22,202,29,29,38,067,33*7D,1746263596000
NMEA,$GPGSV,3,3,09,31,38,227,19*46,1746263596000
NMEA,$GLGSV,1,1,04,71,08,344,26,73,46,161,26,74,78,284,32,83,32,037,25*66,1746263596000
NMEA,$BDGSV,2,1,07,208,31,050,32,213,36,069,26,226,53,287,38,229,59,053,34*6C,1746263596000
NMEA,$BDGSV,2,2,07,230,07,059,27,232,04,038,21,235,55,246,28*61,1746263596000
NMEA,$GPGSA,A,3,18,26,16,29,28,05,25,,,,,,1.4,0.8,1.0*37,1746263596000
NMEA,$GNGSA,A,3,73,74,83,,,,,,,,,,1.4,0.8,1.0*2C,1746263596000
NMEA,$BDGSA,A,3,208,213,226,229,230,235,,,,,,,1.4,0.8,1.0*2F,1746263596000
NMEA,$GPRMC,091317.000,A,4503.2227,N,00741.2415,E,0.0,354.5,030525,,,A*62,1746263596000
NMEA,$PSAMCLK,2364,55161500,16,9746933,2041513,551615000*7A,1746263596000
NMEA,$PSAMCLK,2364,55161600,14,9746959,2103382,551616000*7D,1746263597000
NMEA,$GPGGA,091318.000,4503.2227,N,00741.2415,E,1,14,0.8,196.1,M,48.2,M,,*55,1746263597000
NMEA,$PSAMSA,091318.000,4503.2227,N,00741.2415,E,1,M,,*6D,1746263597000
NMEA,$GPGLL,4503.2227,N,00741.2415,E,091318.000,A,A*5C,1746263597000
NMEA,$GPVTG,354.5,T,,M,0.0,N,0.0,K,A*0A,1746263597000
NMEA,$GPGSV,3,1,09,05,20,052,34,16,39,305,33,18,75,130,32,23,16,142,32*76,1746263597000
NMEA,$GPGSV,3,2,09,25,11,131,30,26,67,291,40,28,22,202,29,29,38,067,33*7D,1746263597000
NMEA,$GPGSV,3,3,09,31,38,226,17*49,1746263597000
NMEA,$GLGSV,1,1,04,71,08,344,26,73,46,161,25,74,78,284,32,83,32,037,25*65,1746263597000
NMEA,$BDGSV,2,1,07,208,31,050,32,213,36,069,26,226,53,287,38,229,59,053,34*6C,1746263597000
NMEA,$BDGSV,2,2,07,230,07,059,27,232,04,038,20,235,55,246,28*60,1746263597000
NMEA,$GPGSA,A,3,18,26,16,29,28,05,25,,,,,,1.6,0.8,1.2*37,1746263597000
NMEA,$GNGSA,A,3,73,74,,,,,,,,,,,1.6,0.8,1.2*27,1746263597000
NMEA,$BDGSA,A,3,208,213,226,229,235,,,,,,,,1.6,0.8,1.2*1E,1746263597000
NMEA,$GPRMC,091318.000,A,4503.2227,N,00741.2415,E,0.0,354.5,030525,,,A*6D,1746263597000
NMEA,$PSAMCLK,2364,55161600,14,9746959,2103382,551616000*7D,1746263597000
NMEA,$PSAMCLK,2364,55161700,14,9746992,2165251,551617000*75,1746263598000
NMEA,$GPGGA,091319.000,4503.2227,N,00741.2415,E,1,14,1.0,196.1,M,48.2,M,,*5D,1746263598000
NMEA,$PSAMSA,091319.000,4503.2227,N,00741.2415,E,1,M,,*6C,1746263598000
NMEA,$GPGLL,4503.2227,N,00741.2415,E,091319.000,A,A*5D,1746263598000
NMEA,$GPVTG,354.5,T,,M,0.0,N,0.0,K,A*0A,1746263598000
NMEA,$GPGSV,3,1,09,05,20,052,34,16,39,305,33,18,75,130,32,23,16,142,32*76,1746263598000
NMEA,$GPGSV,3,2,09,25,11,131,30,26,67,291,39,28,22,202,29,29,38,067,32*72,1746263598000
NMEA,$GPGSV,3,3,09,31,38,226,16*48,1746263598000
NMEA,$GLGSV,1,1,04,71,08,344,26,73,46,161,25,74,78,284,32,83,32,037,25*65,1746263598000
NMEA,$BDGSV,2,1,07,208,31,050,32,213,36,069,26,226,53,287,38,229,59,053,34*6C,1746263598000
NMEA,$BDGSV,2,2,07,230,07,059,27,232,04,038,18,235,55,246,28*6B,1746263598000
NMEA,$GPGSA,A,3,18,26,16,29,05,,,,,,,,2.0,1.0,1.6*32,1746263598000
NMEA,$GNGSA,A,3,73,74,83,,,,,,,,,,2.0,1.0,1.6*24,1746263598000
NMEA,$BDGSA,A,3,208,213,226,229,230,235,,,,,,,2.0,1.0,1.6*27,1746263598000
NMEA,$GPRMC,091319.000,A,4503.2227,N,00741.2415,E,0.0,354.5,030525,,,A*6C,1746263598000
NMEA,$PSAMCLK,2364,55161700,14,9746992,2165251,551617000*75,1746263598000
NMEA,$PSAMCLK,2364,55161800,15,9747027,2227121,551618000*73,1746263599000
NMEA,$GPGGA,091320.000,4503.2227,N,00741.2415,E,1,15,0.8,196.1,M,48.2,M,,*5F,1746263599000
NMEA,$PSAMSA,091320.000,4503.2227,N,00741.2415,E,1,M,,*66,1746263599000
NMEA,$GPGLL,4503.2227,N,00741.2415,E,091320.000,A,A*57,1746263599000
NMEA,$GPVTG,354.5,T,,M,0.0,N,0.0,K,A*0A,1746263599000
NMEA,$GPGSV,3,1,09,05,20,052,34,16,39,305,32,18,75,130,31,23,16,142,32*74,1746263599000
NMEA,$GPGSV,3,2,09,25,11,131,30,26,67,291,39,28,22,202,29,29,38,067,32*72,1746263599000
NMEA,$GPGSV,3,3,09,31,38,226,14*4A,1746263599000
NMEA,$GLGSV,1,1,04,71,08,344,25,73,46,161,25,74,78,284,32,83,32,037,25*66,1746263599000
NMEA,$BDGSV,2,1,07,208,31,050,32,213,36,069,26,226,53,287,38,229,59,053,34*6C,1746263599000
NMEA,$BDGSV,2,2,07,230,07,059,27,232,04,038,17,235,55,246,28*64,1746263599000
NMEA,$GPGSA,A,3,26,16,29,28,05,25,,,,,,,1.4,0.8,1.2*3C,1746263599000
NMEA,$GNGSA,A,3,73,74,83,,,,,,,,,,1.4,0.8,1.2*2E,1746263599000
NMEA,$BDGSA,A,3,208,213,226,229,230,235,,,,,,,1.4,0.8,1.2*2D,1746263599000
NMEA,$GPRMC,091320.000,A,4503.2227,N,00741.2415,E,0.0,354.5,030525,,,A*66,1746263599000
NMEA,$PSAMCLK,2364,55161800,15,9747027,2227121,551618000*73,1746263599000
NMEA,$PSAMCLK,2364,55161900,14,9747057,2288991,551619000*73,1746263600000
NMEA,$GPGGA,091321.000,4503.2227,N,00741.2415,E,1,14,1.0,196.1,M,48.2,M,,*56,1746263600000
NMEA,$PSAMSA,091321.000,4503.2227,N,00741.2415,E,1,M,,*67,1746263600000
NMEA,$GPGLL,4503.2227,N,00741.2415,E,091321.000,A,A*56,1746263600000
NMEA,$GPVTG,354.5,T,,M,0.0,N,0.0,K,A*0A,1746263600000
NMEA,$GPGSV,3,1,09,05,20,052,34,16,39,305,32,18,75,130,30,23,16,142,32*75,1746263600000
NMEA,$GPGSV,3,2,09,25,11,131,30,26,67,291,39,28,22,202,29,29,38,067,32*72,1746263600000
NMEA,$GPGSV,3,3,09,31,38,226,14*4A,1746263600000
NMEA,$GLGSV,1,1,04,71,08,344,25,73,46,161,25,74,78,284,32,83,32,037,25*66,1746263600000
NMEA,$BDGSV,2,1,07,208,31,050,32,213,36,069,26,226,53,287,38,229,59,053,34*6C,1746263600000
NMEA,$BDGSV,2,2,07,230,07,059,27,232,04,038,15,235,55,246,28*66,1746263600000
NMEA,$GPGSA,A,3,18,26,29,28,05,,,,,,,,1.6,1.0,1.2*3E,1746263600000
NMEA,$GNGSA,A,3,73,74,83,,,,,,,,,,1.6,1.0,1.2*25,1746263600000
NMEA,$BDGSA,A,3,208,213,226,229,230,235,,,,,,,1.6,1.0,1.2*26,1746263600000
NMEA,$GPRMC,091321.000,A,4503.2227,N,00741.2415,E,0.0,354.5,030525,,,A*67,1746263600000
NMEA,$PSAMCLK,2364,55161900,14,9747057,2288991,551619000*73,1746263600000
NMEA,$PSAMCLK,2364,55162000,16,9747074,2350861,551620000*7A,1746263601000
NMEA,$GPGGA,091322.000,4503.2227,N,00741.2415,E,1,16,0.8,196.1,M,48.2,M,,*5E,1746263601000
NMEA,$PSAMSA,091322.000,4503.2227,N,00741.2415,E,1,M,,*64,1746263601000
NMEA,$GPGLL,4503.2227,N,00741.2415,E,091322.000,A,A*55,1746263601000
NMEA,$GPVTG,354.5,T,,M,0.0,N,0.0,K,A*0A,1746263601000
NMEA,$GPGSV,3,1,09,05,20,052,34,16,39,305,31,18,75,130,31,23,16,142,32*77,1746263601000
NMEA,$GPGSV,3,2,09,25,11,131,30,26,67,291,39,28,22,202,29,29,38,067,32*72,1746263601000
NMEA,$GPGSV,3,3,09,31,38,226,13*4D,1746263601000
NMEA,$GLGSV,1,1,04,71,08,344,25,73,46,161,25,74,78,284,32,83,32,037,25*66,1746263601000
NMEA,$BDGSV,2,1,07,208,31,050,32,213,36,069,26,226,53,287,38,229,59,053,33*6B,1746263601000
NMEA,$BDGSV,2,2,07,230,07,059,26,232,04,038,14,235,55,246,28*66,1746263601000
NMEA,$GPGSA,A,3,18,26,16,29,28,05,25,,,,,,1.4,0.8,1.0*37,1746263601000
NMEA,$GNGSA,A,3,73,74,83,,,,,,,,,,1.4,0.8,1.0*2C,1746263601000
NMEA,$BDGSA,A,3,208,213,226,229,230,235,,,,,,,1.4,0.8,1.0*2F,1746263601000
NMEA,$GPRMC,091322.000,A,4503.2227,N,00741.2415,E,0.0,354.5,030525,,,A*64,1746263601000
NMEA,$PSAMCLK,2364,55162000,16,9747074,2350861,551620000*7A,1746263601000
NMEA,$PSAMCLK,2364,55162100,16,9747094,2412729,551621000*76,1746263602000
NMEA,$GPGGA,091323.000,4503.2227,N,00741.2415,E,1,16,0.8,196.1,M,48.2,M,,*5F,1746263602000
NMEA,$PSAMSA,091323.000,4503.2227,N,00741.2415,E,0,M,,*64,1746263602000
NMEA,$GPGLL,4503.2227,N,00741.2415,E,091323.000,A,A*54,1746263602000
NMEA,$GPVTG,354.5,T,,M,0.0,N,0.0,K,A*0A,1746263602000
NMEA,$GPGSV,3,1,09,05,20,052,34,16,39,305,30,18,75,130,32,23,16,142,32*75,1746263602000
NMEA,$GPGSV,3,2,09,25,11,131,30,26,67,291,39,28,22,202,29,29,38,067,32*72,1746263602000
NMEA,$GPGSV,3,3,09,31,38,226,12*4C,1746263602000
NMEA,$GLGSV,1,1,04,71,08,344,25,73,46,161,25,74,78,284,32,83,32,037,26*65,1746263602000
NMEA,$BDGSV,2,1,07,208,31,050,32,213,36,069,26,226,53,287,38,229,59,053,33*6B,1746263602000
NMEA,$BDGSV,2,2,07,230,07,059,26,232,04,038,13,235,55,246,28*61,1746263602000
NMEA,$GPGSA,A,3,18,26,16,29,28,05,25,,,,,,1.4,0.8,1.0*37,1746263602000
NMEA,$GNGSA,A,3,73,74,83,,,,,,,,,,1.4,0.8,1.0*2C,1746263602000
NMEA,$BDGSA,A,3,208,213,226,229,230,235,,,,,,,1.4,0.8,1.0*2F,1746263602000
NMEA,$GPRMC,091323.000,A,4503.2227,N,00741.2415,E,0.0,354.5,030525,,,A*65,1746263602000
NMEA,$PSAMCLK,2364,55162100,16,9747094,2412729,551621000*76,1746263602000
NMEA,$PSAMCLK,2364,55162200,15,9747125,2474603,551622000*77,1746263603000
NMEA,$GPGGA,091324.000,4503.2227,N,00741.2415,E,1,15,0.8,196.1,M,48.2,M,,*5B,1746263603000
NMEA,$PSAMSA,091324.000,4503.2227,N,00741.2415,E,0,M,,*63,1746263603000
NMEA,$GPGLL,4503.2227,N,00741.2415,E,091324.000,A,A*53,1746263603000
NMEA,$GPVTG,354.5,T,,M,0.0,N,0.0,K,A*0A,1746263603000
NMEA,$GPGSV,2,1,08,05,20,052,35,16,39,305,30,18,75,130,32,23,16,142,31*77,1746263603000
NMEA,$GPGSV,2,2,08,25,11,131,30,26,67,291,38,28,22,202,29,29,38,067,32*73,1746263603000
NMEA,$GLGSV,1,1,04,71,08,344,25,73,46,161,25,74,78,284,32,83,32,037,26*65,1746263603000
NMEA,$BDGSV,2,1,07,208,31,050,32,213,36,069,26,226,53,287,37,229,59,053,33*64,1746263603000
NMEA,$BDGSV,2,2,07,230,07,059,26,232,04,038,12,235,55,246,27*6F,1746263603000
NMEA,$GPGSA,A,3,18,26,16,29,28,05,25,,,,,,1.4,0.8,1.2*35,1746263603000
NMEA,$GNGSA,A,3,73,74,83,,,,,,,,,,1.4,0.8,1.2*2E,1746263603000
NMEA,$BDGSA,A,3,208,213,226,229,235,,,,,,,,1.4,0.8,1.2*1C,1746263603000
NMEA,$GPRMC,091324.000,A,4503.2227,N,00741.2415,E,0.0,354.5,030525,,,A*62,1746263603000
NMEA,$PSAMCLK,2364,55162200,15,9747125,2474603,551622000*77,1746263603000
NMEA,$PSAMCLK,2364,55162300,14,9747149,2536474,551623000*79,1746263604000
NMEA,$GPGGA,091325.000,4503.2223,N,00741.2422,E,1,14,0.8,198.7,M,48.2,M,,*53,1746263604000
NMEA,$PSAMSA,091325.000,4503.2223,N,00741.2422,E,0,M,,*62,1746263604000
NMEA,$GPGLL,4503.2223,N,00741.2422,E,091325.000,A,A*52,1746263604000
NMEA,$GPVTG,354.5,T,,M,0.1,N,0.1,K,A*0A,1746263604000
NMEA,$GPGSV,2,1,08,05,20,052,35,16,39,305,30,18,75,130,32,23,16,142,31*77,1746263604000
NMEA,$GPGSV,2,2,08,25,11,131,30,26,67,291,38,28,22,202,29,29,38,067,32*73,1746263604000
NMEA,$GLGSV,1,1,04,71,08,344,25,73,46,161,25,74,78,284,32,83,32,037,26*65,1746263604000
NMEA,$BDGSV,2,1,06,208,31,050,32,213,36,069,26,226,53,287,37,229,59,053,33*65,1746263604000
NMEA,$BDGSV,2,2,06,230,07,059,26,235,55,246,27*61,1746263604000
NMEA,$GPGSA,A,3,18,26,16,29,28,05,,,,,,,1.6,0.8,1.4*36,1746263604000
NMEA,$GNGSA,A,3,73,74,83,,,,,,,,,,1.6,0.8,1.4*2A,1746263604000
NMEA,$BDGSA,A,3,208,213,226,229,235,,,,,,,,1.6,0.8,1.4*18,1746263604000
NMEA,$GPRMC,091325.000,A,4503.2223,N,00741.2422,E,0.1,354.5,030525,,,A*62,1746263604000
NMEA,$PSAMCLK,2364,55162300,14,9747149,2536474,551623000*79,1746263604000
NMEA,$PSAMCLK,2364,55162400,15,9747177,2598345,551624000*74,1746263605000
NMEA,$GPGGA,091326.000,4503.2222,N,00741.2422,E,1,15,0.8,198.9,M,48.2,M,,*5E,1746263605000
NMEA,$PSAMSA,091326.000,4503.2222,N,00741.2422,E,0,M,,*60,1746263605000
NMEA,$GPGLL,4503.2222,N,00741.2422,E,091326.000,A,A*50,1746263605000
NMEA,$GPVTG,354.5,T,,M,0.1,N,0.1,K,A*0A,1746263605000
NMEA,$GPGSV,2,1,08,05,20,052,35,16,39,305,30,18,75,130,32,23,16,142,31*77,1746263605000
NMEA,$GPGSV,2,2,08,25,11,131,30,26,67,291,38,28,22,202,28,29,38,067,32*72,1746263605000
NMEA,$GLGSV,1,1,04,71,08,344,25,73,46,161,25,74,78,284,32,83,32,037,26*65,1746263605000
NMEA,$BDGSV,2,1,06,208,31,050,32,213,36,069,25,226,53,287,37,229,59,053,33*66,1746263605000
NMEA,$BDGSV,2,2,06,230,07,059,26,235,55,246,27*61,1746263605000
NMEA,$GPGSA,A,3,18,26,16,29,28,05,25,,,,,,1.4,0.8,1.0*37,1746263605000
NMEA,$GNGSA,A,3,73,74,,,,,,,,,,,1.4,0.8,1.0*27,1746263605000
NMEA,$BDGSA,A,3,208,213,226,229,230,235,,,,,,,1.4,0.8,1.0*2F,1746263605000
NMEA,$GPRMC,091326.000,A,4503.2222,N,00741.2422,E,0.1,354.5,030525,,,A*60,1746263605000
NMEA,$PSAMCLK,2364,55162400,15,9747177,2598345,551624000*74,1746263605000
NMEA,$PSAMCLK,2364,55162500,16,9747196,2660217,551625000*7A,1746263606000
NMEA,$GPGGA,091327.000,4503.2223,N,00741.2423,E,1,16,0.8,199.5,M,48.2,M,,*51,1746263606000
NMEA,$PSAMSA,091327.000,4503.2223,N,00741.2423,E,0,M,,*61,1746263606000
NMEA,$GPGLL,4503.2223,N,00741.2423,E,091327.000,A,A*51,1746263606000
NMEA,$GPVTG,354.5,T,,M,0.1,N,0.1,K,A*0A,1746263606000
NMEA,$GPGSV,2,1,08,05,20,052,35,16,39,305,30,18,75,130,32,23,16,142,31*77,1746263606000
NMEA,$GPGSV,2,2,08,25,11,131,30,26,67,291,38,28,22,202,28,29,38,067,32*72,1746263606000
NMEA,$GLGSV,1,1,04,71,08,344,25,73,46,161,25,74,78,284,32,83,32,037,26*65,1746263606000
NMEA,$BDGSV,2,1,06,208,31,050,31,213,36,069,25,226,53,287,38,229,59,053,33*6A,1746263606000
NMEA,$BDGSV,2,2,06,230,07,059,26,235,55,246,27*61,1746263606000
NMEA,$GPGSA,A,3,18,26,16,29,28,05,25,,,,,,1.4,0.8,1.0*37,1746263606000
NMEA,$GNGSA,A,3,73,74,83,,,,,,,,,,1.4,0.8,1.0*2C,1746263606000
NMEA,$BDGSA,A,3,208,213,226,229,230,235,,,,,,,1.4,0.8,1.0*2F,1746263606000
NMEA,$GPRMC,091327.000,A,4503.2223,N,00741.2423,E,0.1,354.5,030525,,,A*61,1746263606000
NMEA,$PSAMCLK,2364,55162500,16,9747196,2660217,551625000*7A,1746263606000
NMEA,$PSAMCLK,2364,55162600,16,9747221,2722088,551626000*76,1746263607000
NMEA,$GPGGA,091328.000,4503.2224,N,00741.2423,E,1,16,0.8,199.5,M,48.2,M,,*59,1746263607000
NMEA,$PSAMSA,091328.000,4503.2224,N,00741.2423,E,1,M,,*68,1746263607000
NMEA,$GPGLL,4503.2224,N,00741.2423,E,091328.000,A,A*59,1746263607000
NMEA,$GPVTG,354.5,T,,M,0.0,N,0.0,K,A*0A,1746263607000
NMEA,$GPGSV,2,1,08,05,20,052,35,16,39,305,30,18,75,130,32,23,16,142,31*77,1746263607000
NMEA,$GPGSV,2,2,08,25,11,131,30,26,67,291,38,28,22,202,28,29,38,067,32*72,1746263607000
NMEA,$GLGSV,1,1,04,71,08,344,25,73,46,161,25,74,78,284,32,83,32,037,26*65,1746263607000
NMEA,$BDGSV,2,1,06,208,31,050,31,213,36,069,25,226,53,287,38,229,59,053,33*6A,1746263607000
NMEA,$BDGSV,2,2,06,230,07,059,26,235,55,246,27*61,1746263607000
NMEA,$GPGSA,A,3,18,26,16,29,28,05,25,,,,,,1.4,0.8,1.0*37,1746263607000
NMEA,$GNGSA,A,3,73,74,83,,,,,,,,,,1.4,0.8,1.0*2C,1746263607000
NMEA,$BDGSA,A,3,208,213,226,229,230,235,,,,,,,1.4,0.8,1.0*2F,1746263607000
NMEA,$GPRMC,091328.000,A,4503.2224,N,00741.2423,E,0.0,354.5,030525,,,A*68,1746263607000
NMEA,$PSAMCLK,2364,55162600,16,9747221,2722088,551626000*76,1746263607000
NMEA,$PSAMCLK,2364,55162700,15,9747252,2783959,551627000*7F,1746263608000
NMEA,$GPGGA,091329.000,4503.2224,N,00741.2423,E,1,15,0.8,199.5,M,48.2,M,,*5B,1746263608000
NMEA,$PSAMSA,091329.000,4503.2224,N,00741.2423,E,1,M,,*69,1746263608000
NMEA,$GPGLL,4503.2224,N,00741.2423,E,091329.000,A,A*58,1746263608000
NMEA,$GPVTG,354.5,T,,M,0.0,N,0.0,K,A*0A,1746263608000
NMEA,$GPGSV,2,1,08,05,20,052,35,16,39,305,30,18,75,130,32,23,16,142,31*77,1746263608000
NMEA,$GPGSV,2,2,08,25,11,131,30,26,67,291,38,28,22,202,28,29,38,067,32*72,1746263608000
NMEA,$GLGSV,1,1,04,71,08,344,25,73,46,161,24,74,78,284,32,83,32,037,26*64,1746263608000
NMEA,$BDGSV,2,1,06,208,31,050,31,213,36,069,25,226,53,287,38,229,59,053,33*6A,1746263608000
NMEA,$BDGSV,2,2,06,230,07,059,26,235,55,246,27*61,1746263608000
NMEA,$GPGSA,A,3,18,26,16,29,05,25,,,,,,,1.6,0.8,1.2*3D,1746263608000
NMEA,$GNGSA,A,3,73,74,83,,,,,,,,,,1.6,0.8,1.2*2C,1746263608000
NMEA,$BDGSA,A,3,208,213,226,229,230,235,,,,,,,1.6,0.8,1.2*2F,1746263608000
NMEA,$GPRMC,091329.000,A,4503.2224,N,00741.2423,E,0.0,354.5,030525,,,A*69,1746263608000
NMEA,$PSAMCLK,2364,55162700,15,9747252,2783959,551627000*7F,1746263608000
NMEA,$PSAMCLK,2364,55162800,14,9747296,2845830,551628000*7D,1746263609000
NMEA,$GPGGA,091330.000,4503.2224,N,00741.2423,E,1,14,0.8,199.5,M,48.2,M,,*52,1746263609000
NMEA,$PSAMSA,091330.000,4503.2224,N,00741.2423,E,1,M,,*61,1746263609000
NMEA,$GPGLL,4503.2224,N,00741.2423,E,091330.000,A,A*50,1746263609000
NMEA,$GPVTG,354.5,T,,M,0.0,N,0.0,K,A*0A,1746263609000
NMEA,$GPGSV,2,1,08,05,20,052,34,16,39,305,30,18,75,130,32,23,16,142,31*76,1746263609000
NMEA,$GPGSV,2,2,08,25,11,131,30,26,67,291,38,28,22,202,27,29,38,067,32*7D,1746263609000
NMEA,$GLGSV,1,1,04,71,08,344,25,73,46,161,24,74,78,284,32,83,32,037,26*64,1746263609000
NMEA,$BDGSV,2,1,06,208,31,050,31,213,36,069,26,226,53,287,38,229,59,053,33*69,1746263609000
NMEA,$BDGSV,2,2,06,230,07,059,26,235,55,246,27*61,1746263609000
NMEA,$GPGSA,A,3,18,26,16,29,05,25,,,,,,,1.6,0.8,1.2*3D,1746263609000
NMEA,$GNGSA,A,3,73,74,,,,,,,,,,,1.6,0.8,1.2*27,1746263609000
NMEA,$BDGSA,A,3,208,213,226,229,230,235,,,,,,,1.6,0.8,1.2*2F,1746263609000
NMEA,$GPRMC,091330.000,A,4503.2224,N,00741.2423,E,0.0,354.5,030525,,,A*61,1746263609000
NMEA,$PSAMCLK,2364,55162800,14,9747296,2845830,551628000*7D,1746263609000
NMEA,$PSAMCLK,2364,55162900,14,9747320,2907701,551629000*7B,1746263610000
NMEA,$GPGGA,091331.000,4503.2224,N,00741.2423,E,1,14,0.8,199.5,M,48.2,M,,*53,1746263610000
NMEA,$PSAMSA,091331.000,4503.2224,N,00741.2423,E,1,M,,*60,1746263610000
NMEA,$GPGLL,4503.2224,N,00741.2423,E,091331.000,A,A*51,1746263610000
NMEA,$GPVTG,354.5,T,,M,0.0,N,0.0,K,A*0A,1746263610000
NMEA,$GPGSV,2,1,08,05,20,052,34,16,39,305,30,18,75,130,32,23,16,142,31*76,1746263610000
NMEA,$GPGSV,2,2,08,25,11,131,29,26,67,291,38,28,22,202,25,29,38,067,32*77,1746263610000
NMEA,$GLGSV,1,1,04,71,08,344,25,73,46,161,24,74,78,284,32,83,32,037,26*64,1746263610000
NMEA,$BDGSV,2,1,06,208,31,050,31,213,36,069,26,226,53,287,38,229,59,053,33*69,1746263610000
NMEA,$BDGSV,2,2,06,230,07,059,26,235,55,246,27*61,1746263610000
NMEA,$GPGSA,A,3,18,26,16,29,05,25,,,,,,,1.6,0.8,1.2*3D,1746263610000
NMEA,$GNGSA,A,3,73,74,,,,,,,,,,,1.6,0.8,1.2*27,1746263610000
NMEA,$BDGSA,A,3,208,213,226,229,230,235,,,,,,,1.6,0.8,1.2*2F,1746263610000
NMEA,$GPRMC,091331.000,A,4503.2224,N,00741.2423,E,0.0,354.5,030525,,,A*60,1746263610000
NMEA,$PSAMCLK,2364,55162900,14,9747320,2907701,551629000*7B,1746263610000
NMEA,$PSAMCLK,2364,55163000,15,9747350,2969573,551630000*72,1746263611000
NMEA,$GPGGA,091332.000,4503.2224,N,00741.2423,E,1,15,0.8,199.5,M,48.2,M,,*51,1746263611000
NMEA,$PSAMSA,091332.000,4503.2224,N,00741.2423,E,1,M,,*63,1746263611000
NMEA,$GPGLL,4503.2224,N,00741.2423,E,091332.000,A,A*52,1746263611000
NMEA,$GPVTG,354.5,T,,M,0.0,N,0.0,K,A*0A,1746263611000
NMEA,$GPGSV,2,1,08,05,20,052,34,16,39,305,30,18,75,130,32,23,16,142,30*77,1746263611000
NMEA,$GPGSV,2,2,08,25,11,131,29,26,67,291,38,28,22,202,24,29,38,067,32*76,1746263611000
NMEA,$GLGSV,1,1,04,71,08,344,25,73,46,161,24,74,78,284,32,83,32,037,26*64,1746263611000
NMEA,$BDGSV,2,1,06,208,31,050,31,213,36,069,26,226,53,287,38,229,59,053,33*69,1746263611000
NMEA,$BDGSV,2,2,06,230,07,059,25,235,55,246,27*62,1746263611000
NMEA,$GPGSA,A,3,18,26,16,29,05,25,,,,,,,1.6,0.8,1.2*3D,1746263611000
NMEA,$GNGSA,A,3,73,74,83,,,,,,,,,,1.6,0.8,1.2*2C,1746263611000
NMEA,$BDGSA,A,3,208,213,226,229,230,235,,,,,,,1.6,0.8,1.2*2F,1746263611000
NMEA,$GPRMC,091332.000,A,4503.2224,N,00741.2423,E,0.0,354.5,030525,,,A*63,1746263611000
NMEA,$PSAMCLK,2364,55163000,15,9747350,2969573,551630000*72,1746263611000
NMEA,$PSAMCLK,2364,55163100,14,9747372,3031450,551631000*76,1746263612000
NMEA,$GPGGA,091333.000,4503.2224,N,00741.2423,E,1,14,0.8,199.5,M,48.2,M,,*51,1746263612000
NMEA,$PSAMSA,091333.000,4503.2224,N,00741.2423,E,0,M,,*63,1746263612000
NMEA,$GPGLL,4503.2224,N,00741.2423,E,091333.000,A,A*53,1746263612000
NMEA,$GPVTG,354.5,T,,M,0.0,N,0.0,K,A*0A,1746263612000
NMEA,$GPGSV,2,1,08,05,20,052,34,16,39,305,30,18,75,130,32,23,16,142,30*77,1746263612000
NMEA,$GPGSV,2,2,08,25,11,131,29,26,67,291,38,28,22,202,22,29,38,067,32*70,1746263612000
NMEA,$GLGSV,1,1,04,71,08,344,25,73,46,161,25,74,78,284,32,83,32,037,26*65,1746263612000
NMEA,$BDGSV,2,1,06,208,31,050,31,213,36,069,26,226,53,287,38,229,59,053,33*69,1746263612000
NMEA,$BDGSV,2,2,06,230,07,059,25,235,55,246,27*62,1746263612000
NMEA,$GPGSA,A,3,18,26,16,29,05,25,,,,,,,1.6,0.8,1.2*3D,1746263612000
NMEA,$GNGSA,A,3,73,74,,,,,,,,,,,1.6,0.8,1.2*27,1746263612000
NMEA,$BDGSA,A,3,208,213,226,229,230,235,,,,,,,1.6,0.8,1.2*2F,1746263612000
NMEA,$GPRMC,091333.000,A,4503.2224,N,00741.2423,E,0.0,354.5,030525,,,A*62,1746263612000
NMEA,$PSAMCLK,2364,55163100,14,9747372,3031450,551631000*76,1746263612000
NMEA,$PSAMCLK,2364,55163200,15,9747392,3093322,551632000*73,1746263613000
NMEA,$GPGGA,091334.000,4503.2224,N,00741.2423,E,1,15,0.8,199.5,M,48.2,M,,*57,1746263613000
NMEA,$PSAMSA,091334.000,4503.2224,N,00741.2423,E,1,M,,*65,1746263613000
NMEA,$GPGLL,4503.2224,N,00741.2423,E,091334.000,A,A*54,1746263613000
NMEA,$GPVTG,354.5,T,,M,0.0,N,0.0,K,A*0A,1746263613000
NMEA,$GPGSV,3,1,09,05,20,052,34,16,39,305,30,18,75,130,32,23,16,142,30*77,1746263613000
NMEA,$GPGSV,3,2,09,25,11,131,29,26,67,291,38,28,22,202,21,29,38,067,32*73,1746263613000
