     4.01           OBSERVATION DATA    M                   RINEX VERSION / TYPE
GnssLogger          samsung 13          20250503 073611 UTC PGM / RUN BY / DATE
Google GnssLogger                                           MARKER NAME
Unknown                                                     MARKER NUMBER
Unknown             Unknown                                 OBSERVER / AGENCY
Unknown             GnssLogger          v3.1.0.4            REC # / TYPE / VERS
Unknown             Unknown                                 ANT # / TYPE
        0.0000        0.0000        0.0000                  ANTENNA: DELTA H/E/N
G    4 C1C L1C D1C S1C                                      SYS / # / OBS TYPES
R    4 C1C L1C D1C S1C                                      SYS / # / OBS TYPES
C    4 C2C L2C D2C S2C                                      SYS / # / OBS TYPES
  2025    05    03    07    36   11.0000000     GPS         TIME OF FIRST OBS
 3 R09 -2 R10 -7 R16 -1                                     GLONASS SLOT / FRQ #
samsung SM-A515F (Android 13) HW Year: 2016 HW Model:       COMMENT
S.LSI,K102                                                  COMMENT
                                                            END OF HEADER
> 2025 05 03 07 36 11.9999998  0 12                      
G31  21354414.34727    -10683.53327      -164.43927        44.60027
G28  21026111.62625   -147970.66225     -1925.30125        35.10025
G11  25024300.93725   -339731.52925     -4369.72525        33.80025
G25  21134411.95115   -270555.97515     -3482.68415        35.00015
G12  24269772.18615   -346444.26015     -4448.09215        29.90015
G29  20409765.61314   -137097.06214     -1775.37614        28.70014
R16  20926969.06126   -313385.57126     -4039.01226        38.80026
C29  21558814.64326    -29149.49626      -394.86826        38.50026
C30  23166051.47626   -268265.60026     -3453.63726        37.80026
R10  21830067.75926    174486.42826      2227.90126        36.60026
C36  22937278.05315   -275886.06615     -3552.33215        30.70015
R09  19207768.73824                      -245.74624        25.90024
> 2025 05 03 07 36 13.0000000  0 12                      
G31  21354285.43627    -10842.68027      -165.46827        44.80027
G28  21026318.48326   -149890.69926     -1926.35826        35.50026
G11  25024967.07625   -344096.24225     -4370.28225        33.90025
G25  21134918.60015   -274034.03215     -3484.59815        34.40015
G12  24270458.11115   -350887.68615     -4449.79515        30.30015
G29  20409945.48914   -138864.40214     -1771.37214        28.40014
R16  20927567.14726   -317428.77426     -4039.59726        39.00026
C29  21558731.00126    -29538.91626      -395.55126        38.40026
C30  23166552.13026   -271713.58626     -3453.97526        38.00026
R10  21829491.55726    176711.33626      2226.94626        36.50026
C36  22937801.49015   -279432.47615     -3552.18815        30.40015
R09  19207616.14414       -32.02914      -251.67214        25.90014
> 2025 05 03 07 36 14.0000001  0 12                      
G31  21354108.85827    -11002.21527      -165.57427        45.00027
G28  21026473.47526   -151811.18326     -1926.55126        35.80026
G11  25025592.44325   -348460.68725     -4370.40525        33.90025
G25  21135372.78615   -277513.00615     -3485.27615        33.70015
G12  24271102.36515   -355332.07015     -4450.70515        30.60015
G29  20410063.30714   -140632.27014     -1773.97614        28.10014
R16  20928120.26426   -321488.82926     -4039.79526        39.20026
C29  21558598.79326    -29928.61026      -395.62226        38.40026
C30  23167006.31526   -275161.90626     -3454.27826        37.90026
R10  21828864.69126    178948.41126      2227.41026        36.40026
C36  22938289.85215   -282979.50015     -3553.12015        30.00015
R09  19207475.84114      -389.58314      -258.04414        25.80014
> 2025 05 03 07 36 14.9999998  0 12                      
G31  21353811.16427    -11162.85027      -167.04827        45.10027
G28  21026510.35026   -153732.71326     -1927.91426        36.10026
G11  25026089.19925   -352825.53425     -4370.90725        34.20025
G25  21135693.86415   -280993.63715     -3487.31915        33.20015
G12  24271620.10715   -359775.58515     -4448.93915        30.60015
G29  20410073.20014   -142407.39914     -1784.62014        27.90014
R16  20928549.26726   -325527.48426     -4041.05126        39.30026
C29  21558347.56726    -30319.01826      -396.57426        38.30026
C30  23167348.37826   -278610.66226     -3454.78026        37.80026
R10  21828125.70326    181145.06126      2226.20526        36.30026
C36  22938638.51115   -286527.83915     -3554.80415        29.70015
R09  19207209.92514      -715.03614      -252.55014        26.30014
> 2025 05 03 07 36 16.0000001  0 12                      
G31  21353718.22827    -11324.27427      -167.73627        45.10027
G11  25026795.21026   -357190.88626     -4371.52026        36.30026
G29  20410264.46816   -144181.40716     -1779.36616        37.90016
G28  21026746.88626   -155654.75526     -1928.21626        36.70026
G25  21136227.79415   -284474.77215     -3487.30415        32.90015
G12  24272325.51915   -364219.47415     -4449.99215        30.60015
R09  19207126.28316      -956.41416      -255.66116        39.10016
R16  20929168.03826   -329521.00626     -4041.60326        39.30026
C29  21558295.10326    -30709.99226      -397.12126        38.20026
C30  23167883.20826   -282060.12026     -3455.67126        37.70026
R10  21827572.28626    183407.34326      2226.07726        36.20026
C36  22939186.23215   -290076.86115     -3555.22515        29.60015
> 2025 05 03 07 36 16.9999998  0 12                      
G31  21353425.33127    -11486.31427      -168.19327        45.00027
G29  20410273.16226   -145956.02126     -1780.75926        41.20026
G11  25027285.97027   -361556.23927     -4371.19527        42.40027
G28  21026782.86126   -157577.89926     -1929.53726        36.90026
G25  21136571.95615   -287955.98415     -3487.09115        32.70015
G12  24272851.05515   -368663.78015     -4450.35415        30.50015
C36  22939542.08515   -293624.99915     -3553.48515        33.80015
R09  19206849.27516     -1223.04016      -256.06116        39.10016
R16  20929594.34316   -333545.13816     -4041.32016        39.20016
C30  23168218.97626   -285509.71726     -3455.45626        37.60026
C29  21558046.87526    -31100.68426      -396.34226        38.00026
R10  21826833.59826    185602.46826      2226.25226        36.10026
> 2025 05 03 07 36 17.9999999  0 12                      
G31  21353250.25227    -11648.70327      -168.42727        44.90027
G11  25027910.43827   -365922.47327     -4372.53527        42.30027
G29  20410405.67026   -147730.54926     -1780.34826        41.20026
G28  21026950.44526   -159501.19626     -1929.23626        36.90026
G25  21137019.54615   -291437.30415     -3487.23515        32.60015
G12  24273487.21415   -373107.88315     -4449.86315        30.70015
R09  19206697.88016     -1520.99216      -256.63816        39.60016
C36  22940019.35516   -297173.97016     -3555.19516        38.00016
C30  23168673.16126   -288959.38126     -3455.50526        37.50026
C29  21557914.66626    -31492.82326      -398.67326        37.80026
R10  21826209.43026    187825.81426      2226.26726        36.10026
R16  20930147.46016   -337605.19316     -4041.16216        38.20016
> 2025 05 03 07 36 18.9999999  0 12                      
G31  21353035.30127    -11812.07027      -169.71927        44.80027
G11  25028506.42627   -370288.92127     -4373.16427        42.00027
G29  20410502.80326   -149506.31726     -1782.24926        41.00026
G28  21027079.35626   -161425.79826     -1931.11626        37.20026
G25  21137447.05015   -294917.40415     -3485.35115        32.60015
G12  24274106.58615   -377548.79115     -4445.16915        30.70015
C30  23169092.87126   -292409.75426     -3456.53526        37.50026
R09  19206497.91816     -1719.61316      -252.43116        39.30016
R10  21825546.28926    190097.21126      2225.66726        36.00026
C36  22940456.45226   -300723.70426     -3555.92426        37.80026
R16  20930662.50416   -341623.21216     -4044.08316        37.30016
C29  21557748.58116    -31887.18316      -401.28016        37.00016
> 2025 05 03 07 36 19.9999999  0 11                      
G31  21352827.54527    -11976.59827      -170.97127        44.60027
G29  20410604.43326   -151282.57226     -1782.36126        40.70026
G28  21027206.16826   -163351.17026     -1931.61826        37.40026
G11  25029097.31626   -374656.02926     -4373.04726        41.00026
G25  21137883.54815   -298399.79315     -3489.39415        32.50015
C30  23169520.97426   -295860.93826     -3457.39726        37.40026
R16  20931177.84726   -345643.52226     -4043.59826        36.90026
R10  21824897.53826    192290.81026      2224.37226        36.00026
C36  22940897.44716   -304272.73616     -3554.48616        37.30016
R09  19206315.64416     -2012.22416      -260.80016        38.20016
C29  21557582.19616    -32284.37516      -404.41716        35.50016
> 2025 05 03 07 36 20.9999999  0 12                      
G31  21352642.57327    -12141.60127      -171.15927        44.50027
G29  20410728.24726   -153059.41326     -1783.05126        40.30026
G28  21027357.56326   -165277.32126     -1932.45826        37.50026
G25  21138332.93725   -301882.57325     -3488.89225        32.40025
G11  25029701.39826   -379023.45926     -4373.50726        39.40026
G12  24275332.73714   -386427.09214     -4451.13014        28.60014
R16  20931710.57826   -349656.91726     -4044.34526        36.80026
C30  23169973.96126   -299312.15326     -3457.09226        37.20026
R10  21824266.77526    194486.73526      2225.14326        36.10026
R09  19206135.16916     -2216.92116      -257.58216        37.20016
C29  21557448.18915    -32675.57815      -394.07315        34.40015
C36  22941364.82416   -307818.41816     -3549.86916        35.80016
> 2025 05 03 07 36 21.9999999  0 12                      
G31  21352440.51327    -12307.27027      -171.84627        44.40027
G29  20410832.87426   -154836.80726     -1783.51426        40.10026
G28  21027488.27326   -167204.11026     -1932.95226        37.50026
G25  21138753.84525   -305365.73325     -3489.19125        33.60025
G11  25030303.08216   -383392.64716     -4375.90816        37.80016
G12  24275942.81414   -390873.48914     -4452.25714        28.00014
R16  20932232.21726   -353710.85826     -4044.93026        37.00026
R10  21823613.82726    196704.74226      2224.49426        36.30026
C30  23170400.56526   -302763.93126     -3457.84926        37.00026
R09  19205939.70516     -2438.46916      -259.65816        36.70016
C29  21557292.29715    -33070.30115      -402.27415        33.70015
C36  22941817.51015   -311370.27915     -3560.74015        34.20015
> 2025 05 03 07 36 22.9999999  0 12                      
G31  21352230.35927    -12473.60027      -172.52427        44.20027
G29  20410931.80626   -156614.45226     -1783.63326        39.90026
G28  21027617.78326   -169131.55526     -1933.63426        37.70026
G25  21139175.05426   -308849.22926     -3489.52626        36.60026
G11  25030901.76716   -387762.62416     -4376.23116        36.50016
G12  24276553.79214   -395324.92714     -4459.81814        27.60014
R16  20932755.95526   -357773.97126     -4044.73626        37.00026
R10  21822958.18026    198934.95326      2224.47626        36.30026
C30  23170818.17626   -306215.96526     -3457.96926        36.80026
R09  19205746.93816     -2675.29816      -260.94316        36.40016
C29  21557128.31115    -33463.80115      -398.69815        33.40015
C36  22942258.50515   -314921.00315     -3555.96215        32.90015
> 2025 05 03 07 36 23.9999999  0 12                      
G31  21352043.88827    -12640.66127      -173.34627        44.10027
G29  20411051.12326   -158392.79026     -1784.60126        39.70026
G28  21027768.57926   -171059.73326     -1934.46226        37.90026
G25  21139624.44316   -312332.62916     -3489.26716        36.20016
G11  25031513.04416   -392131.05316     -4373.57016        35.60016
G12  24277179.15914   -399776.07514     -4456.91914        27.20014
R16  20933298.57926   -361840.86826     -4046.25826        37.00026
R10  21822318.42326    201179.69226      2224.49726        36.30026
R09  19205571.85916     -2909.03216      -260.55416        36.20016
C30  23171267.56526   -309668.28426     -3458.32326        36.70026
C29  21556985.31015    -33858.55315      -401.24215        33.10015
C36  22942720.78515   -318472.62715     -3557.93715        31.90015
> 2025 05 03 07 36 24.9999999  0 12                      
G31  21351838.53027    -12808.34927      -173.84627        43.90027
G29  20411154.55226   -160171.46326     -1784.68326        39.70026
G28  21027902.58626   -172988.64826     -1935.12626        38.10026
G25  21140051.64726   -315816.89226     -3490.53726        36.00026
G11  25032101.83625   -396500.22325     -4374.63125        35.00025
G12  24277780.84214   -404222.59414     -4450.04614        27.10014
R16  20933829.51126   -365943.72526     -4046.42326        36.90026
R10  21821666.37526    203392.35926      2224.03726        36.30026
R09  19205393.48316     -3221.50116      -260.65216        36.20016
C30  23171698.36726   -313120.90126     -3458.55626        36.50026
C29  21556824.62115    -34256.03915      -404.64515        33.00015
C36  22943174.67115   -322024.41815     -3557.66215        31.10015
> 2025 05 03 07 36 26.0000000  0 12                      
G31  21351667.64827    -12976.85327      -174.77527        43.70027
G11  25032721.20825   -400869.47125     -4375.39825        34.80025
G29  20411286.76026   -161950.84526     -1785.59926        39.80026
G28  21028066.27326   -174918.31526     -1935.90526        38.20026
G25  21140506.73226   -319301.58826     -3490.77326        36.30026
G12  24278428.09414   -408668.82414     -4451.94614        27.60014
R16  20934371.23626   -369944.16326     -4046.97726        36.90026
R09  19205230.99516     -3459.80916      -262.07316        36.50016
R10  21821049.10226    205578.33226      2223.46026        36.30026
C30  23172153.15226   -316573.88526     -3458.97526        36.40026
C29  21556696.31015    -34653.01615      -402.53215        32.90015
C36  22943645.94415   -325574.61515     -3555.20915        30.60015
> 2025 05 03 07 36 27.0000000  0 12                      
G31  21351464.68927    -13146.10427      -175.48827        43.40027
G29  20411392.28726   -163730.81226     -1786.12226        40.10026
G11  25033324.09026   -405239.20626     -4375.83826        39.60026
G28  21028194.88426   -176848.93726     -1936.96226        38.20026
G25  21140937.53326   -322786.93126     -3491.52626        36.30026
G12  24279043.86814   -413115.59114     -4452.89514        27.60014
R09  19205042.72626     -3721.08726      -262.56126        36.90026
R16  20934887.77926   -373969.06026     -4047.76926        36.80026
R10  21820390.15826    207827.61026      2223.13626        36.40026
C30  23172577.65826   -320027.55826     -3459.82426        36.30026
C29  21556537.12025    -35050.41425      -403.41825        33.10025
C36  22944103.12815   -329128.50615     -3561.54515        30.20015
> 2025 05 03 07 36 27.9999999  0 12                      
G29  20411480.42626   -165511.01426     -1786.23526        40.40026
G11  25033900.89126   -409609.35426     -4376.26926        39.80026
G28  21028308.20526   -178779.80526     -1936.90726        38.10026
G25  21141353.64526   -326272.55626     -3491.68226        36.30026
G31  21351245.54017    -13316.63017      -177.08117        42.80017
G12  24279643.15314   -417562.50814     -4452.90614        27.60014
R09  19204830.47326     -3915.85326      -262.78026        37.20026
R10  21819721.92126    210063.19726      2223.95126        36.50026
R16  20935392.32926   -377993.92026     -4049.08626        36.70026
C30  23172985.97626   -323481.21826     -3459.51626        36.20026
C29  21556361.74125    -35448.37625      -404.10825        33.40025
C36  22944538.42715   -332682.30315     -3559.61115        30.00015
> 2025 05 03 07 36 29.0000000  0 11                      
G31  21351070.76117    -13487.16117      -176.37817        42.00017
G29  20411610.83626   -167292.56426     -1788.06926        40.40026
G11  25034518.16416   -413981.26116     -4379.37816        39.80016
G28  21028465.89626   -180711.44726     -1937.87326        38.00026
G25  21141803.93416   -329761.10716     -3495.85616        36.20016
G12  24280282.31014   -422011.57514     -4455.98414        27.60014
R09  19204680.57626     -4221.44726      -264.57326        37.20026
C30  23173441.36026   -326936.92826     -3462.52426        36.50026
R10  21819089.65926    212330.01726      2222.08426        36.50026
C29  21556231.63115    -35851.21915      -411.07515        33.40015
C36  22945005.20315   -336238.19615     -3562.73115        29.80015
> 2025 05 03 07 36 30.0000000  0 12                      
G31  21350866.90217    -13658.75917      -177.99517        42.20017
G29  20411716.36326   -169074.18826     -1787.52226        40.30026
G11  25035109.05516   -418352.22216     -4376.09816        39.60016
G28  21028596.00626   -182644.32126     -1939.35126        37.90026
G25  21142234.13616   -333247.68316     -3491.44916        36.10016
G12  24280893.88714   -426459.26014     -4452.85314        27.70014
R16  20936463.18816   -386087.27916     -4049.12816        36.00016
C30  23173865.86626   -330391.48726     -3459.79026        37.00026
R09  19204496.50426     -4503.35826      -264.85126        37.20026
R10  21818438.80926    214535.81926      2222.66426        36.40026
C29  21556071.84215    -36254.63915      -409.51715        33.30015
C36  22945447.99715   -339791.94215     -3558.48015        30.10015
> 2025 05 03 07 36 31.0000000  0 12                      
G31  21350664.84227    -13831.40127      -179.02827        42.20027
G29  20411816.79326   -170856.38126     -1788.34026        40.20026
G11  25035702.34426   -422722.52926     -4375.83926        39.50026
G28  21028723.41826   -184578.58326     -1940.81826        38.00026
G25  21142650.54826   -336734.33726     -3492.55426        36.00026
G12  24281500.06714   -430905.25714     -4451.01314        27.80014
C30  23174296.96826   -333845.91526     -3460.16926        38.00026
R09  19204310.93216     -4778.38916      -265.12416        37.10016
R10  21817789.45926    216733.23326      2222.50926        36.30026
R16  20936987.52526   -390153.44926     -4048.61826        35.80026
C29  21555913.85115    -36653.95515      -403.07515        33.30015
C36  22945893.18915   -343343.60615     -3556.43015        30.40015
> 2025 05 03 07 36 32.0000000  0 12                      
G31  21350474.47427    -14004.76727      -179.64527        42.10027
G29  20411938.20926   -172639.37826     -1789.31626        40.00026
G11  25036321.41526   -427094.40426     -4378.57526        39.40026
G28  21028876.01226   -186513.04026     -1940.47126        38.00026
G25  21143089.44426   -340221.75426     -3493.71326        36.00026
G12  24282132.03014   -435353.10314     -4454.68614        27.80014
C30  23174742.75926   -337301.69026     -3462.31126        38.70026
R09  19204143.64816     -5053.38016      -266.63516        37.00016
R10  21817146.70426    218992.46326      2220.52726        36.30026
R16  20937520.85626   -394170.66526     -4050.52526        35.60026
C29  21555779.24515    -37054.79615      -407.46815        33.10015
C36  22946362.06415   -346897.09415     -3560.26115        30.30015
> 2025 05 03 07 36 33.0000000  0 13                      
G31  21350272.11427    -14178.49227      -179.75027        41.90027
G29  20412037.74026   -174422.43926     -1788.93726        39.90026
G11  25036916.50326   -431466.79626     -4378.49226        39.30026
G25  21143516.04816   -343709.33916     -3493.51116        36.00016
G28  21029010.01916   -188449.53016     -1943.35016        37.70016
G18  22925768.12125                      2109.09825        30.70025
G12  24282744.50614   -439804.41314     -4458.88414        27.80014
C30  23175163.96826   -340757.26726     -3461.26526        39.00026
R09  19203956.57816     -5320.00516      -265.56116        37.10016
R10  21816476.96726    221298.94526      2220.84926        36.20026
R16  20938037.99825   -398200.91225     -4049.47025        35.40025
C29  21555614.05915    -37455.22615      -406.01515        33.00015
C36  22946813.55215   -350452.50015     -3562.15515        30.20015
> 2025 05 03 07 36 34.0000000  0 13                      
G31  21350065.25727    -14352.96127      -180.70427        41.70027
G29  20412142.06826   -176206.29026     -1790.10726        39.80026
G11  25037509.19326   -435838.88326     -4377.79426        39.30026
G18  22925128.66415      2112.96615      2107.10115        35.30015
G25  21143942.65316   -347197.69116     -3494.59716        35.90016
G28  21029150.02216   -190387.48616     -1944.55016        36.50016
G12  24283350.08714   -444256.31414     -4458.05514        27.80014
C30  23175587.57526   -344213.44226     -3462.28226        39.50026
R09  19203763.81116     -5556.83416      -267.58116        37.10016
R10  21815827.91726    223494.83426      2221.84926        36.00026
R16  20938561.43615   -402263.26215     -4055.96515        35.20015
C29  21555448.87315    -37856.58715      -407.63715        32.90015
C36  22947261.74115   -354008.26815     -3561.75515        30.20015
> 2025 05 03 07 36 35.0000000  0 13                      
G31  21349882.08427    -14528.14727      -181.46327        41.50027
G29  20412261.68526   -177990.72126     -1790.63826        39.80026
G11  25038130.36326   -440211.47926     -4378.76626        39.40026
G18  22924507.79326      4226.48126      2107.87026        36.20026
G25  21144388.44426   -350686.36026     -3494.74426        36.00026
G28  21029280.13216   -192323.71816     -1941.28816        35.60016
G12  24283977.85214   -448704.77914     -4452.66214        27.70014
C30  23176036.96326   -347670.22226     -3462.94526        39.50026
R09  19203598.92526     -5844.81826      -268.94426        37.00026
R10  21815187.56026    225742.62326      2220.99626        35.90026
R16  20939087.27215   -406240.73215     -4052.45315        34.90015
C29  21555316.06525    -38258.07725      -407.41825        32.80025
C36  22947714.72815   -357564.14615     -3561.79615        30.20015
> 2025 05 03 07 36 36.0000000  0 12                      
G25  21144813.55026   -354175.41126     -3495.08426        38.60026
G31  21349680.02426    -14703.85326      -181.81126        41.30026
G11  25038729.34826   -444584.47826     -4379.04126        39.90026
G29  20412358.81826   -179775.37626     -1790.61026        39.80026
G18  22923876.13126      6339.92926      2107.56826        36.90026
G28  21029411.74125   -194260.88925     -1943.48225        35.30025
G12  24284566.34514   -453153.51014     -4454.70514        27.60014
C30  23176463.86826   -351127.16626     -3462.81426        39.50026
R09  19203407.65826     -6090.05026      -268.81026        37.00026
R10  21814539.40926    227934.69826      2220.96226        35.90026
R16  20939617.60425   -410339.00425     -4052.10425        34.70025
C36  22948164.11715   -361121.85015     -3564.40515        30.50015
> 2025 05 03 07 36 37.0000001  0 13                      
G31  21349504.94526    -14880.60226      -183.13426        41.10026
G11  25039354.41626   -448958.49126     -4379.63026        40.30026
G29  20412491.32626   -181561.07326     -1791.33126        39.80026
G25  21145270.73426   -357665.31926     -3496.19626        40.00026
G18  22923257.65926      8452.16626      2106.51626        36.90026
G28  21029581.42425   -196199.69325     -1944.73425        35.30025
G12  24285199.50614   -457603.30314     -4456.18414        27.60014
C30  23176921.35126   -354584.38926     -3463.17126        39.50026
R09  19203243.37126     -6317.71126      -270.31026        36.90026
R10  21813920.03726    230132.11026      2219.69326        35.80026
R16  20940174.01925   -414417.40325     -4052.98325        34.60025
C36  22948643.18515   -364680.22215     -3564.51315        30.50015
C29  21555013.87415    -39064.18515      -407.82615        31.70015
> 2025 05 03 07 36 37.9999998  0 13                      
G31  21349209.94926    -15057.35126      -182.61226        40.90026
G11  25039856.86826   -453331.31026     -4379.08226        40.30026
G29  20412509.01426   -183346.70626     -1791.71126        39.80026
G25  21145613.69626   -361155.03726     -3495.48426        39.70026
G18  22922523.16726     10565.19726      2107.31226        37.00026
G28  21029621.29626   -198138.27626     -1944.58226        35.50026
G12  24285720.54614   -462049.64814     -4450.48014        27.50014
C30  23177258.01826   -358041.84126     -3463.37326        39.90026
R09  19202965.46426     -6579.75326      -270.13726        36.80026
R10  21813172.05526    232376.05026      2221.32226        35.70026
R16  20940623.40825   -418565.35525     -4053.64925        34.50025
C29  21554769.24415    -39467.31115      -408.93515        31.30015
C36  22948986.14715   -368236.12915     -3560.48215        30.40015
> 2025 05 03 07 36 39.0000000  0 13                      
G31  21349084.93626    -15235.09326      -184.15726        40.80026
G29  20412690.08926   -185132.70326     -1792.09626        39.80026
G18  22921960.45726     12677.90626      2106.63026        37.00026
G25  21146116.74816   -364645.50616     -3496.76116        39.10016
G28  21029832.35026   -200077.27526     -1945.12626        35.90026
G11  25040541.59416   -457715.15516     -4395.02216        39.70016
G12  24286417.26314   -466499.37614     -4457.33614        27.30014
C30  23177759.57126   -361499.88426     -3464.20026        39.90026
R09  19202873.12816     -6935.73616      -271.94216        36.60016
R10  21812591.35726    234624.60226      2220.17026        35.50026
R16  20941207.10425   -422531.36225     -4054.03925        34.30025
C29  21554679.60615    -39871.10215      -409.98915        32.90015
C36  22949503.88915   -371794.07115     -3564.82115        30.30015
> 2025 05 03 07 36 40.0000001  0 13                      
G31  21348913.75526    -15413.55626      -184.66726        40.70026
G29  20412821.99726   -186919.37826     -1792.85926        39.70026
G28  21029994.23826   -202017.19326     -1946.22026        36.40026
G18  22921354.57626     14790.07226      2106.04726        36.90026
G25  21146570.93416   -368136.11316     -3496.51816        38.50016
G11  25041163.96316   -462093.25216     -4381.06716        38.20016
G12  24287079.20514   -470949.31014     -4455.87814        27.20014
C30  23178213.75726   -364958.04826     -3464.01426        39.80026
R09  19202710.64026     -7173.32826      -271.31826        36.50026
R16  20941748.52925   -426530.27225     -4054.82525        34.20025
C29  21554550.69525    -40275.49825      -410.48925        33.20025
R10  21811974.38425    236809.81225      2219.80325        35.20025
C36  22949994.05015   -375353.14515     -3565.43015        30.30015
> 2025 05 03 07 36 40.9999998  0 13                      
G31  21348616.96026    -15592.35326      -184.82826        40.60026
G29  20412836.38726   -188706.18626     -1792.73626        39.70026
G28  21030041.30526   -203957.47026     -1946.31826        37.00026
G18  22920625.78126     16902.17526      2106.20826        36.70026
G11  25041661.91816   -466467.60416     -4378.33716        36.90016
G25  21146890.51216   -371626.55516     -3496.22116        37.30016
G12  24287618.83114   -475396.65014     -4451.90314        27.20014
C30  23178550.42326   -368416.30326     -3464.10726        39.70026
R09  19202424.63826     -7393.34626      -271.63126        36.30026
R10  21811216.80925    239103.32825      2220.39925        34.90025
R16  20942177.53225   -430569.69125     -4054.65825        34.10025
C29  21554301.56825    -40679.95325      -410.29425        33.40025
C36  22950352.00215   -378912.70015     -3565.60215        30.30015
> 2025 05 03 07 36 42.0000001  0 13                      
G31  21348523.72526    -15772.00726      -186.00126        40.50026
G29  20413052.53826   -190493.59826     -1793.63026        39.60026
G28  21030279.34126   -205898.44026     -1947.23426        37.30026
G18  22920088.25326     19014.01026      2105.78126        36.60026
G11  25042366.73016   -470842.31316     -4380.80516        36.10016
G25  21147435.53516   -375117.93216     -3497.76016        36.10016
G12  24288361.41714   -479846.28414     -4456.69614        27.20014
C30  23179087.05226   -371875.15726     -3465.01726        39.60026
R09  19202359.58326     -7734.81126      -272.85626        36.20026
R10  21810668.48825    241339.67725      2219.77825        35.30025
R16  20942810.09425   -434637.35225     -4055.39725        34.10025
C29  21554254.20015    -41083.83115      -409.45515        33.40015
C36  22950906.01815   -382471.12115     -3563.71615        30.40015
> 2025 05 03 07 36 42.9999998  0 13                      
G31  21348229.62826    -15952.38326      -185.83126        40.40026
G29  20413069.32626   -192280.74526     -1793.60826        39.40026
G28  21030323.41026   -207840.05926     -1947.78626        37.30026
G18  22919359.75726     21126.11326      2105.64026        36.60026
G11  25042870.68126   -475217.23026     -4380.86126        35.80026
G25  21147776.99915   -378609.13115     -3496.95215        35.40015
G12  24288881.85714   -484296.81014     -4456.81314        27.20014
C30  23179427.31626   -375333.83526     -3464.37726        39.40026
R10  21809925.90226    243553.87026      2219.82226        35.60026
R09  19202073.28126     -7952.53826      -272.78026        36.10026
R16  20943254.08715   -438755.49615     -4053.57915        34.10015
C29  21554006.87215    -41488.66715      -411.10615        33.30015
C36  22951267.86815   -386032.36415     -3568.44315        30.40015
> 2025 05 03 07 36 43.9999999  0 13                      
G31  21348060.24526    -16133.15326      -187.08026        40.40026
G29  20413197.63726   -194069.08826     -1794.55326        39.30026
G28  21030488.89526   -209782.56926     -1948.81826        37.20026
G18  22918745.18316     23238.26516      2106.56316        36.50016
G11  25043505.34226   -479592.80126     -4381.75926        35.60026
G25  21148239.87825   -382100.58825     -3497.44725        34.90025
G12  24289514.11914   -488747.05414     -4455.96214        27.40014
C30  23179883.00126   -378792.98126     -3465.18926        39.10026
R09  19201923.98526     -8260.42326      -273.96526        35.90026
R10  21809301.73526    245777.97826      2219.41026        35.60026
R16  20943784.72015   -442697.08115     -4056.93215        34.30015
C36  22951743.03915   -389589.45715     -3560.82515        30.40015
C29  21553882.15815    -41900.82615      -421.62915        32.10015
> 2025 05 03 07 36 44.9999999  0 13                      
G31  21347856.98626    -16314.41626      -187.37326        40.40026
G29  20413298.36816   -195857.59716     -1794.45416        39.10016
G28  21030623.20326   -211725.12826     -1948.44526        37.10026
G11  25044099.83025   -483968.38025     -4381.44225        35.40025
G25  21148668.28215   -385591.37515     -3496.31315        34.60015
G18  22918110.52216     25349.82616      2105.40016        35.90016
G12  24290105.31014   -493195.28514     -4453.08414        27.80014
R09  19201734.21626     -8512.53426      -274.11226        35.80026
C30  23180313.50316   -382251.95716     -3464.69816        37.60016
R10  21808661.07826    247929.62926      2219.59026        35.50026
R16  20944310.55615   -446772.42315     -4056.96515        34.70015
C36  22952188.83015   -393144.96415     -3560.52215        30.30015
C29  21553718.17115    -42308.34815      -411.01415        31.10015
> 2025 05 03 07 36 45.9999999  0 13                      
G31  21347653.12726    -16496.28126      -188.03026        40.40026
G29  20413400.89726   -197646.54226     -1795.02526        39.00026
G28  21030759.30826   -213668.62426     -1949.82626        37.00026
G11  25044684.42625   -488343.75925     -4381.13825        35.20025
G25  21149090.98915   -389083.73915     -3499.01415        34.30015
G18  22917473.46315     27459.98915      2103.59915        34.90015
G12  24290725.28114   -497645.69514     -4457.36014        28.10014
C30  23180740.70716   -385711.55516     -3465.71516        36.80016
R09  19201548.94426     -8789.85626      -274.62526        35.80026
R16  20944826.49825   -450795.02725     -4056.90525        35.10025
R10  21808003.63325    250170.51725      2219.12525        35.40025
C36  22952629.52515   -396705.41015     -3568.72315        30.50015
C29  21553570.07415    -42716.02015      -413.55715        30.70015
> 2025 05 03 07 36 46.9999999  0 13                      
G31  21347468.75526    -16678.82026      -188.79326        40.40026
G29  20413522.31326   -199435.91926     -1795.51026        38.80026
G28  21030907.40626   -215612.81626     -1950.45826        36.90026
G11  25045299.30025   -492719.83125     -4382.33525        35.00025
G25  21149538.27915   -392575.87215     -3497.93215        33.90015
G18  22916851.39415     29571.73715      2106.62015        34.20015
G12  24291349.44914   -502095.66714     -4455.66714        28.40014
R09  19201379.86126     -9054.91826      -275.61726        35.70026
R16  20945363.72625   -454833.64425     -4057.70425        35.30025
C30  23181186.79826   -389171.52026     -3466.01126        36.60026
R10  21807357.58025    252448.05325      2219.15125        35.30025
C36  22953099.60015   -400266.61515     -3567.44515        31.60015
C29  21553420.47715    -43122.46515      -411.69615        30.30015
> 2025 05 03 07 36 47.9999999  0 13                      
G31  21347267.89426    -16862.11726      -189.52126        40.30026
G29  20413628.73926   -201225.80026     -1795.97726        38.60026
G28  21031044.41126   -217557.63226     -1950.97126        36.90026
G11  25045897.98625   -497095.81525     -4381.78125        34.80025
G18  22916215.23415     31682.06515      2103.77215        33.80015
G25  21149975.07715   -396068.72915     -3499.06315        33.60015
G12  24291966.72114   -506544.11114     -4453.52214        28.40014
R16  20945892.56026   -458923.50826     -4057.79826        35.70026
R09  19201197.88726     -9349.05026      -276.26626        35.70026
C30  23181614.00326   -392631.61726     -3465.95226        36.30026
R10  21806714.22625    254614.19525      2218.55725        35.20025
C36  22953546.29115   -403826.80915     -3565.47815        31.90015
C29  21553260.38815    -43530.58415      -414.74815        30.10015
> 2025 05 03 07 36 48.9999999  0 13                      
G29  20413724.37326   -203016.58126     -1797.09426        38.50026
G28  21031179.91726   -219503.18626     -1951.78526        36.80026
G18  22915582.07325     33791.29325      2103.56225        33.80025
G11  25046497.57115   -501472.80915     -4383.35815        34.60015
G25  21150401.08225   -399562.26825     -3499.73925        33.40025
G12  24292571.70314   -510994.38914     -4457.05414        28.40014
G31  21347063.43516    -17044.87616      -189.10316        39.50016
R16  20946412.10126   -462965.22026     -4058.72726        36.10026
R09  19200999.42526     -9555.31526      -277.09826        35.60026
R10  21806052.28425    256878.72725      2218.54625        35.00025
C30  23182040.60716   -396092.29016     -3466.77016        35.90016
C36  22953988.18515   -407386.14415     -3564.71215        31.90015
C29  21553101.19915    -43938.42815      -413.51615        30.00015
> 2025 05 03 07 36 50.0000000  0 12                      
G29  20413852.68426   -204807.60826     -1797.01126        38.30026
G28  21031347.50126   -221449.61026     -1952.72026        36.80026
G18  22914977.09125     35900.87525      2103.64525        34.80025
G25  21150857.66625   -403056.12525     -3499.87825        33.30025
G12  24293197.96914   -515446.01014     -4458.15214        28.30014
G31  21346898.55016    -17226.76116      -187.06116        37.40016
R16  20946969.41526   -467049.73326     -4059.39526        36.20026
R09  19200844.13226     -9831.11026      -277.61626        35.60026
R10  21805441.90725    259027.32725      2218.05525        34.80025
C30  23182492.09515   -399553.48415     -3467.26115        35.40015
C36  22954463.95515   -410943.75315     -3562.55415        31.80015
C29  21552969.59015    -44346.61415      -414.16615        29.80015
> 2025 05 03 07 36 50.9999999  0 13                      
G28  21031467.71826   -223396.89426     -1953.63126        36.70026
G18  22914330.43925     38009.68425      2102.50225        35.20025
G25  21151275.27725   -406550.61225     -3500.71725        33.40025
G29  20413944.72016   -206599.47216     -1798.19916        37.90016
G12  24293786.16214   -519890.63914     -4447.04814        28.20014
G31  21346677.30315    -17410.73715      -190.93915        35.30015
G11  25047715.02815   -510229.74515     -4381.67215        31.80015
R16  20947478.76226   -471098.28726     -4060.24626        36.20026
R09  19200647.76826    -10111.45426      -278.92126        35.50026
R10  21804768.87325    261289.60825      2217.38925        34.70025
C30  23182906.70825   -403015.39325     -3468.12925        35.00025
C36  22954889.06115   -414507.27415     -3572.33915        31.70015
C29  21552803.20515    -44755.86715      -415.65215        29.70015
> 2025 05 03 07 36 51.9999999  0 13                      
G18  22913687.68425     40118.21325      2102.54325        35.40025
G25  21151699.18325   -410045.57225     -3501.03825        33.60025
G29  20414043.95116   -208393.74716     -1801.32416        36.90016
G12  24294381.84914   -524337.26114     -4453.46014        28.10014
G28  21031605.92216   -225343.50816     -1952.87316        35.80016
G31  21346477.04115    -17599.39515      -196.84315        33.40015
G11  25048317.91015   -514606.56315     -4382.67815        30.10015
R16  20947995.60426   -475126.24126     -4060.67126        36.20026
R09  19200460.39825    -10377.31625      -279.37825        35.40025
R10  21804112.92725    263522.86925      2217.17125        34.50025
C30  23183334.81125   -406477.52725     -3468.03525        34.60025
C36  22955343.54615   -418071.48915     -3570.35115        31.60015
C29  21552638.01915    -45165.56115      -415.70515        29.60015
> 2025 05 03 07 36 53.0000000  0 12                      
G18  22913079.70525     42226.22625      2101.89125        35.40025
G25  21152158.16625   -413541.01325     -3501.54325        33.60025
G29  20414185.45316   -210185.33516     -1796.10716        36.00016
G28  21031770.20815   -227292.81815     -1956.27115        34.20015
G12  24295015.61114   -528790.77914     -4462.82614        27.90014
G31  21346309.45715    -17786.33315      -191.94215        31.80015
G11  25048948.97314   -518982.72614     -4381.69514        28.60014
R16  20948551.71926   -479203.11126     -4061.19126        36.20026
R09  19200290.41625    -10574.41325      -280.12225        35.30025
R10  21803482.46325    265779.77425      2216.92525        34.30025
C30  23183800.38925   -409940.21025     -3468.76525        34.30025
C29  21552505.51115    -45575.62915      -416.06515        29.50015
> 2025 05 03 07 36 53.9999999  0 12                      
G18  22912429.15525     44333.98425      2101.71025        35.40025
G25  21152577.57525   -417036.85225     -3501.95225        33.50025
G29  20414274.49215   -211979.18715     -1800.90015        35.20015
G28  21031890.72515   -229244.48115     -1958.75515        32.70015
G12  24295617.29414   -533244.20414     -4459.29114        27.80014
G31  21346095.70515    -17973.99915      -193.94815        30.40015
G11  25049521.87714   -523361.27614     -4385.65914        27.60014
R16  20949045.17826   -483168.35326     -4062.11626        36.10026
R09  19200097.34925    -10872.32725      -280.84625        35.20025
R10  21802829.81525    267932.98725      2216.57825        34.10025
C30  23184215.60225   -413403.17025     -3468.96025        34.00025
C29  21552344.22315    -45985.05715      -414.97215        29.50015
> 2025 05 03 07 36 55.0000000  0 12                      
G18  22911816.97925     46441.19425      2101.09025        35.30025
G25  21153044.65215   -420533.32215     -3502.63015        33.30015
G29  20414408.49915   -213773.14215     -1799.85015        34.40015
G28  21032053.51215   -231194.61215     -1955.20915        31.60015
G12  24296268.14414   -537693.75114     -4453.45214        27.60014
G11  25050152.34014   -527739.72014     -4384.23314        27.00014
G31  21345923.02514    -18165.03214      -198.56114        29.30014
C30  23184673.98415   -416867.20615     -3470.36415        33.70015
R16  20949617.78126   -487332.35626     -4062.30026        35.90026
C29  21552212.31414    -46391.46914      -410.69514        29.40014
R09  19199938.45915    -11130.55215      -282.25015        34.50015
R10  21802205.34715    270157.09415      2213.67015        33.20015
> 2025 05 03 07 36 56.0000000  0 12                      
G18  22911182.91825     48548.13325      2100.93725        35.30025
G11  25050738.73415   -532119.89015     -4386.89215        32.00015
G29  20414524.51915   -215568.19815     -1801.46815        33.90015
G28  21032181.52415   -233144.15015     -1955.10315        30.70015
G12  24296870.12714   -542148.09214     -4462.59614        27.50014
G25  21153471.25715   -424031.11515     -3504.31415        32.20015
G31  21345726.66114    -18355.81814      -196.52614        28.30014
C30  23185103.28715   -420330.04815     -3468.05315        33.40015
R16  20950133.42415   -491353.43115     -4065.59415        34.90015
R09  19199753.18715    -11407.11115      -284.52615        33.30015
C29  21552050.72614    -46800.79314      -416.59014        29.20014
R10  21801543.10615    272423.91615      2210.82915        31.90015
> 2025 05 03 07 36 57.0000000  0 11                      
G29  20414626.44826   -217363.77926     -1801.70526        36.00026
G31  21345529.99716    -18546.14316      -195.95816        38.10016
G18  22910547.35825     50654.28525      2099.89425        35.20025
G11  25051323.03015   -536498.54615     -4383.75815        32.00015
G28  21032325.12415   -235095.58115     -1958.24015        30.20015
G12  24297456.82114   -546603.63314     -4462.00014        27.30014
G25  21153907.45515   -427532.49915     -3509.04015        30.70015
R16  20950655.96315   -495411.19415     -4062.49715        34.10015
R09  19199582.60615    -11761.60215      -280.72615        32.70015
C30  23185530.49115   -423794.66015     -3471.30315        33.10015
R10  21800900.35115    274586.24515      2217.46015        31.20015
> 2025 05 03 07 36 58.0000000  0 12                      
G29  20414729.57726   -219160.14426     -1802.62026        39.10026
G31  21345323.74026    -18737.72826      -198.07926        38.10026
G18  22909905.80225     52759.91925      2099.51125        35.20025
G11  25051916.01915   -540878.14015     -4385.92415        31.80015
G28  21032459.73115   -237048.37715     -1959.34015        29.80015
G12  24298073.79414   -551063.62014     -4468.07014        27.10014
G25  21154339.75514   -431033.33214     -3506.41714        29.40014
R09  19199395.23515    -12026.70115      -285.07015        33.20015
R16  20951178.50115   -499468.19215     -4064.88715        33.80015
C30  23185963.69125   -427259.96725     -3471.46225        32.90025
R10  21800231.21415    276888.91315      2215.48815        31.00015
C29  21551746.13714    -47622.18414      -418.19714        27.50014
> 2025 05 03 07 36 59.0000000  0 13                      
G29  20414856.38926   -220957.20126     -1803.32026        39.20026
G31  21345141.46626    -18930.11426      -198.70426        38.20026
G18  22909288.23026     54864.96726      2098.83426        35.50026
G28  21032600.03415   -239001.74015     -1959.56415        29.70015
G11  25052535.39115   -545260.17015     -4389.16215        31.30015
G12  24298711.45214   -555525.25314     -4468.37214        26.80014
G25  21154773.55514   -434533.85314     -3506.28114        28.40014
R09  19199227.65125    -12300.93225      -285.25325        34.00025
R16  20951716.32915   -503510.63115     -4066.09815        33.50015
C30  23186417.87725   -430725.64025     -3471.71825        32.80025
R10  21799595.05415    279113.82015      2213.68715        31.00015
C36  22958541.13314    -10702.73514     -3570.81414        26.50014
C29  21551611.83014    -48034.04514      -417.70614        26.40014
> 2025 05 03 07 37 00.0000000  0 13                      
G29  20414959.81726   -222754.92226     -1803.89626        39.50026
G31  21344947.20126    -19123.44526      -199.64826        38.20026
G25  21155188.76814   -438034.59614     -3506.69714        29.40014
G18  22908649.67226     56969.59626      2098.57426        36.10026
G11  25053141.27115   -549641.95115     -4387.49915        30.80015
G28  21032738.23815   -240956.02115     -1960.58315        29.80015
G12  24299312.53614   -559983.90914     -4463.00714        26.60014
R09  19199043.87825    -12584.36625      -286.02725        35.10025
R16  20952243.36425   -507592.85225     -4066.25325        33.60025
C30  23186843.88225   -434191.91425     -3472.36225        33.30025
R10  21798940.00815    281341.74215      2212.84915        31.40015
C36  22958979.12914    -14268.62914     -3571.70114        28.50014
C29  21551455.93814    -48448.63714      -421.75014        25.60014
> 2025 05 03 07 37 01.0000001  0 13                      
G18  22908044.99027     59073.46527      2097.62427        43.30027
G29  20415100.42026   -224554.14526     -1805.08726        39.40026
G31  21344776.31916    -19318.07316      -201.14016        38.10016
G25  21155645.05216   -441534.62016     -3505.52416        35.70016
G11  25053772.03515   -554024.65615     -4389.02615        30.80015
G28  21032894.13015   -242912.50315     -1963.44515        29.90015
G12  24299973.57814   -564438.59214     -4458.55714        27.80014
R09  19198893.98225    -12889.96125      -287.44025        35.30025
C36  22959461.79515    -17835.54515     -3573.23615        34.50015
R16  20952791.38425   -511625.39225     -4067.29425        34.60025
C30  23187305.26325   -437658.81325     -3473.02025        33.60025
R10  21798314.64115    283572.71515      2209.36315        31.40015
C29  21551316.23414    -48865.56214      -423.90114        25.10014
> 2025 05 03 07 37 01.9999997  0 13                      
G18  22907315.29627     61176.59127      2096.88827        43.20027
G11  25054283.78015   -558408.76215     -4390.66615        33.00015
G29  20415116.30926   -226353.72726     -1805.87226        39.20026
G25  21155983.81726   -445035.51926     -3507.19726        35.60026
G31  21344488.21816    -19511.63216      -198.88916        37.50016
G28  21032942.39715   -244870.25715     -1964.25115        30.40015
G12  24300489.82114   -568892.10914     -4458.79314        28.40014
R09  19198616.07526    -13152.76826      -288.34126        35.60026
R16  20953222.78615   -515677.04015     -4068.60415        34.60015
C30  23187643.42825   -441126.66225     -3474.13025        33.80025
C36  22959817.64925    -21403.73325     -3574.63025        34.40025
R10  21797587.64415    285703.77215      2211.96315        31.30015
C29  21551077.89914    -49283.57314      -424.36414        25.00014
> 2025 05 03 07 37 03.0000001  0 13                      
G18  22906786.16227     63278.73627      2095.73627        43.20027
G11  25054986.49416   -562793.34016     -4390.73016        39.10016
G29  20415327.36326   -228154.43626     -1807.19126        39.00026
G25  21156518.04725   -448537.65425     -3508.67025        35.40025
G31  21344394.38316    -19707.52116      -202.97116        36.40016
G28  21033180.73215   -246829.33915     -1965.66415        30.50015
G12  24301217.11714   -573343.96914     -4456.94814        28.40014
R09  19198550.42026    -13490.41426      -289.59426        35.60026
C36  22960383.35725    -24972.59925     -3575.06825        34.30025
C30  23188180.35725   -444595.49125     -3475.18225        34.10025
R16  20953861.34415   -519776.80215     -4070.94915        34.50015
R10  21797030.03015    287990.46115      2212.29515        31.20015
C29  21551035.02914    -49702.59014      -425.38414        24.90014
> 2025 05 03 07 37 03.9999998  0 13                      
G18  22906058.86527     65380.39627      2095.57127        43.20027
G11  25055488.04726   -567178.60726     -4391.45226        39.00026
G29  20415342.65226   -229955.66226     -1807.32626        38.80026
G25  21156859.51115   -452039.80915     -3508.00715        35.10015
G31  21344105.98316    -19904.88616      -203.94816        35.50016
G28  21033240.99015   -248789.72115     -1966.87415        31.10015
G12  24301741.45414   -577794.35714     -4455.49214        28.20014
R09  19198273.71226    -13757.80526      -290.58626        35.60026
C36  22960748.20525    -28541.93325     -3575.35625        34.80025
R16  20954288.84815   -523807.05015     -4069.04915        34.40015
C30  23188512.52715   -448065.38315     -3476.21215        34.10015
R10  21796289.24315    290195.50115      2211.13815        31.30015
C29  21550788.60014    -50123.70214      -427.95214        25.40014
> 2025 05 03 07 37 04.9999998  0 13                      
G18  22905426.00427     67481.01627      2094.23527        43.20027
G29  20415448.47926   -231758.04426     -1808.82326        38.60026
G11  25056090.33026   -571564.39426     -4391.90726        38.70026
G31  21343903.32325    -20103.92625      -205.74225        35.00025
G25  21157287.31515   -455543.12915     -3509.76215        34.80015
G28  21033369.30115   -250751.44715     -1968.26115        31.10015
G12  24302360.52614   -582248.87514     -4462.44314        28.00014
R09  19198089.63926    -14042.00326      -291.49526        35.60026
C36  22961204.18925    -32112.50125     -3576.99325        35.10025
R16  20954815.28325   -527884.68525     -4071.66825        34.40025
C30  23188938.23215   -451535.10115     -3475.43915        34.00015
R10  21795640.19215    292392.15115      2209.50915        31.70015
C29  21550626.41214    -50546.65614      -429.68414        25.70014
> 2025 05 03 07 37 05.9999999  0 13                      
G18  22904822.52127     69581.15627      2094.03627        43.00027
G29  20415590.88126   -233561.33726     -1809.61126        38.40026
G11  25056728.88816   -575950.23116     -4391.72216        38.40016
G31  21343735.43925    -20303.97425      -206.41425        34.80025
G28  21033534.78715   -252713.88915     -1968.66115        31.30015
G25  21157756.19015   -459050.68215     -3515.53115        33.60015
G12  24303000.88314   -586708.38614     -4467.86714        27.80014
R09  19197934.04726    -14315.50726      -292.84326        35.60026
R16  20955373.49725   -531973.02025     -4071.83625        34.90025
C36  22961682.05815    -35683.39315     -3576.86115        35.00015
C30  23189396.61515   -455005.67015     -3476.80215        33.90015
R10  21795010.62815    294644.48015      2209.90315        32.10015
C29  21550496.00214    -50968.81814      -427.57614        26.00014
> 2025 05 03 07 37 06.9999999  0 13                      
G18  22904186.06227     71680.54727      2093.15027        42.80027
G29  20415697.30726   -235365.46726     -1810.41026        38.30026
G11  25057324.87516   -580337.66116     -4394.08616        38.00016
G31  21343533.08025    -20505.41225      -207.24725        35.20025
G28  21033669.39415   -254677.18715     -1969.58715        31.50015
G12  24303622.35214   -591168.18214     -4465.79914        27.70014
G25  21158189.39015   -462562.22415     -3519.39615        32.00015
R09  19197751.77326    -14608.11226      -293.66526        35.50026
R16  20955901.43125   -536059.82725     -4072.84425        35.20025
R10  21794365.77525    296818.24925      2209.31225        32.50025
C29  21550342.50815    -51390.26215      -426.89415        30.00015
C36  22962125.45115    -39254.41315     -3576.89115        34.60015
C30  23189827.71615   -458475.35115     -3475.04315        32.90015
> 2025 05 03 07 37 07.9999999  0 13                      
G18  22903566.99127     73779.44227      2092.72827        42.60027
G29  20415827.11726   -237170.50426     -1811.40826        38.20026
G11  25057930.75626   -584725.85826     -4394.49526        37.70026
G31  21343355.60226    -20707.56626      -208.67926        35.50026
G28  21033815.39315   -256641.89515     -1971.33115        31.50015
G25  21158630.08515   -466067.77615     -3508.47315        31.00015
G12  24304248.91914   -595623.33714     -4458.74914        27.50014
R16  20956448.55326   -540151.18126     -4073.64626        35.70026
R09  19197591.08426    -14919.01826      -295.20626        35.50026
C30  23190286.39915   -461947.14715     -3478.71715        32.30015
R10  21793728.41625    299048.49625      2208.60325        32.90025
C36  22962587.73115    -42824.45915     -3575.42115        33.70015
C29  21550208.50115    -51815.70515      -433.30715        30.70015
> 2025 05 03 07 37 08.9999999  0 13                      
G29  20415944.33626   -238976.14426     -1811.78426        38.10026
G18  22902932.33027     75877.69027      2092.07827        41.80027
G11  25058518.64926   -589114.35826     -4394.49326        37.60026
G31  21343150.54426    -20910.35626      -208.95426        35.50026
G25  21159067.48215   -469573.36215     -3511.44515        30.80015
G28  21033961.69115   -258607.72915     -1972.23915        31.50015
G12  24304856.89814   -600081.27314     -4465.16814        27.40014
R16  20956972.29026   -544215.82326     -4074.47326        39.20026
R09  19197411.50926    -15225.37526      -295.11426        35.50026
C30  23190715.10215   -465419.85115     -3478.94615        34.10015
R10  21793075.46825    301265.74125      2208.34825        32.90025
C36  22963043.41615    -46398.97415     -3582.53915        33.00015
C29  21550055.90715    -52240.08315      -429.63615        30.60015
> 2025 05 03 07 37 09.9999999  0 13                      
G29  20416046.86526   -240782.31926     -1812.30526        38.00026
G11  25059108.34026   -593503.49826     -4395.31926        37.40026
G31  21342958.07826    -21114.02526      -209.97126        35.80026
G18  22902284.47826     77975.27426      2091.38626        40.60026
G25  21159504.88015   -473079.79815     -3512.72115        31.80015
G28  21034106.79115   -260575.34915     -1974.37515        31.40015
G12  24305466.67614   -604539.87314     -4464.79114        27.30014
R16  20957499.92526   -548301.86626     -4074.99326        39.90026
C30  23191144.40525   -468893.09425     -3479.32125        34.90025
R09  19197227.43625    -15511.10225      -296.17925        35.40025
C36  22963491.00615    -49972.83915     -3579.34815        33.40015
R10  21792424.61825    303469.25525      2207.81225        32.90025
C29  21549891.62015    -52663.94915      -429.42015        30.60015
> 2025 05 03 07 37 10.9999999  0 12                      
G29  20416145.19726   -242588.88626     -1812.62626        37.80026
G11  25059710.02426   -597892.77826     -4395.21026        37.20026
G31  21342764.11226    -21318.29326      -210.43026        36.10026
G18  22901639.02526     80073.39226      2091.77026        39.30026
G25  21159936.88115   -476586.83815     -3513.20315        32.30015
G28  21034238.10015   -262542.01815     -1972.05515        31.40015
G12  24306089.64414   -608999.69914     -4466.29914        27.30014
R16  20958040.75026   -552457.46126     -4075.20126        39.70026
C30  23191571.90925   -472366.51225     -3479.31125        35.40025
R09  19197046.66125    -15811.34725      -296.72925        35.40025
C36  22963943.09325    -53546.74325     -3579.73025        34.50025
R10  21791773.46925    305676.58425      2208.13125        33.10025
> 2025 05 03 07 37 12.0000000  0 12                      
G29  20416278.30526   -244396.22726     -1813.59026        37.80026
G31  21342596.22826    -21523.39826      -211.38826        36.50026
G11  25060335.39126   -602282.14326     -4395.26826        37.10026
G18  22901035.84316     82170.26616      2090.63816        38.10016
G25  21160399.16025   -480094.45025     -3513.75925        32.50025
G28  21034405.68415   -264509.75515     -1974.13415        31.70015
G12  24306723.70514   -613459.07114     -4465.00514        27.60014
R16  20958588.17126   -556487.70826     -4075.94126        39.40026
R09  19196885.97225    -16058.10625      -297.44625        35.40025
C36  22964422.16125    -57121.23525     -3580.59325        35.20025
C30  23192027.29425   -475840.20625     -3479.64125        35.40025
R10  21791158.59525    307850.35325      2207.42825        33.30025
> 2025 05 03 07 37 13.0000000  0 12                      
G31  21342397.16626    -21728.24026      -210.57326        40.90026
G29  20416380.53426   -246203.61126     -1813.26726        37.70026
G11  25060933.77726   -606672.49926     -4395.96126        37.00026
G25  21160823.06725   -483602.80325     -3514.58425        33.00025
G18  22900402.38126     84266.66226      2090.29226        37.00026
G28  21034534.89515   -266479.12015     -1976.04115        31.90015
G12  24307340.67814   -617917.21514     -4463.39014        27.90014
R16  20959098.11826   -560477.44626     -4078.28926        39.20026
R09  19196701.30026    -16338.48726      -297.35326        35.50026
C36  22964871.25025    -60696.44025     -3581.36925        35.20025
C30  23192460.49425   -479314.80725     -3480.86125        35.40025
R10  21790509.54425    310046.24225      2209.23725        33.50025
> 2025 05 03 07 37 14.0000000  0 13                      
G31  21342213.69327    -21933.76927      -211.79127        44.70027
G29  20416505.84726   -248011.92126     -1814.69126        37.60026
G11  25061561.84226   -611063.29326     -4397.17826        36.80026
G18  22899797.40016     86363.40716      2090.99916        36.10016
G25  21161277.55225   -487110.79925     -3513.73325        33.00025
G28  21034692.88515   -268446.83415     -1972.80515        32.40015
G12  24307957.35114   -622374.22514     -4462.35814        28.10014
R16  20959645.53926   -564570.33026     -4077.48026        39.00026
R09  19196535.21526    -16620.35626      -298.75426        35.60026
C36  22965340.42615    -64271.44815     -3580.77115        35.20015
C30  23192916.47815   -482788.42715     -3478.99315        35.30015
C29  21549322.31515      -425.90615      -431.78215        31.20015
R10  21789876.38225    312255.89525      2207.97425        33.50025
> 2025 05 03 07 37 15.0000000  0 13                      
G31  21342016.72927    -22140.64427      -213.39327        44.60027
G29  20416605.97826   -249819.92526     -1813.69426        37.50026
G28  21034826.89226   -270415.92026     -1975.61526        37.30026
G11  25062164.72426   -615453.46726     -4395.70626        36.70026
G25  21161715.24925   -490618.91825     -3514.02225        33.00025
G18  22899174.73125     88460.21425      2090.99225        35.40025
G12  24308584.81714   -626829.83314     -4460.74814        28.20014
R16  20960161.78226   -568594.46226     -4076.54626        38.90026
R09  19196354.44026    -16920.60026      -298.97526        35.70026
C29  21549165.82325      -852.67925      -432.58325        35.10025
C30  23193345.18115   -486262.78215     -3480.51115        35.20015
C36  22965794.31115    -67846.61815     -3581.04015        35.10015
R10  21789228.23115    314447.96915      2206.25015        33.40015
> 2025 05 03 07 37 16.0000000  0 13                      
G31  21341820.06527    -22348.12527      -213.64627        44.40027
G28  21034974.09026   -272385.55326     -1975.76926        37.30026
G29  20416702.51126   -251628.84726     -1815.24326        37.30026
G11  25062747.52126   -619844.05426     -4396.65326        36.50026
G25  21162148.15025   -494127.63325     -3514.87325        32.90025
G18  22898547.26615     90558.09315      2092.55015        34.80015
G12  24309211.68314   -631291.15514     -4470.03914        28.20014
R16  20960686.41926   -572663.68926     -4077.74026        38.90026
C29  21549009.93126     -1279.94926      -433.32826        36.00026
C30  23193775.38326   -489737.67026     -3480.96126        35.80026
R09  19196176.36426    -17236.12726      -299.97026        35.80026
