NMEA,$GPGGA,073554.000,4504.2518,N,00741.0799,E,1,10,1.2,240.0,M,48.2,M,,*58,1746257753000
NMEA,$PSAMSA,073554.000,4504.2518,N,00741.0799,E,1,M,,*66,1746257753000
NMEA,$GPGLL,4504.2518,N,00741.0799,E,073554.000,A,A*57,1746257753000
NMEA,$GPVTG,41.1,T,,M,0.0,N,0.0,K,A*39,1746257753000
NMEA,$GPGSV,2,1,06,11,09,035,34,12,15,104,32,25,49,103,38,28,60,244,35*7C,1746257753000
NMEA,$GPGSV,2,2,06,29,79,033,31,31,49,291,45*7C,1746257753000
NMEA,$GLGSV,1,1,03,73,76,347,26,74,29,318,37,80,39,122,39*58,1746257753000
NMEA,$BDGSV,1,1,03,229,75,182,39,230,39,051,38,236,45,141,33*67,1746257753000
NMEA,$GPGSA,A,3,29,28,25,31,11,,,,,,,,2.2,1.2,1.8*3C,1746257753000
NMEA,$GNGSA,A,3,73,74,80,,,,,,,,,,2.2,1.2,1.8*29,1746257753000
NMEA,$BDGSA,A,3,229,236,,,,,,,,,,,2.2,1.2,1.8*27,1746257753000
NMEA,$GPRMC,073554.000,A,4504.2518,N,00741.0799,E,0.0,41.1,030525,,,A*55,1746257753000
NMEA,$PSAMCLK,2364,54577200,10,9747508,4888041,545772000*70,1746257753000
NMEA,$PSAMCLK,2364,54577200,10,9747508,4888041,545772000*70,1746257753000
NMEA,$GPGGA,073555.000,4504.2518,N,00741.0799,E,1,10,1.2,240.0,M,48.2,M,,*59,1746257754000
NMEA,$PSAMSA,073555.000,4504.2518,N,00741.0799,E,1,M,,*67,1746257754000
NMEA,$GPGLL,4504.2518,N,00741.0799,E,073555.000,A,A*56,1746257754000
NMEA,$GPVTG,41.1,T,,M,0.0,N,0.0,K,A*39,1746257754000
NMEA,$GPGSV,2,1,06,11,09,035,34,12,15,104,32,25,49,103,37,28,60,244,36*70,1746257754000
NMEA,$GPGSV,2,2,06,29,79,033,30,31,49,291,45*7D,1746257754000
NMEA,$GLGSV,1,1,03,73,76,347,26,74,29,318,37,80,39,122,39*58,1746257754000
NMEA,$BDGSV,1,1,03,229,75,182,39,230,39,051,38,236,45,141,33*67,1746257754000
NMEA,$GPGSA,A,3,29,28,25,31,11,,,,,,,,2.2,1.2,1.8*3C,1746257754000
NMEA,$GNGSA,A,3,73,74,80,,,,,,,,,,2.2,1.2,1.8*29,1746257754000
NMEA,$BDGSA,A,3,229,236,,,,,,,,,,,2.2,1.2,1.8*27,1746257754000
NMEA,$GPRMC,073555.000,A,4504.2518,N,00741.0799,E,0.0,41.1,030525,,,A*54,1746257754000
NMEA,$PSAMCLK,2364,54577300,10,9747510,4949914,545773000*7C,1746257754000
NMEA,$PSAMCLK,2364,54577300,10,9747510,4949914,545773000*7C,1746257754000
NMEA,$GPGGA,073556.000,4504.2518,N,00741.0799,E,1,10,1.2,240.0,M,48.2,M,,*5A,1746257755000
NMEA,$PSAMSA,073556.000,4504.2518,N,00741.0799,E,1,M,,*64,1746257755000
NMEA,$GPGLL,4504.2518,N,00741.0799,E,073556.000,A,A*55,1746257755000
NMEA,$GPVTG,41.1,T,,M,0.0,N,0.0,K,A*39,1746257755000
NMEA,$GPGSV,2,1,06,11,09,035,34,12,15,104,31,25,49,103,37,28,60,244,36*73,1746257755000
NMEA,$GPGSV,2,2,06,29,79,033,30,31,49,291,45*7D,1746257755000
NMEA,$GLGSV,1,1,04,73,76,347,26,74,29,318,37,80,39,122,39,88,32,113,28*67,1746257755000
NMEA,$BDGSV,1,1,03,229,75,182,39,230,39,051,38,236,45,141,32*66,1746257755000
NMEA,$GPGSA,A,3,29,28,25,31,11,,,,,,,,2.2,1.2,1.8*3C,1746257755000
NMEA,$GNGSA,A,3,73,74,80,,,,,,,,,,2.2,1.2,1.8*29,1746257755000
NMEA,$BDGSA,A,3,229,236,,,,,,,,,,,2.2,1.2,1.8*27,1746257755000
NMEA,$GPRMC,073556.000,A,4504.2518,N,00741.0799,E,0.0,41.1,030525,,,A*57,1746257755000
NMEA,$PSAMCLK,2364,54577400,10,9747494,5011786,545774000*71,1746257755000
NMEA,$PSAMCLK,2364,54577400,10,9747494,5011786,545774000*71,1746257755000
NMEA,$GPGGA,073557.000,4504.2518,N,00741.0799,E,1,10,1.2,240.0,M,48.2,M,,*5B,1746257756000
NMEA,$PSAMSA,073557.000,4504.2518,N,00741.0799,E,0,M,,*64,1746257756000
NMEA,$GPGLL,4504.2518,N,00741.0799,E,073557.000,A,A*54,1746257756000
NMEA,$GPVTG,41.1,T,,M,0.0,N,0.0,K,A*39,1746257756000
NMEA,$GPGSV,2,1,06,11,09,035,34,12,15,104,31,25,49,103,36,28,60,244,36*72,1746257756000
NMEA,$GPGSV,2,2,06,29,79,033,30,31,49,291,45*7D,1746257756000
NMEA,$GLGSV,1,1,04,73,76,347,26,74,29,318,37,80,39,122,39,88,32,113,28*67,1746257756000
NMEA,$BDGSV,1,1,03,229,75,182,38,230,39,051,38,236,45,141,32*67,1746257756000
NMEA,$GPGSA,A,3,29,28,25,31,11,,,,,,,,2.2,1.2,1.8*3C,1746257756000
NMEA,$GNGSA,A,3,73,74,80,,,,,,,,,,2.2,1.2,1.8*29,1746257756000
NMEA,$BDGSA,A,3,229,236,,,,,,,,,,,2.2,1.2,1.8*27,1746257756000
NMEA,$GPRMC,073557.000,A,4504.2518,N,00741.0799,E,0.0,41.1,030525,,,A*56,1746257756000
NMEA,$PSAMCLK,2364,54577500,10,9747587,5073657,545775000*7B,1746257756000
NMEA,$PSAMCLK,2364,54577500,10,9747587,5073657,545775000*7B,1746257756000
NMEA,$GPGGA,073558.000,4504.2518,N,00741.0799,E,1,10,1.2,240.0,M,48.2,M,,*54,1746257757000
NMEA,$PSAMSA,073558.000,4504.2518,N,00741.0799,E,0,M,,*6B,1746257757000
NMEA,$GPGLL,4504.2518,N,00741.0799,E,073558.000,A,A*5B,1746257757000
NMEA,$GPVTG,41.1,T,,M,0.0,N,0.0,K,A*39,1746257757000
NMEA,$GPGSV,2,1,06,11,09,035,36,12,15,104,31,25,49,103,36,28,60,244,37*71,1746257757000
NMEA,$GPGSV,2,2,06,29,79,033,38,31,49,291,45*75,1746257757000
NMEA,$GLGSV,1,1,04,73,76,347,39,74,29,318,37,80,39,122,39,88,32,113,28*69,1746257757000
NMEA,$BDGSV,1,1,03,229,75,182,38,230,39,051,38,236,45,141,32*67,1746257757000
NMEA,$GPGSA,A,3,29,28,25,31,11,,,,,,,,2.2,1.2,1.8*3C,1746257757000
NMEA,$GNGSA,A,3,73,74,80,,,,,,,,,,2.2,1.2,1.8*29,1746257757000
NMEA,$BDGSA,A,3,229,236,,,,,,,,,,,2.2,1.2,1.8*27,1746257757000
NMEA,$GPRMC,073558.000,A,4504.2518,N,00741.0799,E,0.0,41.1,030525,,,A*59,1746257757000
NMEA,$PSAMCLK,2364,54577600,10,9747608,5135533,545776000*7D,1746257757000
NMEA,$PSAMCLK,2364,54577600,10,9747608,5135533,545776000*7D,1746257757000
NMEA,$GPGGA,073559.000,4504.2518,N,00741.0799,E,1,10,1.2,240.0,M,48.2,M,,*55,1746257758000
NMEA,$PSAMSA,073559.000,4504.2518,N,00741.0799,E,0,M,,*6A,1746257758000
NMEA,$GPGLL,4504.2518,N,00741.0799,E,073559.000,A,A*5A,1746257758000
NMEA,$GPVTG,41.1,T,,M,0.0,N,0.0,K,A*39,1746257758000
NMEA,$GPGSV,2,1,06,11,09,035,42,12,15,104,31,25,49,103,36,28,60,244,37*72,1746257758000
NMEA,$GPGSV,2,2,06,29,79,033,41,31,49,291,45*7B,1746257758000
NMEA,$GLGSV,1,1,04,73,76,347,39,74,29,318,37,80,39,122,39,88,32,113,28*69,1746257758000
NMEA,$BDGSV,1,1,03,229,75,182,38,230,39,051,38,236,45,141,34*61,1746257758000
NMEA,$GPGSA,A,3,29,28,25,31,11,,,,,,,,2.2,1.2,1.8*3C,1746257758000
NMEA,$GNGSA,A,3,73,74,80,,,,,,,,,,2.2,1.2,1.8*29,1746257758000
NMEA,$BDGSA,A,3,229,236,,,,,,,,,,,2.2,1.2,1.8*27,1746257758000
NMEA,$GPRMC,073559.000,A,4504.2518,N,00741.0799,E,0.0,41.1,030525,,,A*58,1746257758000
NMEA,$PSAMCLK,2364,54577700,10,9747506,5197409,545777000*70,1746257758000
NMEA,$PSAMCLK,2364,54577700,10,9747506,5197409,545777000*70,1746257758000
NMEA,$GPGGA,073600.000,4504.2518,N,00741.0799,E,1,10,1.2,240.0,M,48.2,M,,*5A,1746257759000
NMEA,$PSAMSA,073600.000,4504.2518,N,00741.0799,E,0,M,,*65,1746257759000
NMEA,$GPGLL,4504.2518,N,00741.0799,E,073600.000,A,A*55,1746257759000
NMEA,$GPVTG,41.1,T,,M,0.0,N,0.0,K,A*39,1746257759000
NMEA,$GPGSV,2,1,06,11,09,035,42,12,15,104,31,25,49,103,35,28,60,244,37*71,1746257759000
NMEA,$GPGSV,2,2,06,29,79,033,41,31,49,291,45*7B,1746257759000
NMEA,$GLGSV,1,1,04,73,76,347,40,74,29,318,37,80,39,122,39,88,32,113,28*67,1746257759000
NMEA,$BDGSV,1,1,03,229,75,182,38,230,39,051,38,236,45,141,38*6D,1746257759000
NMEA,$GPGSA,A,3,29,28,25,31,11,,,,,,,,2.2,1.2,1.8*3C,1746257759000
NMEA,$GNGSA,A,3,73,74,80,,,,,,,,,,2.2,1.2,1.8*29,1746257759000
NMEA,$BDGSA,A,3,229,236,,,,,,,,,,,2.2,1.2,1.8*27,1746257759000
NMEA,$GPRMC,073600.000,A,4504.2518,N,00741.0799,E,0.0,41.1,030525,,,A*57,1746257759000
NMEA,$PSAMCLK,2364,54577800,10,9747520,5259288,545778000*7A,1746257759000
NMEA,$PSAMCLK,2364,54577800,10,9747520,5259288,545778000*7A,1746257759000
NMEA,$GPGGA,073601.000,4504.2518,N,00741.0799,E,1,10,1.2,240.0,M,48.2,M,,*5B,1746257760000
NMEA,$PSAMSA,073601.000,4504.2518,N,00741.0799,E,1,M,,*65,1746257760000
NMEA,$GPGLL,4504.2518,N,00741.0799,E,073601.000,A,A*54,1746257760000
NMEA,$GPVTG,41.1,T,,M,0.0,N,0.0,K,A*39,1746257760000
NMEA,$GPGSV,2,1,06,11,09,035,42,12,15,104,31,25,49,103,35,28,60,244,37*71,1746257760000
NMEA,$GPGSV,2,2,06,29,79,034,41,31,49,291,45*7C,1746257760000
NMEA,$GLGSV,1,1,04,73,76,347,39,74,29,318,37,80,39,122,38,88,32,113,28*68,1746257760000
NMEA,$BDGSV,1,1,03,229,75,182,38,230,39,051,38,236,45,141,38*6D,1746257760000
NMEA,$GPGSA,A,3,29,28,25,31,11,,,,,,,,2.2,1.2,1.8*3C,1746257760000
NMEA,$GNGSA,A,3,73,74,80,,,,,,,,,,2.2,1.2,1.8*29,1746257760000
NMEA,$BDGSA,A,3,229,236,,,,,,,,,,,2.2,1.2,1.8*27,1746257760000
NMEA,$GPRMC,073601.000,A,4504.2518,N,00741.0799,E,0.0,41.1,030525,,,A*56,1746257760000
NMEA,$PSAMCLK,2364,54577900,10,9747572,5321160,545779000*76,1746257760000
NMEA,$PSAMCLK,2364,54577900,10,9747572,5321160,545779000*76,1746257760000
NMEA,$GPGGA,073602.000,4504.2518,N,00741.0799,E,1,10,1.2,240.0,M,48.2,M,,*58,1746257761000
NMEA,$PSAMSA,073602.000,4504.2518,N,00741.0799,E,0,M,,*67,1746257761000
NMEA,$GPGLL,4504.2518,N,00741.0799,E,073602.000,A,A*57,1746257761000
NMEA,$GPVTG,41.1,T,,M,0.0,N,0.0,K,A*39,1746257761000
NMEA,$GPGSV,2,1,06,11,09,035,42,12,15,104,31,25,49,103,35,28,60,244,37*71,1746257761000
NMEA,$GPGSV,2,2,06,29,79,034,41,31,49,291,45*7C,1746257761000
NMEA,$GLGSV,1,1,04,73,76,347,39,74,29,318,37,80,39,122,38,88,32,113,28*68,1746257761000
NMEA,$BDGSV,1,1,03,229,75,182,37,230,39,051,38,236,45,141,38*62,1746257761000
NMEA,$GPGSA,A,3,29,28,25,31,11,,,,,,,,2.2,1.2,1.8*3C,1746257761000
NMEA,$GNGSA,A,3,73,74,80,,,,,,,,,,2.2,1.2,1.8*29,1746257761000
NMEA,$BDGSA,A,3,229,236,,,,,,,,,,,2.2,1.2,1.8*27,1746257761000
NMEA,$GPRMC,073602.000,A,4504.2518,N,00741.0799,E,0.0,41.1,030525,,,A*55,1746257761000
NMEA,$PSAMCLK,2364,54578000,10,9747583,5383024,545780000*71,1746257761000
NMEA,$PSAMCLK,2364,54578000,10,9747583,5383024,545780000*71,1746257761000
NMEA,$GPGGA,073603.000,4504.2518,N,00741.0799,E,1,10,1.2,240.0,M,48.2,M,,*59,1746257762000
NMEA,$PSAMSA,073603.000,4504.2518,N,00741.0799,E,1,M,,*67,1746257762000
NMEA,$GPGLL,4504.2518,N,00741.0799,E,073603.000,A,A*56,1746257762000
NMEA,$GPVTG,41.1,T,,M,0.0,N,0.0,K,A*39,1746257762000
NMEA,$GPGSV,2,1,06,11,09,035,41,12,15,104,30,25,49,103,35,28,60,244,38*7C,1746257762000
NMEA,$GPGSV,2,2,06,29,79,034,41,31,49,291,45*7C,1746257762000
NMEA,$GLGSV,1,1,04,73,76,347,39,74,29,318,37,80,39,122,38,88,32,113,28*68,1746257762000
NMEA,$BDGSV,1,1,03,229,75,182,37,230,39,051,38,236,45,141,37*6D,1746257762000
NMEA,$GPGSA,A,3,29,28,25,31,11,,,,,,,,2.2,1.2,1.8*3C,1746257762000
NMEA,$GNGSA,A,3,73,74,80,,,,,,,,,,2.2,1.2,1.8*29,1746257762000
NMEA,$BDGSA,A,3,229,236,,,,,,,,,,,2.2,1.2,1.8*27,1746257762000
NMEA,$GPRMC,073603.000,A,4504.2518,N,00741.0799,E,0.0,41.1,030525,,,A*54,1746257762000
NMEA,$PSAMCLK,2364,54578100,10,9747598,5444897,545781000*77,1746257762000
NMEA,$PSAMCLK,2364,54578100,10,9747598,5444897,545781000*77,1746257762000
NMEA,$GPGGA,073604.000,4504.2518,N,00741.0799,E,1,10,1.2,240.0,M,48.2,M,,*5E,1746257763000
NMEA,$PSAMSA,073604.000,4504.2518,N,00741.0799,E,1,M,,*60,1746257763000
NMEA,$GPGLL,4504.2518,N,00741.0799,E,073604.000,A,A*51,1746257763000
NMEA,$GPVTG,41.1,T,,M,0.0,N,0.0,K,A*39,1746257763000
NMEA,$GPGSV,2,1,06,11,09,035,40,12,15,104,30,25,49,103,35,28,60,244,38*7D,1746257763000
NMEA,$GPGSV,2,2,06,29,79,034,41,31,49,291,45*7C,1746257763000
NMEA,$GLGSV,1,1,04,73,76,347,38,74,29,318,37,80,39,122,38,88,32,113,28*69,1746257763000
NMEA,$BDGSV,1,1,03,229,75,182,36,230,39,051,38,236,45,141,36*6D,1746257763000
NMEA,$GPGSA,A,3,29,28,25,31,11,,,,,,,,2.2,1.2,1.8*3C,1746257763000
NMEA,$GNGSA,A,3,73,74,80,,,,,,,,,,2.2,1.2,1.8*29,1746257763000
NMEA,$BDGSA,A,3,229,236,,,,,,,,,,,2.2,1.2,1.8*27,1746257763000
NMEA,$GPRMC,073604.000,A,4504.2518,N,00741.0799,E,0.0,41.1,030525,,,A*53,1746257763000
NMEA,$PSAMCLK,2364,54578200,10,9747613,5506771,545782000*77,1746257763000
NMEA,$PSAMCLK,2364,54578200,10,9747613,5506771,545782000*77,1746257763000
NMEA,$GPGGA,073605.000,4504.2518,N,00741.0799,E,1,10,1.2,240.0,M,48.2,M,,*5F,1746257764000
NMEA,$PSAMSA,073605.000,4504.2518,N,00741.0799,E,1,M,,*61,1746257764000
NMEA,$GPGLL,4504.2518,N,00741.0799,E,073605.000,A,A*50,1746257764000
NMEA,$GPVTG,41.1,T,,M,0.0,N,0.0,K,A*39,1746257764000
NMEA,$GPGSV,2,1,06,11,09,035,40,12,15,104,30,25,49,103,37,28,60,244,38*7F,1746257764000
NMEA,$GPGSV,2,2,06,29,79,034,41,31,49,291,45*7C,1746257764000
NMEA,$GLGSV,1,1,04,73,76,347,38,74,29,318,36,80,39,122,38,88,32,113,28*68,1746257764000
NMEA,$BDGSV,1,1,03,229,75,182,36,230,39,051,37,236,45,141,36*62,1746257764000
NMEA,$GPGSA,A,3,29,28,25,31,11,,,,,,,,2.2,1.2,1.8*3C,1746257764000
NMEA,$GNGSA,A,3,73,74,80,,,,,,,,,,2.2,1.2,1.8*29,1746257764000
NMEA,$BDGSA,A,3,229,236,,,,,,,,,,,2.2,1.2,1.8*27,1746257764000
NMEA,$GPRMC,073605.000,A,4504.2518,N,00741.0799,E,0.0,41.1,030525,,,A*52,1746257764000
NMEA,$PSAMCLK,2364,54578300,10,9747601,5568644,545783000*7B,1746257764000
NMEA,$PSAMCLK,2364,54578300,10,9747601,5568644,545783000*7B,1746257764000
NMEA,$GPGGA,073606.000,4504.2518,N,00741.0799,E,1,10,1.2,240.0,M,48.2,M,,*5C,1746257765000
NMEA,$PSAMSA,073606.000,4504.2518,N,00741.0799,E,1,M,,*62,1746257765000
NMEA,$GPGLL,4504.2518,N,00741.0799,E,073606.000,A,A*53,1746257765000
NMEA,$GPVTG,41.1,T,,M,0.0,N,0.0,K,A*39,1746257765000
NMEA,$GPGSV,2,1,06,11,09,035,39,12,15,104,29,25,49,103,36,28,60,244,38*78,1746257765000
NMEA,$GPGSV,2,2,06,29,79,034,41,31,49,291,45*7C,1746257765000
NMEA,$GLGSV,1,1,04,73,76,347,38,74,29,318,36,80,39,122,38,88,32,113,28*68,1746257765000
NMEA,$BDGSV,1,1,03,229,75,182,36,230,39,051,37,236,45,141,35*61,1746257765000
NMEA,$GPGSA,A,3,29,28,25,31,11,,,,,,,,2.2,1.2,1.8*3C,1746257765000
NMEA,$GNGSA,A,3,73,74,80,,,,,,,,,,2.2,1.2,1.8*29,1746257765000
NMEA,$BDGSA,A,3,229,236,,,,,,,,,,,2.2,1.2,1.8*27,1746257765000
NMEA,$GPRMC,073606.000,A,4504.2518,N,00741.0799,E,0.0,41.1,030525,,,A*51,1746257765000
NMEA,$PSAMCLK,2364,54578400,10,9747603,5630517,545784000*72,1746257765000
NMEA,$PSAMCLK,2364,54578400,10,9747603,5630517,545784000*72,1746257765000
NMEA,$GPGGA,073607.000,4504.2518,N,00741.0799,E,1,10,1.2,240.0,M,48.2,M,,*5D,1746257766000
NMEA,$PSAMSA,073607.000,4504.2518,N,00741.0799,E,1,M,,*63,1746257766000
NMEA,$GPGLL,4504.2518,N,00741.0799,E,073607.000,A,A*52,1746257766000
NMEA,$GPVTG,41.1,T,,M,0.0,N,0.0,K,A*39,1746257766000
NMEA,$GPGSV,2,1,06,11,09,035,39,12,15,104,29,25,49,103,36,28,60,244,38*78,1746257766000
NMEA,$GPGSV,2,2,06,29,79,034,40,31,49,291,44*7C,1746257766000
NMEA,$GLGSV,1,1,04,73,76,347,38,74,29,318,36,80,39,122,38,88,32,113,28*68,1746257766000
NMEA,$BDGSV,1,1,03,229,75,182,35,230,39,051,37,236,45,141,35*62,1746257766000
NMEA,$GPGSA,A,3,29,28,25,31,11,,,,,,,,2.2,1.2,1.8*3C,1746257766000
NMEA,$GNGSA,A,3,73,74,80,,,,,,,,,,2.2,1.2,1.8*29,1746257766000
NMEA,$BDGSA,A,3,229,236,,,,,,,,,,,2.2,1.2,1.8*27,1746257766000
NMEA,$GPRMC,073607.000,A,4504.2518,N,00741.0799,E,0.0,41.1,030525,,,A*50,1746257766000
NMEA,$PSAMCLK,2364,54578500,10,9747605,5692391,545785000*74,1746257766000
NMEA,$PSAMCLK,2364,54578500,10,9747605,5692391,545785000*74,1746257766000
NMEA,$GPGGA,073608.000,4504.2518,N,00741.0799,E,1,10,1.2,240.0,M,48.2,M,,*52,1746257767000
NMEA,$PSAMSA,073608.000,4504.2518,N,00741.0799,E,1,M,,*6C,1746257767000
NMEA,$GPGLL,4504.2518,N,00741.0799,E,073608.000,A,A*5D,1746257767000
NMEA,$GPVTG,41.1,T,,M,0.0,N,0.0,K,A*39,1746257767000
NMEA,$GPGSV,2,1,06,11,09,035,38,12,15,104,29,25,49,103,36,28,60,244,38*79,1746257767000
NMEA,$GPGSV,2,2,06,29,79,034,40,31,49,291,44*7C,1746257767000
NMEA,$GLGSV,1,1,04,73,76,347,38,74,29,318,36,80,39,122,38,88,32,113,29*69,1746257767000
NMEA,$BDGSV,1,1,03,229,75,182,35,230,39,051,37,236,45,141,34*63,1746257767000
NMEA,$GPGSA,A,3,29,28,25,31,11,,,,,,,,2.2,1.2,1.8*3C,1746257767000
NMEA,$GNGSA,A,3,73,74,80,,,,,,,,,,2.2,1.2,1.8*29,1746257767000
NMEA,$BDGSA,A,3,229,236,,,,,,,,,,,2.2,1.2,1.8*27,1746257767000
NMEA,$GPRMC,073608.000,A,4504.2518,N,00741.0799,E,0.0,41.1,030525,,,A*5F,1746257767000
NMEA,$PSAMCLK,2364,54578600,10,9747625,5754265,545786000*77,1746257767000
NMEA,$PSAMCLK,2364,54578600,10,9747625,5754265,545786000*77,1746257767000
NMEA,$GPGGA,073609.000,4504.2518,N,00741.0799,E,1,10,1.2,240.0,M,48.2,M,,*53,1746257768000
NMEA,$PSAMSA,073609.000,4504.2518,N,00741.0799,E,1,M,,*6D,1746257768000
NMEA,$GPGLL,4504.2518,N,00741.0799,E,073609.000,A,A*5C,1746257768000
NMEA,$GPVTG,41.1,T,,M,0.0,N,0.0,K,A*39,1746257768000
NMEA,$GPGSV,2,1,06,11,09,035,40,12,15,104,29,25,49,103,36,28,60,244,38*76,1746257768000
NMEA,$GPGSV,2,2,06,29,79,034,40,31,49,291,44*7C,1746257768000
NMEA,$GLGSV,1,1,04,73,76,347,38,74,29,318,36,80,39,122,38,88,32,113,29*69,1746257768000
NMEA,$BDGSV,1,1,03,229,75,182,35,230,39,051,37,236,45,141,34*63,1746257768000
NMEA,$GPGSA,A,3,29,28,25,31,11,,,,,,,,2.2,1.2,1.8*3C,1746257768000
NMEA,$GNGSA,A,3,73,74,80,,,,,,,,,,2.2,1.2,1.8*29,1746257768000
NMEA,$BDGSA,A,3,229,236,,,,,,,,,,,2.2,1.2,1.8*27,1746257768000
NMEA,$GPRMC,073609.000,A,4504.2518,N,00741.0799,E,0.0,41.1,030525,,,A*5E,1746257768000
NMEA,$PSAMCLK,2364,54578700,10,9747647,5816140,545787000*7E,1746257768000
NMEA,$PSAMCLK,2364,54578700,10,9747647,5816140,545787000*7E,1746257768000
NMEA,$GPGGA,073610.000,4504.2518,N,00741.0799,E,1,10,1.2,240.0,M,48.2,M,,*5B,1746257769000
NMEA,$PSAMSA,073610.000,4504.2518,N,00741.0799,E,0,M,,*64,1746257769000
NMEA,$GPGLL,4504.2518,N,00741.0799,E,073610.000,A,A*54,1746257769000
NMEA,$GPVTG,41.1,T,,M,0.0,N,0.0,K,A*39,1746257769000
NMEA,$GPGSV,2,1,06,11,09,035,40,12,15,104,29,25,49,103,36,28,60,244,38*76,1746257769000
NMEA,$GPGSV,2,2,06,29,79,034,40,31,49,291,44*7C,1746257769000
NMEA,$GLGSV,2,1,05,73,76,347,38,74,29,318,37,80,39,122,38,87,33,057,29*65,1746257769000
NMEA,$GLGSV,2,2,05,88,32,113,29*59,1746257769000
NMEA,$BDGSV,1,1,03,229,75,182,35,230,39,051,37,236,45,141,33*64,1746257769000
NMEA,$GPGSA,A,3,29,28,25,31,11,,,,,,,,2.2,1.2,1.8*3C,1746257769000
NMEA,$GNGSA,A,3,73,74,80,,,,,,,,,,2.2,1.2,1.8*29,1746257769000
NMEA,$BDGSA,A,3,229,236,,,,,,,,,,,2.2,1.2,1.8*27,1746257769000
NMEA,$GPRMC,073610.000,A,4504.2518,N,00741.0799,E,0.0,41.1,030525,,,A*56,1746257769000
NMEA,$PSAMCLK,2364,54578800,10,9747696,5878027,545788000*7A,1746257769000
NMEA,$PSAMCLK,2364,54578800,10,9747696,5878027,545788000*7A,1746257769000
NMEA,$GPGGA,073611.000,4504.2530,N,00741.0797,E,1,09,1.4,242.1,M,48.2,M,,*53,1746257770000
NMEA,$PSAMSA,073611.000,4504.2530,N,00741.0797,E,0,M,,*61,1746257770000
NMEA,$GPGLL,4504.2530,N,00741.0797,E,073611.000,A,A*51,1746257770000
NMEA,$GPVTG,323.0,T,,M,0.9,N,1.7,K,A*00,1746257770000
NMEA,$GPGSV,2,1,06,11,09,035,40,12,15,104,29,25,49,103,36,28,60,244,38*76,1746257770000
NMEA,$GPGSV,2,2,06,29,79,034,40,31,49,291,43*7B,1746257770000
NMEA,$GLGSV,2,1,05,73,76,347,38,74,29,318,37,80,39,122,37,87,33,057,28*6B,1746257770000
NMEA,$GLGSV,2,2,05,88,32,113,29*59,1746257770000
NMEA,$BDGSV,1,1,03,229,75,182,35,230,39,051,37,236,45,141,33*64,1746257770000
NMEA,$GPGSA,A,3,29,28,25,31,11,,,,,,,,2.4,1.4,1.8*3C,1746257770000
NMEA,$GNGSA,A,3,73,74,,,,,,,,,,,2.4,1.4,1.8*21,1746257770000
NMEA,$BDGSA,A,3,229,236,,,,,,,,,,,2.4,1.4,1.8*27,1746257770000
NMEA,$GPRMC,073611.000,A,4504.2530,N,00741.0797,E,0.9,323.0,030525,,,A*6C,1746257770000
NMEA,$PSAMCLK,2364,54578900,9,9747778,5939898,545789000*4B,1746257770000
NMEA,$PSAMCLK,2364,54578900,9,9747778,5939898,545789000*4B,1746257770000
NMEA,$GPGGA,073612.000,4504.2531,N,00741.0793,E,1,10,1.2,241.7,M,48.2,M,,*5E,1746257771000
NMEA,$PSAMSA,073612.000,4504.2531,N,00741.0793,E,0,M,,*67,1746257771000
NMEA,$GPGLL,4504.2531,N,00741.0793,E,073612.000,A,A*57,1746257771000
NMEA,$GPVTG,323.0,T,,M,0.3,N,0.6,K,A*0A,1746257771000
NMEA,$GPGSV,2,1,06,11,09,035,40,12,15,104,29,25,49,103,36,28,60,244,38*76,1746257771000
NMEA,$GPGSV,2,2,06,29,79,034,40,31,49,291,43*7B,1746257771000
NMEA,$GLGSV,2,1,05,73,76,347,37,74,29,318,37,80,39,122,37,87,33,057,28*64,1746257771000
NMEA,$GLGSV,2,2,05,88,32,113,29*59,1746257771000
NMEA,$BDGSV,1,1,04,205,32,138,34,229,75,182,35,230,39,051,37,236,45,141,33*68,1746257771000
NMEA,$GPGSA,A,3,29,28,25,31,11,,,,,,,,2.2,1.2,1.8*3C,1746257771000
NMEA,$GNGSA,A,3,73,74,80,,,,,,,,,,2.2,1.2,1.8*29,1746257771000
NMEA,$BDGSA,A,3,229,236,,,,,,,,,,,2.2,1.2,1.8*27,1746257771000
NMEA,$GPRMC,073612.000,A,4504.2531,N,00741.0793,E,0.3,323.0,030525,,,A*60,1746257771000
NMEA,$PSAMCLK,2364,54579000,10,9747669,6001772,545790000*78,1746257771000
NMEA,$PSAMCLK,2364,54579000,10,9747669,6001772,545790000*78,1746257771000
NMEA,$GPGGA,073613.000,4504.2531,N,00741.0796,E,1,10,1.2,241.0,M,48.2,M,,*5D,1746257772000
NMEA,$PSAMSA,073613.000,4504.2531,N,00741.0796,E,0,M,,*63,1746257772000
NMEA,$GPGLL,4504.2531,N,00741.0796,E,073613.000,A,A*53,1746257772000
NMEA,$GPVTG,348.2,T,,M,0.5,N,0.9,K,A*0C,1746257772000
NMEA,$GPGSV,2,1,06,11,09,035,40,12,15,104,29,25,49,103,36,28,60,244,38*76,1746257772000
NMEA,$GPGSV,2,2,06,29,79,034,40,31,49,291,43*7B,1746257772000
NMEA,$GLGSV,2,1,05,73,76,347,37,74,29,318,36,80,39,122,37,87,33,057,28*65,1746257772000
NMEA,$GLGSV,2,2,05,88,32,113,29*59,1746257772000
NMEA,$BDGSV,1,1,04,205,32,138,33,229,75,182,35,230,39,051,38,236,45,141,33*60,1746257772000
NMEA,$GPGSA,A,3,29,28,25,31,11,,,,,,,,2.2,1.2,1.8*3C,1746257772000
NMEA,$GNGSA,A,3,73,74,80,,,,,,,,,,2.2,1.2,1.8*29,1746257772000
NMEA,$BDGSA,A,3,229,236,,,,,,,,,,,2.2,1.2,1.8*27,1746257772000
NMEA,$GPRMC,073613.000,A,4504.2531,N,00741.0796,E,0.5,348.2,030525,,,A*6D,1746257772000
NMEA,$PSAMCLK,2364,54579100,10,9747644,6063635,545791000*71,1746257772000
NMEA,$PSAMCLK,2364,54579100,10,9747644,6063635,545791000*71,1746257772000
NMEA,$GPGGA,073614.000,4504.2532,N,00741.0797,E,1,10,1.2,239.8,M,48.2,M,,*5F,1746257773000
NMEA,$PSAMSA,073614.000,4504.2532,N,00741.0797,E,0,M,,*66,1746257773000
NMEA,$GPGLL,4504.2532,N,00741.0797,E,073614.000,A,A*56,1746257773000
NMEA,$GPVTG,348.4,T,,M,0.4,N,0.7,K,A*05,1746257773000
NMEA,$GPGSV,2,1,06,11,09,035,40,12,15,104,28,25,49,103,36,28,60,244,38*77,1746257773000
NMEA,$GPGSV,2,2,06,29,79,034,40,31,49,291,43*7B,1746257773000
NMEA,$GLGSV,2,1,05,73,76,347,37,74,29,318,36,80,39,122,37,87,33,057,28*65,1746257773000
NMEA,$GLGSV,2,2,05,88,32,113,29*59,1746257773000
NMEA,$BDGSV,1,1,04,205,32,138,32,229,75,182,34,230,39,051,39,236,45,141,32*60,1746257773000
NMEA,$GPGSA,A,3,29,28,25,31,11,,,,,,,,2.2,1.2,1.8*3C,1746257773000
NMEA,$GNGSA,A,3,73,74,80,,,,,,,,,,2.2,1.2,1.8*29,1746257773000
NMEA,$BDGSA,A,3,229,236,,,,,,,,,,,2.2,1.2,1.8*27,1746257773000
NMEA,$GPRMC,073614.000,A,4504.2532,N,00741.0797,E,0.4,348.4,030525,,,A*6F,1746257773000
NMEA,$PSAMCLK,2364,54579200,10,9747695,6125501,545792000*7A,1746257773000
NMEA,$PSAMCLK,2364,54579200,10,9747695,6125501,545792000*7A,1746257773000
NMEA,$GPGGA,073615.000,4504.2536,N,00741.0802,E,1,11,1.0,238.8,M,48.2,M,,*5B,1746257774000
NMEA,$PSAMSA,073615.000,4504.2536,N,00741.0802,E,0,M,,*60,1746257774000
NMEA,$GPGLL,4504.2536,N,00741.0802,E,073615.000,A,A*50,1746257774000
NMEA,$GPVTG,348.4,T,,M,0.0,N,0.0,K,A*06,1746257774000
NMEA,$GPGSV,2,1,07,11,09,035,40,12,15,104,28,18,32,175,31,25,49,103,36*7A,1746257774000
NMEA,$GPGSV,2,2,07,28,60,244,38,29,79,034,40,31,49,291,43*4F,1746257774000
NMEA,$GLGSV,2,1,05,73,76,347,37,74,29,318,36,80,39,122,37,87,33,057,28*65,1746257774000
NMEA,$GLGSV,2,2,05,88,32,113,29*59,1746257774000
NMEA,$BDGSV,1,1,04,205,32,138,30,229,75,182,34,230,42,053,39,236,45,141,32*6C,1746257774000
NMEA,$GPGSA,A,3,29,28,25,31,11,,,,,,,,2.0,1.0,1.6*32,1746257774000
NMEA,$GNGSA,A,3,73,74,80,,,,,,,,,,2.0,1.0,1.6*27,1746257774000
NMEA,$BDGSA,A,3,229,230,236,,,,,,,,,,2.0,1.0,1.6*18,1746257774000
NMEA,$GPRMC,073615.000,A,4504.2536,N,00741.0802,E,0.0,348.4,030525,,,A*6D,1746257774000
NMEA,$PSAMCLK,2364,54579300,11,9747745,6187367,545793000*79,1746257774000
NMEA,$PSAMCLK,2364,54579300,11,9747745,6187367,545793000*79,1746257774000
NMEA,$GPGGA,073616.000,4504.2536,N,00741.0802,E,1,11,1.0,238.8,M,48.2,M,,*58,1746257775000
NMEA,$PSAMSA,073616.000,4504.2536,N,00741.0802,E,0,M,,*63,1746257775000
NMEA,$GPGLL,4504.2536,N,00741.0802,E,073616.000,A,A*53,1746257775000
NMEA,$GPVTG,348.4,T,,M,0.0,N,0.0,K,A*06,1746257775000
NMEA,$GPGSV,2,1,07,11,09,035,40,12,15,104,28,18,32,175,35,25,49,103,36*7E,1746257775000
NMEA,$GPGSV,2,2,07,28,60,244,37,29,79,034,40,31,49,291,43*40,1746257775000
NMEA,$GLGSV,2,1,05,73,76,347,37,74,29,318,36,80,39,122,36,87,33,057,28*64,1746257775000
NMEA,$GLGSV,2,2,05,88,32,113,30*51,1746257775000
NMEA,$BDGSV,1,1,04,205,32,138,29,229,75,182,34,230,42,053,40,236,45,141,32*6A,1746257775000
NMEA,$GPGSA,A,3,29,28,25,31,11,,,,,,,,2.0,1.0,1.6*32,1746257775000
NMEA,$GNGSA,A,3,73,74,80,,,,,,,,,,2.0,1.0,1.6*27,1746257775000
NMEA,$BDGSA,A,3,229,230,236,,,,,,,,,,2.0,1.0,1.6*18,1746257775000
NMEA,$GPRMC,073616.000,A,4504.2536,N,00741.0802,E,0.0,348.4,030525,,,A*6E,1746257775000
NMEA,$PSAMCLK,2364,54579400,11,9747704,6249234,545794000*7A,1746257775000
NMEA,$PSAMCLK,2364,54579400,11,9747704,6249234,545794000*7A,1746257775000
NMEA,$GPGGA,073617.000,4504.2536,N,00741.0802,E,1,11,1.0,238.8,M,48.2,M,,*59,1746257776000
NMEA,$PSAMSA,073617.000,4504.2536,N,00741.0802,E,1,M,,*63,1746257776000
NMEA,$GPGLL,4504.2536,N,00741.0802,E,073617.000,A,A*52,1746257776000
NMEA,$GPVTG,348.4,T,,M,0.0,N,0.0,K,A*06,1746257776000
NMEA,$GPGSV,2,1,07,11,09,035,40,12,15,104,28,18,32,175,36,25,49,103,36*7D,1746257776000
NMEA,$GPGSV,2,2,07,28,60,244,37,29,79,034,40,31,49,291,43*40,1746257776000
NMEA,$GLGSV,2,1,05,73,76,347,37,74,30,318,36,80,39,122,36,87,33,057,27*63,1746257776000
NMEA,$GLGSV,2,2,05,88,32,113,30*51,1746257776000
NMEA,$BDGSV,1,1,04,205,32,138,27,229,75,182,34,230,42,053,40,236,45,141,32*64,1746257776000
NMEA,$GPGSA,A,3,29,28,25,31,11,,,,,,,,2.0,1.0,1.6*32,1746257776000
NMEA,$GNGSA,A,3,73,74,80,,,,,,,,,,2.0,1.0,1.6*27,1746257776000
NMEA,$BDGSA,A,3,229,230,236,,,,,,,,,,2.0,1.0,1.6*18,1746257776000
NMEA,$GPRMC,073617.000,A,4504.2536,N,00741.0802,E,0.0,348.4,030525,,,A*6F,1746257776000
NMEA,$PSAMCLK,2364,54579500,11,9747715,6311107,545795000*75,1746257776000
NMEA,$PSAMCLK,2364,54579500,11,9747715,6311107,545795000*75,1746257776000
NMEA,$GPGGA,073618.000,4504.2536,N,00741.0802,E,1,10,1.2,238.8,M,48.2,M,,*55,1746257777000
NMEA,$PSAMSA,073618.000,4504.2536,N,00741.0802,E,1,M,,*6C,1746257777000
NMEA,$GPGLL,4504.2536,N,00741.0802,E,073618.000,A,A*5D,1746257777000
NMEA,$GPVTG,348.3,T,,M,0.0,N,0.0,K,A*01,1746257777000
NMEA,$GPGSV,2,1,07,11,09,035,40,12,15,104,28,18,32,175,37,25,49,103,39*73,1746257777000
NMEA,$GPGSV,2,2,07,28,60,244,37,29,79,034,40,31,49,291,42*41,1746257777000
NMEA,$GLGSV,2,1,05,73,76,347,37,74,30,318,36,80,39,122,36,87,33,057,27*63,1746257777000
NMEA,$GLGSV,2,2,05,88,32,113,30*51,1746257777000
NMEA,$BDGSV,1,1,04,205,32,138,26,229,75,182,34,230,42,053,40,236,45,141,32*65,1746257777000
NMEA,$GPGSA,A,3,29,28,25,31,11,,,,,,,,2.0,1.2,1.6*30,1746257777000
NMEA,$GNGSA,A,3,73,74,80,,,,,,,,,,2.0,1.2,1.6*25,1746257777000
NMEA,$BDGSA,A,3,230,236,,,,,,,,,,,2.0,1.2,1.6*23,1746257777000
NMEA,$GPRMC,073618.000,A,4504.2536,N,00741.0802,E,0.0,348.3,030525,,,A*67,1746257777000
NMEA,$PSAMCLK,2364,54579600,10,9747703,6372981,545796000*70,1746257777000
NMEA,$PSAMCLK,2364,54579600,10,9747703,6372981,545796000*70,1746257777000
NMEA,$GPGGA,073619.000,4504.2536,N,00741.0802,E,1,11,1.0,238.8,M,48.2,M,,*57,1746257778000
NMEA,$PSAMSA,073619.000,4504.2536,N,00741.0802,E,1,M,,*6D,1746257778000
NMEA,$GPGLL,4504.2536,N,00741.0802,E,073619.000,A,A*5C,1746257778000
NMEA,$GPVTG,348.3,T,,M,0.0,N,0.0,K,A*01,1746257778000
NMEA,$GPGSV,2,1,07,11,09,035,40,12,15,104,28,18,32,175,37,25,49,103,40*7D,1746257778000
NMEA,$GPGSV,2,2,07,28,60,244,37,29,79,034,40,31,49,290,42*40,1746257778000
NMEA,$GLGSV,2,1,05,73,76,347,37,74,30,318,36,80,39,122,36,87,33,057,27*63,1746257778000
NMEA,$GLGSV,2,2,05,88,32,113,30*51,1746257778000
NMEA,$BDGSV,1,1,04,205,32,138,24,229,75,182,33,230,42,053,40,236,45,141,32*60,1746257778000
NMEA,$GPGSA,A,3,29,28,25,31,11,,,,,,,,2.0,1.0,1.6*32,1746257778000
NMEA,$GNGSA,A,3,73,74,80,,,,,,,,,,2.0,1.0,1.6*27,1746257778000
NMEA,$BDGSA,A,3,229,230,236,,,,,,,,,,2.0,1.0,1.6*18,1746257778000
NMEA,$GPRMC,073619.000,A,4504.2536,N,00741.0802,E,0.0,348.3,030525,,,A*66,1746257778000
NMEA,$PSAMCLK,2364,54579700,11,9747722,6434854,545797000*7E,1746257778000
NMEA,$PSAMCLK,2364,54579700,11,9747722,6434854,545797000*7E,1746257778000
NMEA,$GPGGA,073620.000,4504.2536,N,00741.0802,E,1,11,1.0,238.8,M,48.2,M,,*5D,1746257779000
NMEA,$PSAMSA,073620.000,4504.2536,N,00741.0802,E,1,M,,*67,1746257779000
NMEA,$GPGLL,4504.2536,N,00741.0802,E,073620.000,A,A*56,1746257779000
NMEA,$GPVTG,348.3,T,,M,0.0,N,0.0,K,A*01,1746257779000
NMEA,$GPGSV,2,1,07,11,09,035,40,12,15,104,28,18,32,175,37,25,49,103,40*7D,1746257779000
NMEA,$GPGSV,2,2,07,28,60,244,37,29,79,034,40,31,49,290,42*40,1746257779000
NMEA,$GLGSV,2,1,05,73,76,347,37,74,30,318,36,80,39,122,36,87,33,057,27*63,1746257779000
NMEA,$GLGSV,2,2,05,88,32,113,29*59,1746257779000
NMEA,$BDGSV,1,1,04,205,32,138,23,229,75,182,33,230,42,053,40,236,45,141,32*67,1746257779000
NMEA,$GPGSA,A,3,29,28,25,31,11,,,,,,,,2.0,1.0,1.6*32,1746257779000
NMEA,$GNGSA,A,3,73,74,80,,,,,,,,,,2.0,1.0,1.6*27,1746257779000
NMEA,$BDGSA,A,3,229,230,236,,,,,,,,,,2.0,1.0,1.6*18,1746257779000
NMEA,$GPRMC,073620.000,A,4504.2536,N,00741.0802,E,0.0,348.3,030525,,,A*6C,1746257779000
NMEA,$PSAMCLK,2364,54579800,11,9747695,6496727,545798000*70,1746257779000
NMEA,$PSAMCLK,2364,54579800,11,9747695,6496727,545798000*70,1746257779000
NMEA,$GPGGA,073621.000,4504.2536,N,00741.0802,E,1,11,1.0,238.8,M,48.2,M,,*5C,1746257780000
NMEA,$PSAMSA,073621.000,4504.2536,N,00741.0802,E,0,M,,*67,1746257780000
NMEA,$GPGLL,4504.2536,N,00741.0802,E,073621.000,A,A*57,1746257780000
NMEA,$GPVTG,348.3,T,,M,0.0,N,0.0,K,A*01,1746257780000
NMEA,$GPGSV,2,1,07,11,09,035,40,12,15,104,28,18,32,175,37,25,49,103,40*7D,1746257780000
NMEA,$GPGSV,2,2,07,28,60,244,37,29,79,034,40,31,49,290,42*40,1746257780000
NMEA,$GLGSV,2,1,05,73,76,347,37,74,30,318,36,80,39,122,36,87,33,057,27*63,1746257780000
NMEA,$GLGSV,2,2,05,88,32,113,29*59,1746257780000
NMEA,$BDGSV,1,1,04,205,32,138,21,229,75,182,33,230,42,053,40,236,45,141,31*66,1746257780000
NMEA,$GPGSA,A,3,29,28,25,31,11,,,,,,,,2.0,1.0,1.6*32,1746257780000
NMEA,$GNGSA,A,3,73,74,80,,,,,,,,,,2.0,1.0,1.6*27,1746257780000
NMEA,$BDGSA,A,3,229,230,236,,,,,,,,,,2.0,1.0,1.6*18,1746257780000
NMEA,$GPRMC,073621.000,A,4504.2536,N,00741.0802,E,0.0,348.3,030525,,,A*6D,1746257780000
NMEA,$PSAMCLK,2364,54579900,11,9747729,6558598,545799000*73,1746257780000
NMEA,$PSAMCLK,2364,54579900,11,9747729,6558598,545799000*73,1746257780000
NMEA,$GPGGA,073622.000,4504.2536,N,00741.0802,E,1,11,1.0,238.8,M,48.2,M,,*5F,1746257781000
NMEA,$PSAMSA,073622.000,4504.2536,N,00741.0802,E,1,M,,*65,1746257781000
NMEA,$GPGLL,4504.2536,N,00741.0802,E,073622.000,A,A*54,1746257781000
NMEA,$GPVTG,348.3,T,,M,0.0,N,0.0,K,A*01,1746257781000
NMEA,$GPGSV,2,1,07,11,09,035,39,12,15,104,28,18,32,175,37,25,49,103,39*7D,1746257781000
NMEA,$GPGSV,2,2,07,28,60,244,37,29,79,034,40,31,49,290,42*40,1746257781000
NMEA,$GLGSV,2,1,05,73,76,347,37,74,30,318,36,80,39,122,35,87,33,057,27*60,1746257781000
NMEA,$GLGSV,2,2,05,88,32,113,28*58,1746257781000
NMEA,$BDGSV,1,1,04,205,32,138,20,229,75,182,33,230,42,053,40,236,45,141,31*67,1746257781000
NMEA,$GPGSA,A,3,29,28,25,31,11,,,,,,,,2.0,1.0,1.6*32,1746257781000
NMEA,$GNGSA,A,3,73,74,80,,,,,,,,,,2.0,1.0,1.6*27,1746257781000
NMEA,$BDGSA,A,3,229,230,236,,,,,,,,,,2.0,1.0,1.6*18,1746257781000
NMEA,$GPRMC,073622.000,A,4504.2536,N,00741.0802,E,0.0,348.3,030525,,,A*6E,1746257781000
NMEA,$PSAMCLK,2364,54580000,11,9747730,6620471,545800000*71,1746257781000
NMEA,$PSAMCLK,2364,54580000,11,9747730,6620471,545800000*71,1746257781000
NMEA,$GPGGA,073623.000,4504.2536,N,00741.0802,E,1,11,1.0,238.8,M,48.2,M,,*5E,1746257782000
NMEA,$PSAMSA,073623.000,4504.2536,N,00741.0802,E,1,M,,*64,1746257782000
NMEA,$GPGLL,4504.2536,N,00741.0802,E,073623.000,A,A*55,1746257782000
NMEA,$GPVTG,348.3,T,,M,0.0,N,0.0,K,A*01,1746257782000
NMEA,$GPGSV,2,1,07,11,09,035,39,12,15,104,28,18,32,175,37,25,49,103,39*7D,1746257782000
NMEA,$GPGSV,2,2,07,28,60,244,37,29,79,034,40,31,49,290,42*40,1746257782000
NMEA,$GLGSV,2,1,05,73,76,347,37,74,30,318,36,80,39,122,35,87,33,057,27*60,1746257782000
NMEA,$GLGSV,2,2,05,88,32,113,28*58,1746257782000
NMEA,$BDGSV,1,1,04,205,32,138,18,229,75,182,33,230,42,053,40,236,45,141,31*6C,1746257782000
NMEA,$GPGSA,A,3,29,28,25,31,11,,,,,,,,2.0,1.0,1.6*32,1746257782000
NMEA,$GNGSA,A,3,73,74,80,,,,,,,,,,2.0,1.0,1.6*27,1746257782000
NMEA,$BDGSA,A,3,229,230,236,,,,,,,,,,2.0,1.0,1.6*18,1746257782000
NMEA,$GPRMC,073623.000,A,4504.2536,N,00741.0802,E,0.0,348.3,030525,,,A*6F,1746257782000
NMEA,$PSAMCLK,2364,54580100,11,9747689,6682344,545801000*7B,1746257782000
NMEA,$PSAMCLK,2364,54580100,11,9747689,6682344,545801000*7B,1746257782000
NMEA,$GPGGA,073624.000,4504.2536,N,00741.0802,E,1,11,1.0,238.8,M,48.2,M,,*59,1746257783000
NMEA,$PSAMSA,073624.000,4504.2536,N,00741.0802,E,1,M,,*63,1746257783000
NMEA,$GPGLL,4504.2536,N,00741.0802,E,073624.000,A,A*52,1746257783000
NMEA,$GPVTG,348.3,T,,M,0.0,N,0.0,K,A*01,1746257783000
NMEA,$GPGSV,2,1,07,11,09,035,38,12,15,104,28,18,32,175,37,25,49,103,38*7D,1746257783000
NMEA,$GPGSV,2,2,07,28,60,244,37,29,79,034,40,31,49,290,42*40,1746257783000
NMEA,$GLGSV,2,1,05,73,76,347,37,74,30,318,36,80,39,122,35,87,33,057,27*60,1746257783000
NMEA,$GLGSV,2,2,05,88,32,113,27*57,1746257783000
NMEA,$BDGSV,1,1,04,205,32,138,17,229,75,182,33,230,42,053,40,236,45,141,31*63,1746257783000
NMEA,$GPGSA,A,3,29,28,25,31,11,,,,,,,,2.0,1.0,1.6*32,1746257783000
NMEA,$GNGSA,A,3,73,74,80,,,,,,,,,,2.0,1.0,1.6*27,1746257783000
NMEA,$BDGSA,A,3,229,230,236,,,,,,,,,,2.0,1.0,1.6*18,1746257783000
NMEA,$GPRMC,073624.000,A,4504.2536,N,00741.0802,E,0.0,348.3,030525,,,A*68,1746257783000
NMEA,$PSAMCLK,2364,54580200,11,9747704,6744218,545802000*7C,1746257783000
NMEA,$PSAMCLK,2364,54580200,11,9747704,6744218,545802000*7C,1746257783000
NMEA,$GPGGA,073625.000,4504.2536,N,00741.0802,E,1,11,1.0,238.8,M,48.2,M,,*58,1746257784000
NMEA,$PSAMSA,073625.000,4504.2536,N,00741.0802,E,1,M,,*62,1746257784000
NMEA,$GPGLL,4504.2536,N,00741.0802,E,073625.000,A,A*53,1746257784000
NMEA,$GPVTG,348.3,T,,M,0.0,N,0.0,K,A*01,1746257784000
NMEA,$GPGSV,2,1,07,11,09,035,38,12,15,104,28,18,32,175,37,25,49,103,38*7D,1746257784000
NMEA,$GPGSV,2,2,07,28,60,244,37,29,79,034,40,31,49,290,42*40,1746257784000
NMEA,$GLGSV,2,1,05,73,76,347,37,74,30,318,36,80,39,122,35,87,33,057,27*60,1746257784000
NMEA,$GLGSV,2,2,05,88,32,113,27*57,1746257784000
NMEA,$BDGSV,1,1,04,205,32,138,15,229,75,182,33,230,42,053,40,236,45,141,31*61,1746257784000
NMEA,$GPGSA,A,3,29,28,25,31,11,,,,,,,,2.0,1.0,1.6*32,1746257784000
NMEA,$GNGSA,A,3,73,74,80,,,,,,,,,,2.0,1.0,1.6*27,1746257784000
NMEA,$BDGSA,A,3,229,230,236,,,,,,,,,,2.0,1.0,1.6*18,1746257784000
NMEA,$GPRMC,073625.000,A,4504.2536,N,00741.0802,E,0.0,348.3,030525,,,A*69,1746257784000
NMEA,$PSAMCLK,2364,54580300,11,9747675,6806092,545803000*72,1746257784000
NMEA,$PSAMCLK,2364,54580300,11,9747675,6806092,545803000*72,1746257784000
NMEA,$GPGGA,073626.000,4504.2536,N,00741.0802,E,1,11,1.0,238.8,M,48.2,M,,*5B,1746257785000
NMEA,$PSAMSA,073626.000,4504.2536,N,00741.0802,E,1,M,,*61,1746257785000
NMEA,$GPGLL,4504.2536,N,00741.0802,E,073626.000,A,A*50,1746257785000
NMEA,$GPVTG,348.3,T,,M,0.0,N,0.0,K,A*01,1746257785000
NMEA,$GPGSV,2,1,07,11,09,035,38,12,15,104,28,18,32,175,37,25,49,103,37*72,1746257785000
NMEA,$GPGSV,2,2,07,28,60,244,37,29,79,034,40,31,49,290,41*43,1746257785000
NMEA,$GLGSV,2,1,05,73,76,347,37,74,30,318,36,80,39,122,35,87,33,057,27*60,1746257785000
NMEA,$GLGSV,2,2,05,88,32,113,26*56,1746257785000
NMEA,$BDGSV,1,1,04,205,32,138,14,229,75,182,33,230,42,053,40,236,45,141,31*60,1746257785000
NMEA,$GPGSA,A,3,29,28,25,31,11,,,,,,,,2.0,1.0,1.6*32,1746257785000
NMEA,$GNGSA,A,3,73,74,80,,,,,,,,,,2.0,1.0,1.6*27,1746257785000
NMEA,$BDGSA,A,3,229,230,236,,,,,,,,,,2.0,1.0,1.6*18,1746257785000
NMEA,$GPRMC,073626.000,A,4504.2536,N,00741.0802,E,0.0,348.3,030525,,,A*6A,1746257785000
NMEA,$PSAMCLK,2364,54580400,11,9747698,6867966,545804000*74,1746257785000
NMEA,$PSAMCLK,2364,54580400,11,9747698,6867966,545804000*74,1746257785000
NMEA,$GPGGA,073627.000,4504.2536,N,00741.0802,E,1,11,1.0,238.8,M,48.2,M,,*5A,1746257786000
NMEA,$PSAMSA,073627.000,4504.2536,N,00741.0802,E,0,M,,*61,1746257786000
NMEA,$GPGLL,4504.2536,N,00741.0802,E,073627.000,A,A*51,1746257786000
NMEA,$GPVTG,348.3,T,,M,0.0,N,0.0,K,A*01,1746257786000
NMEA,$GPGSV,2,1,07,11,09,035,38,12,15,104,28,18,32,175,36,25,49,103,37*73,1746257786000
NMEA,$GPGSV,2,2,07,28,60,244,37,29,79,034,40,31,49,290,41*43,1746257786000
NMEA,$GLGSV,2,1,05,73,76,347,37,74,30,318,36,80,39,122,35,87,33,057,27*60,1746257786000
NMEA,$GLGSV,2,2,05,88,32,113,28*58,1746257786000
NMEA,$BDGSV,1,1,04,205,32,138,13,229,75,182,32,230,42,053,39,236,45,141,31*68,1746257786000
NMEA,$GPGSA,A,3,29,28,25,31,11,,,,,,,,2.0,1.0,1.6*32,1746257786000
NMEA,$GNGSA,A,3,73,74,80,,,,,,,,,,2.0,1.0,1.6*27,1746257786000
NMEA,$BDGSA,A,3,229,230,236,,,,,,,,,,2.0,1.0,1.6*18,1746257786000
NMEA,$GPRMC,073627.000,A,4504.2536,N,00741.0802,E,0.0,348.3,030525,,,A*6B,1746257786000
NMEA,$PSAMCLK,2364,54580500,11,9747700,6929847,545805000*7D,1746257786000
NMEA,$PSAMCLK,2364,54580500,11,9747700,6929847,545805000*7D,1746257786000
NMEA,$GPGGA,073628.000,4504.2536,N,00741.0802,E,1,11,1.0,238.8,M,48.2,M,,*55,1746257787000
NMEA,$PSAMSA,073628.000,4504.2536,N,00741.0802,E,0,M,,*6E,1746257787000
NMEA,$GPGLL,4504.2536,N,00741.0802,E,073628.000,A,A*5E,1746257787000
NMEA,$GPVTG,348.3,T,,M,0.0,N,0.0,K,A*01,1746257787000
NMEA,$GPGSV,2,1,07,11,09,035,37,12,15,104,28,18,32,175,36,25,49,103,37*7C,1746257787000
NMEA,$GPGSV,2,2,07,28,60,244,37,29,79,034,40,31,49,290,41*43,1746257787000
NMEA,$GLGSV,2,1,05,73,76,347,36,74,30,318,36,80,39,122,35,87,33,057,27*61,1746257787000
NMEA,$GLGSV,2,2,05,88,32,113,28*58,1746257787000
NMEA,$BDGSV,1,1,04,205,32,138,13,229,75,182,32,230,42,053,39,236,45,141,31*68,1746257787000
NMEA,$GPGSA,A,3,29,28,25,31,11,,,,,,,,2.0,1.0,1.6*32,1746257787000
NMEA,$GNGSA,A,3,73,74,80,,,,,,,,,,2.0,1.0,1.6*27,1746257787000
NMEA,$BDGSA,A,3,229,230,236,,,,,,,,,,2.0,1.0,1.6*18,1746257787000
NMEA,$GPRMC,073628.000,A,4504.2536,N,00741.0802,E,0.0,348.3,030525,,,A*64,1746257787000
NMEA,$PSAMCLK,2364,54580600,11,9747683,6991719,545806000*70,1746257787000
NMEA,$PSAMCLK,2364,54580600,11,9747683,6991719,545806000*70,1746257787000
NMEA,$GPGGA,073629.000,4504.2536,N,00741.0802,E,1,11,1.0,238.8,M,48.2,M,,*54,1746257788000
NMEA,$PSAMSA,073629.000,4504.2536,N,00741.0802,E,1,M,,*6E,1746257788000
NMEA,$GPGLL,4504.2536,N,00741.0802,E,073629.000,A,A*5F,1746257788000
NMEA,$GPVTG,348.3,T,,M,0.0,N,0.0,K,A*01,1746257788000
NMEA,$GPGSV,2,1,07,11,09,035,37,12,15,104,28,18,32,175,36,25,49,103,36*7D,1746257788000
NMEA,$GPGSV,2,2,07,28,60,244,37,29,79,034,39,31,49,290,41*4D,1746257788000
NMEA,$GLGSV,2,1,05,73,76,347,36,74,30,318,36,80,39,122,35,87,33,057,27*61,1746257788000
NMEA,$GLGSV,2,2,05,88,32,113,28*58,1746257788000
NMEA,$BDGSV,1,1,03,229,75,182,32,230,42,053,38,236,45,141,32*63,1746257788000
NMEA,$GPGSA,A,3,29,28,25,31,11,,,,,,,,2.0,1.0,1.6*32,1746257788000
NMEA,$GNGSA,A,3,73,74,80,,,,,,,,,,2.0,1.0,1.6*27,1746257788000
NMEA,$BDGSA,A,3,229,230,236,,,,,,,,,,2.0,1.0,1.6*18,1746257788000
NMEA,$GPRMC,073629.000,A,4504.2536,N,00741.0802,E,0.0,348.3,030525,,,A*65,1746257788000
NMEA,$PSAMCLK,2364,54580700,11,9747680,7053592,545807000*74,1746257788000
NMEA,$PSAMCLK,2364,54580700,11,9747680,7053592,545807000*74,1746257788000
NMEA,$GPGGA,073630.000,4504.2536,N,00741.0802,E,1,11,1.0,238.8,M,48.2,M,,*5C,1746257789000
NMEA,$PSAMSA,073630.000,4504.2536,N,00741.0802,E,0,M,,*67,1746257789000
NMEA,$GPGLL,4504.2536,N,00741.0802,E,073630.000,A,A*57,1746257789000
NMEA,$GPVTG,348.3,T,,M,0.0,N,0.0,K,A*01,1746257789000
NMEA,$GPGSV,2,1,07,11,09,035,37,12,15,104,28,18,32,175,35,25,49,103,36*7E,1746257789000
NMEA,$GPGSV,2,2,07,28,60,244,37,29,79,034,39,31,49,290,41*4D,1746257789000
NMEA,$GLGSV,2,1,05,73,76,347,36,74,30,318,35,80,39,122,36,87,33,057,27*61,1746257789000
NMEA,$GLGSV,2,2,05,88,32,113,28*58,1746257789000
NMEA,$BDGSV,1,1,03,229,75,182,32,230,42,053,38,236,45,141,32*63,1746257789000
NMEA,$GPGSA,A,3,29,28,25,31,11,,,,,,,,2.0,1.0,1.6*32,1746257789000
NMEA,$GNGSA,A,3,73,74,80,,,,,,,,,,2.0,1.0,1.6*27,1746257789000
NMEA,$BDGSA,A,3,229,230,236,,,,,,,,,,2.0,1.0,1.6*18,1746257789000
NMEA,$GPRMC,073630.000,A,4504.2536,N,00741.0802,E,0.0,348.3,030525,,,A*6D,1746257789000
NMEA,$PSAMCLK,2364,54580800,11,9747652,7115469,545808000*7D,1746257789000
NMEA,$PSAMCLK,2364,54580800,11,9747652,7115469,545808000*7D,1746257789000
NMEA,$GPGGA,073631.000,4504.2536,N,00741.0802,E,1,11,1.0,238.8,M,48.2,M,,*5D,1746257790000
NMEA,$PSAMSA,073631.000,4504.2536,N,00741.0802,E,0,M,,*66,1746257790000
NMEA,$GPGLL,4504.2536,N,00741.0802,E,073631.000,A,A*56,1746257790000
NMEA,$GPVTG,348.3,T,,M,0.0,N,0.0,K,A*01,1746257790000
NMEA,$GPGSV,2,1,07,11,09,035,37,12,15,104,28,18,32,175,35,25,49,103,36*7E,1746257790000
NMEA,$GPGSV,2,2,07,28,60,244,37,29,79,034,39,31,49,290,41*4D,1746257790000
NMEA,$GLGSV,2,1,05,73,76,347,36,74,30,318,35,80,39,122,36,87,33,057,27*61,1746257790000
NMEA,$GLGSV,2,2,05,88,32,113,28*58,1746257790000
NMEA,$BDGSV,1,1,03,229,75,182,32,230,42,053,38,236,45,141,32*63,1746257790000
NMEA,$GPGSA,A,3,29,28,25,31,11,,,,,,,,2.0,1.0,1.6*32,1746257790000
NMEA,$GNGSA,A,3,73,74,80,,,,,,,,,,2.0,1.0,1.6*27,1746257790000
NMEA,$BDGSA,A,3,229,230,236,,,,,,,,,,2.0,1.0,1.6*18,1746257790000
NMEA,$GPRMC,073631.000,A,4504.2536,N,00741.0802,E,0.0,348.3,030525,,,A*6C,1746257790000
NMEA,$PSAMCLK,2364,54580900,11,9747665,7177342,545809000*73,1746257790000
NMEA,$PSAMCLK,2364,54580900,11,9747665,7177342,545809000*73,1746257790000
NMEA,$GPGGA,073632.000,4504.2536,N,00741.0802,E,1,10,1.2,238.8,M,48.2,M,,*5D,1746257791000
NMEA,$PSAMSA,073632.000,4504.2536,N,00741.0802,E,1,M,,*64,1746257791000
NMEA,$GPGLL,4504.2536,N,00741.0802,E,073632.000,A,A*55,1746257791000
NMEA,$GPVTG,348.3,T,,M,0.0,N,0.0,K,A*01,1746257791000
NMEA,$GPGSV,2,1,07,11,09,035,36,12,15,104,28,18,32,175,35,25,49,103,36*7F,1746257791000
NMEA,$GPGSV,2,2,07,28,60,244,37,29,79,034,39,31,49,290,40*4C,1746257791000
NMEA,$GLGSV,2,1,05,73,76,347,36,74,30,318,35,80,39,122,36,87,33,057,27*61,1746257791000
NMEA,$GLGSV,2,2,05,88,32,113,27*57,1746257791000
NMEA,$BDGSV,1,1,03,229,75,182,31,230,42,053,37,236,45,141,32*6F,1746257791000
NMEA,$GPGSA,A,3,29,28,25,31,,,,,,,,,2.4,1.2,2.0*31,1746257791000
NMEA,$GNGSA,A,3,73,74,80,,,,,,,,,,2.4,1.2,2.0*24,1746257791000
NMEA,$BDGSA,A,3,229,230,236,,,,,,,,,,2.4,1.2,2.0*1B,1746257791000
NMEA,$GPRMC,073632.000,A,4504.2536,N,00741.0802,E,0.0,348.3,030525,,,A*6F,1746257791000
NMEA,$PSAMCLK,2364,54581000,10,9747696,7239215,545810000*74,1746257791000
NMEA,$PSAMCLK,2364,54581000,10,9747696,7239215,545810000*74,1746257791000
NMEA,$GPGGA,073633.000,4504.2536,N,00741.0802,E,1,11,1.0,238.8,M,48.2,M,,*5F,1746257792000
NMEA,$PSAMSA,073633.000,4504.2536,N,00741.0802,E,1,M,,*65,1746257792000
NMEA,$GPGLL,4504.2536,N,00741.0802,E,073633.000,A,A*54,1746257792000
NMEA,$GPVTG,348.3,T,,M,0.0,N,0.0,K,A*01,1746257792000
NMEA,$GPGSV,2,1,07,11,09,035,35,12,15,104,28,18,32,175,35,25,49,103,36*7C,1746257792000
NMEA,$GPGSV,2,2,07,28,60,244,37,29,79,034,39,31,49,290,39*42,1746257792000
NMEA,$GLGSV,2,1,05,73,76,347,36,74,30,318,35,80,39,122,36,87,33,057,27*61,1746257792000
NMEA,$GLGSV,2,2,05,88,32,113,27*57,1746257792000
NMEA,$BDGSV,1,1,03,229,75,182,31,230,42,053,37,236,45,141,32*6F,1746257792000
NMEA,$GPGSA,A,3,29,28,25,31,11,,,,,,,,2.0,1.0,1.6*32,1746257792000
NMEA,$GNGSA,A,3,73,74,80,,,,,,,,,,2.0,1.0,1.6*27,1746257792000
NMEA,$BDGSA,A,3,229,230,236,,,,,,,,,,2.0,1.0,1.6*18,1746257792000
NMEA,$GPRMC,073633.000,A,4504.2536,N,00741.0802,E,0.0,348.3,030525,,,A*6E,1746257792000
NMEA,$PSAMCLK,2364,54581100,11,9747723,7301088,545811000*76,1746257792000
NMEA,$PSAMCLK,2364,54581100,11,9747723,7301088,545811000*76,1746257792000
NMEA,$GPGGA,073634.000,4504.2536,N,00741.0802,E,1,10,1.2,238.8,M,48.2,M,,*5B,1746257793000
NMEA,$PSAMSA,073634.000,4504.2536,N,00741.0802,E,0,M,,*63,1746257793000
NMEA,$GPGLL,4504.2536,N,00741.0802,E,073634.000,A,A*53,1746257793000
NMEA,$GPVTG,348.3,T,,M,0.0,N,0.0,K,A*01,1746257793000
NMEA,$GPGSV,2,1,07,11,09,035,34,12,15,104,28,18,32,175,35,25,49,103,35*7E,1746257793000
NMEA,$GPGSV,2,2,07,28,60,244,37,29,79,034,38,31,49,290,38*42,1746257793000
NMEA,$GLGSV,2,1,05,73,76,347,36,74,30,318,35,80,39,122,36,87,33,057,26*60,1746257793000
NMEA,$GLGSV,2,2,05,88,32,113,27*57,1746257793000
NMEA,$BDGSV,1,1,03,229,75,182,31,230,42,053,37,236,45,141,32*6F,1746257793000
NMEA,$GPGSA,A,3,29,28,25,31,,,,,,,,,2.4,1.2,2.0*31,1746257793000
NMEA,$GNGSA,A,3,73,74,80,,,,,,,,,,2.4,1.2,2.0*24,1746257793000
NMEA,$BDGSA,A,3,229,230,236,,,,,,,,,,2.4,1.2,2.0*1B,1746257793000
NMEA,$GPRMC,073634.000,A,4504.2536,N,00741.0802,E,0.0,348.3,030525,,,A*69,1746257793000
NMEA,$PSAMCLK,2364,54581200,10,9747756,7362956,545812000*7A,1746257793000
NMEA,$PSAMCLK,2364,54581200,10,9747756,7362956,545812000*7A,1746257793000
NMEA,$GPGGA,073635.000,4504.2536,N,00741.0802,E,1,09,1.4,238.8,M,48.2,M,,*54,1746257794000
NMEA,$PSAMSA,073635.000,4504.2536,N,00741.0802,E,0,M,,*62,1746257794000
NMEA,$GPGLL,4504.2536,N,00741.0802,E,073635.000,A,A*52,1746257794000
NMEA,$GPVTG,348.3,T,,M,0.0,N,0.0,K,A*01,1746257794000
NMEA,$GPGSV,2,1,07,11,09,035,33,12,15,104,28,18,32,175,35,25,49,103,35*79,1746257794000
NMEA,$GPGSV,2,2,07,28,60,244,36,29,79,034,38,31,49,290,37*4C,1746257794000
NMEA,$GLGSV,2,1,05,73,76,347,36,74,30,318,35,80,39,122,36,87,33,057,26*60,1746257794000
NMEA,$GLGSV,2,2,05,88,32,113,27*57,1746257794000
NMEA,$BDGSV,1,1,03,229,75,182,31,230,42,053,37,236,45,141,30*6D,1746257794000
NMEA,$GPGSA,A,3,29,28,25,31,,,,,,,,,2.6,1.4,2.2*37,1746257794000
NMEA,$GNGSA,A,3,73,74,80,,,,,,,,,,2.6,1.4,2.2*22,1746257794000
NMEA,$BDGSA,A,3,229,230,,,,,,,,,,,2.6,1.4,2.2*2A,1746257794000
NMEA,$GPRMC,073635.000,A,4504.2536,N,00741.0802,E,0.0,348.3,030525,,,A*68,1746257794000
NMEA,$PSAMCLK,2364,54581300,9,9747758,7424827,545813000*4E,1746257794000
NMEA,$PSAMCLK,2364,54581300,9,9747758,7424827,545813000*4E,1746257794000
NMEA,$GPGGA,073636.000,4504.2536,N,00741.0802,E,1,10,1.2,238.8,M,48.2,M,,*59,1746257795000
NMEA,$PSAMSA,073636.000,4504.2536,N,00741.0802,E,0,M,,*61,1746257795000
NMEA,$GPGLL,4504.2536,N,00741.0802,E,073636.000,A,A*51,1746257795000
NMEA,$GPVTG,348.3,T,,M,0.0,N,0.0,K,A*01,1746257795000
NMEA,$GPGSV,2,1,07,11,09,035,33,12,15,104,28,18,32,175,35,25,49,103,35*79,1746257795000
NMEA,$GPGSV,2,2,07,28,60,244,35,29,79,034,37,31,49,290,36*41,1746257795000
NMEA,$GLGSV,2,1,05,73,76,347,36,74,30,318,35,80,39,122,36,87,33,057,26*60,1746257795000
NMEA,$GLGSV,2,2,05,88,32,113,27*57,1746257795000
NMEA,$BDGSV,1,1,03,229,75,182,31,230,42,053,36,236,45,141,29*64,1746257795000
NMEA,$GPGSA,A,3,29,28,25,31,11,,,,,,,,2.2,1.2,1.8*3C,1746257795000
NMEA,$GNGSA,A,3,73,74,80,,,,,,,,,,2.2,1.2,1.8*29,1746257795000
NMEA,$BDGSA,A,3,229,230,,,,,,,,,,,2.2,1.2,1.8*21,1746257795000
NMEA,$GPRMC,073636.000,A,4504.2536,N,00741.0802,E,0.0,348.3,030525,,,A*6B,1746257795000
NMEA,$PSAMCLK,2364,54581400,10,9747796,7486699,545814000*77,1746257795000
NMEA,$PSAMCLK,2364,54581400,10,9747796,7486699,545814000*77,1746257795000
NMEA,$GPGGA,073637.000,4504.2536,N,00741.0802,E,1,09,1.4,238.8,M,48.2,M,,*56,1746257796000
NMEA,$PSAMSA,073637.000,4504.2536,N,00741.0802,E,0,M,,*60,1746257796000
NMEA,$GPGLL,4504.2536,N,00741.0802,E,073637.000,A,A*50,1746257796000
NMEA,$GPVTG,348.3,T,,M,0.0,N,0.0,K,A*01,1746257796000
NMEA,$GPGSV,2,1,07,11,09,035,32,12,15,104,28,18,32,175,35,25,49,103,35*78,1746257796000
NMEA,$GPGSV,2,2,07,28,60,244,35,29,79,034,37,31,49,290,35*42,1746257796000
NMEA,$GLGSV,2,1,05,73,76,347,35,74,30,318,34,80,39,122,36,87,33,057,25*61,1746257796000
NMEA,$GLGSV,2,2,05,88,32,113,26*56,1746257796000
NMEA,$BDGSV,1,1,03,229,75,182,31,230,42,053,36,236,45,141,27*6A,1746257796000
NMEA,$GPGSA,A,3,29,28,25,31,,,,,,,,,2.6,1.4,2.2*37,1746257796000
NMEA,$GNGSA,A,3,73,74,80,,,,,,,,,,2.6,1.4,2.2*22,1746257796000
NMEA,$BDGSA,A,3,229,230,,,,,,,,,,,2.6,1.4,2.2*2A,1746257796000
NMEA,$GPRMC,073637.000,A,4504.2536,N,00741.0802,E,0.0,348.3,030525,,,A*6A,1746257796000
NMEA,$PSAMCLK,2364,54581500,9,9747754,7548573,545815000*45,1746257796000
NMEA,$PSAMCLK,2364,54581500,9,9747754,7548573,545815000*45,1746257796000
NMEA,$GPGGA,073638.000,4504.2536,N,00741.0802,E,1,10,1.2,238.8,M,48.2,M,,*57,1746257797000
NMEA,$PSAMSA,073638.000,4504.2536,N,00741.0802,E,0,M,,*6F,1746257797000
NMEA,$GPGLL,4504.2536,N,00741.0802,E,073638.000,A,A*5F,1746257797000
NMEA,$GPVTG,348.3,T,,M,0.0,N,0.0,K,A*01,1746257797000
NMEA,$GPGSV,2,1,07,11,09,035,32,12,15,104,28,18,32,175,35,25,49,103,34*79,1746257797000
NMEA,$GPGSV,2,2,07,28,60,244,34,29,79,034,37,31,49,290,34*42,1746257797000
NMEA,$GLGSV,2,1,05,73,76,347,35,74,30,318,34,80,39,122,36,87,33,057,25*61,1746257797000
NMEA,$GLGSV,2,2,05,88,32,113,25*55,1746257797000
NMEA,$BDGSV,1,1,03,229,75,182,30,230,42,053,36,236,45,141,27*6B,1746257797000
NMEA,$GPGSA,A,3,29,28,25,31,11,,,,,,,,2.2,1.2,1.8*3C,1746257797000
NMEA,$GNGSA,A,3,73,74,80,,,,,,,,,,2.2,1.2,1.8*29,1746257797000
NMEA,$BDGSA,A,3,229,230,,,,,,,,,,,2.2,1.2,1.8*21,1746257797000
NMEA,$GPRMC,073638.000,A,4504.2536,N,00741.0802,E,0.0,348.3,030525,,,A*65,1746257797000
NMEA,$PSAMCLK,2364,54581600,10,9747821,7610448,545816000*77,1746257797000
NMEA,$PSAMCLK,2364,54581600,10,9747821,7610448,545816000*77,1746257797000
NMEA,$GPGGA,073639.000,4504.2536,N,00741.0802,E,1,09,1.2,238.8,M,48.2,M,,*5E,1746257798000
NMEA,$PSAMSA,073639.000,4504.2536,N,00741.0802,E,0,M,,*6E,1746257798000
NMEA,$GPGLL,4504.2536,N,00741.0802,E,073639.000,A,A*5E,1746257798000
NMEA,$GPVTG,348.3,T,,M,0.0,N,0.0,K,A*01,1746257798000
NMEA,$GPGSV,2,1,07,11,09,035,32,12,15,104,28,18,32,175,35,25,49,103,33*7E,1746257798000
NMEA,$GPGSV,2,2,07,28,60,244,34,29,79,034,37,31,49,290,38*4E,1746257798000
NMEA,$GLGSV,2,1,05,73,76,347,35,74,30,318,33,80,39,122,35,87,33,057,24*64,1746257798000
NMEA,$GLGSV,2,2,05,88,32,113,24*54,1746257798000
NMEA,$BDGSV,1,1,03,229,75,182,30,230,42,053,35,236,45,141,26*69,1746257798000
NMEA,$GPGSA,A,3,29,28,25,31,11,,,,,,,,2.2,1.2,1.8*3C,1746257798000
NMEA,$GNGSA,A,3,73,74,80,,,,,,,,,,2.2,1.2,1.8*29,1746257798000
NMEA,$BDGSA,A,3,230,,,,,,,,,,,,2.2,1.2,1.8*18,1746257798000
NMEA,$GPRMC,073639.000,A,4504.2536,N,00741.0802,E,0.0,348.3,030525,,,A*64,1746257798000
NMEA,$PSAMCLK,2364,54581700,9,9747845,7672326,545817000*46,1746257798000
NMEA,$PSAMCLK,2364,54581700,9,9747845,7672326,545817000*46,1746257798000
NMEA,$GPGGA,073640.000,4504.2536,N,00741.0802,E,1,10,1.2,238.8,M,48.2,M,,*58,1746257799000
NMEA,$PSAMSA,073640.000,4504.2536,N,00741.0802,E,1,M,,*61,1746257799000
NMEA,$GPGLL,4504.2536,N,00741.0802,E,073640.000,A,A*50,1746257799000
NMEA,$GPVTG,348.3,T,,M,0.0,N,0.0,K,A*01,1746257799000
NMEA,$GPGSV,2,1,07,11,09,035,32,12,15,104,28,18,32,175,35,25,49,103,33*7E,1746257799000
NMEA,$GPGSV,2,2,07,28,60,244,33,29,79,034,39,31,49,290,38*47,1746257799000
NMEA,$GLGSV,2,1,05,73,76,347,35,74,30,318,33,80,39,122,35,87,33,057,24*64,1746257799000
NMEA,$GLGSV,2,2,05,88,32,113,24*54,1746257799000
NMEA,$BDGSV,1,1,03,229,75,182,29,230,42,053,35,236,45,141,26*61,1746257799000
NMEA,$GPGSA,A,3,29,28,25,31,11,,,,,,,,2.2,1.2,1.8*3C,1746257799000
NMEA,$GNGSA,A,3,73,74,80,,,,,,,,,,2.2,1.2,1.8*29,1746257799000
NMEA,$BDGSA,A,3,229,230,,,,,,,,,,,2.2,1.2,1.8*21,1746257799000
NMEA,$GPRMC,073640.000,A,4504.2536,N,00741.0802,E,0.0,348.3,030525,,,A*6A,1746257799000
NMEA,$PSAMCLK,2364,54581800,10,9747866,7734201,545818000*78,1746257799000
NMEA,$PSAMCLK,2364,54581800,10,9747866,7734201,545818000*78,1746257799000
NMEA,$GPGGA,073641.000,4504.2536,N,00741.0802,E,1,11,1.0,238.8,M,48.2,M,,*5A,1746257800000
NMEA,$PSAMSA,073641.000,4504.2536,N,00741.0802,E,1,M,,*60,1746257800000
NMEA,$GPGLL,4504.2536,N,00741.0802,E,073641.000,A,A*51,1746257800000
NMEA,$GPVTG,348.3,T,,M,0.0,N,0.0,K,A*01,1746257800000
NMEA,$GPGSV,2,1,07,11,09,035,32,12,15,104,28,18,32,175,36,25,49,103,32*7C,1746257800000
NMEA,$GPGSV,2,2,07,28,60,244,33,29,79,034,39,31,49,290,38*47,1746257800000
NMEA,$GLGSV,2,1,05,73,76,347,34,74,30,318,33,80,39,122,35,87,33,057,24*65,1746257800000
NMEA,$GLGSV,2,2,05,88,32,113,24*54,1746257800000
NMEA,$BDGSV,1,1,03,229,75,182,29,230,42,053,35,236,45,141,27*60,1746257800000
NMEA,$GPGSA,A,3,29,28,25,31,11,,,,,,,,2.0,1.0,1.6*32,1746257800000
NMEA,$GNGSA,A,3,73,74,80,,,,,,,,,,2.0,1.0,1.6*27,1746257800000
NMEA,$BDGSA,A,3,229,230,236,,,,,,,,,,2.0,1.0,1.6*18,1746257800000
NMEA,$GPRMC,073641.000,A,4504.2536,N,00741.0802,E,0.0,348.3,030525,,,A*6B,1746257800000
NMEA,$PSAMCLK,2364,54581900,11,9747888,7796076,545819000*73,1746257800000
NMEA,$PSAMCLK,2364,54581900,11,9747888,7796076,545819000*73,1746257800000
NMEA,$GPGGA,073642.000,4504.2536,N,00741.0802,E,1,11,1.0,238.8,M,48.2,M,,*59,1746257801000
NMEA,$PSAMSA,073642.000,4504.2536,N,00741.0802,E,1,M,,*63,1746257801000
NMEA,$GPGLL,4504.2536,N,00741.0802,E,073642.000,A,A*52,1746257801000
NMEA,$GPVTG,348.3,T,,M,0.0,N,0.0,K,A*01,1746257801000
NMEA,$GPGSV,2,1,07,11,09,035,32,12,15,104,27,18,32,175,36,25,49,103,32*73,1746257801000
NMEA,$GPGSV,2,2,07,28,60,244,33,29,79,034,40,31,49,290,38*49,1746257801000
NMEA,$GLGSV,2,1,05,73,76,347,35,74,30,318,33,80,39,122,35,87,33,057,24*64,1746257801000
NMEA,$GLGSV,2,2,05,88,32,113,24*54,1746257801000
NMEA,$BDGSV,1,1,03,229,75,182,28,230,42,053,35,236,45,141,29*6F,1746257801000
NMEA,$GPGSA,A,3,29,28,25,31,11,,,,,,,,2.0,1.0,1.6*32,1746257801000
NMEA,$GNGSA,A,3,73,74,80,,,,,,,,,,2.0,1.0,1.6*27,1746257801000
NMEA,$BDGSA,A,3,229,230,236,,,,,,,,,,2.0,1.0,1.6*18,1746257801000
NMEA,$GPRMC,073642.000,A,4504.2536,N,00741.0802,E,0.0,348.3,030525,,,A*68,1746257801000
NMEA,$PSAMCLK,2364,54582000,11,9747912,7857951,545820000*7F,1746257801000
NMEA,$PSAMCLK,2364,54582000,11,9747912,7857951,545820000*7F,1746257801000
NMEA,$GPGGA,073643.000,4504.2536,N,00741.0802,E,1,11,1.0,238.8,M,48.2,M,,*58,1746257802000
NMEA,$PSAMSA,073643.000,4504.2536,N,00741.0802,E,0,M,,*63,1746257802000
NMEA,$GPGLL,4504.2536,N,00741.0802,E,073643.000,A,A*53,1746257802000
NMEA,$GPVTG,348.3,T,,M,0.0,N,0.0,K,A*01,1746257802000
NMEA,$GPGSV,2,1,07,11,09,035,31,12,15,104,28,18,32,175,43,25,49,103,36*79,1746257802000
NMEA,$GPGSV,2,2,07,28,60,244,32,29,79,034,40,31,49,290,38*48,1746257802000
NMEA,$GLGSV,2,1,05,73,76,347,35,74,30,318,33,80,39,122,35,87,33,057,24*64,1746257802000
NMEA,$GLGSV,2,2,05,88,32,113,24*54,1746257802000
NMEA,$BDGSV,1,1,03,229,75,182,28,230,42,053,35,236,45,141,35*62,1746257802000
NMEA,$GPGSA,A,3,29,28,25,31,11,,,,,,,,2.0,1.0,1.6*32,1746257802000
NMEA,$GNGSA,A,3,73,74,80,,,,,,,,,,2.0,1.0,1.6*27,1746257802000
NMEA,$BDGSA,A,3,229,230,236,,,,,,,,,,2.0,1.0,1.6*18,1746257802000
NMEA,$GPRMC,073643.000,A,4504.2536,N,00741.0802,E,0.0,348.3,030525,,,A*69,1746257802000
NMEA,$PSAMCLK,2364,54582100,11,9747951,7919825,545821000*71,1746257802000
NMEA,$PSAMCLK,2364,54582100,11,9747951,7919825,545821000*71,1746257802000
NMEA,$GPGGA,073644.000,4504.2536,N,00741.0802,E,1,11,1.0,238.8,M,48.2,M,,*5F,1746257803000
NMEA,$PSAMSA,073644.000,4504.2536,N,00741.0802,E,1,M,,*65,1746257803000
NMEA,$GPGLL,4504.2536,N,00741.0802,E,073644.000,A,A*54,1746257803000
NMEA,$GPVTG,348.3,T,,M,0.0,N,0.0,K,A*01,1746257803000
NMEA,$GPGSV,2,1,07,11,09,035,33,12,15,104,28,18,32,175,43,25,49,103,36*7B,1746257803000
NMEA,$GPGSV,2,2,07,28,60,244,32,29,79,034,39,31,49,290,38*46,1746257803000
NMEA,$GLGSV,2,1,05,73,76,347,36,74,30,318,33,80,39,122,35,87,33,057,24*67,1746257803000
NMEA,$GLGSV,2,2,05,88,32,113,24*54,1746257803000
NMEA,$BDGSV,1,1,03,229,75,182,28,230,42,053,35,236,45,141,35*62,1746257803000
NMEA,$GPGSA,A,3,29,28,25,31,11,,,,,,,,2.0,1.0,1.6*32,1746257803000
NMEA,$GNGSA,A,3,73,74,80,,,,,,,,,,2.0,1.0,1.6*27,1746257803000
NMEA,$BDGSA,A,3,229,230,236,,,,,,,,,,2.0,1.0,1.6*18,1746257803000
NMEA,$GPRMC,073644.000,A,4504.2536,N,00741.0802,E,0.0,348.3,030525,,,A*6E,1746257803000
NMEA,$PSAMCLK,2364,54582200,11,9747990,7981700,545822000*75,1746257803000
NMEA,$PSAMCLK,2364,54582200,11,9747990,7981700,545822000*75,1746257803000
NMEA,$GPGGA,073645.000,4504.2536,N,00741.0802,E,1,11,1.0,238.8,M,48.2,M,,*5E,1746257804000
NMEA,$PSAMSA,073645.000,4504.2536,N,00741.0802,E,0,M,,*65,1746257804000
NMEA,$GPGLL,4504.2536,N,00741.0802,E,073645.000,A,A*55,1746257804000
NMEA,$GPVTG,348.3,T,,M,0.0,N,0.0,K,A*01,1746257804000
NMEA,$GPGSV,2,1,07,11,09,035,39,12,15,104,28,18,32,175,43,25,49,103,36*71,1746257804000
NMEA,$GPGSV,2,2,07,28,60,244,32,29,79,034,39,31,49,290,37*49,1746257804000
NMEA,$GLGSV,2,1,05,73,76,347,36,74,30,318,32,80,39,122,35,87,33,057,24*66,1746257804000
NMEA,$GLGSV,2,2,05,88,32,113,24*54,1746257804000
NMEA,$BDGSV,1,1,03,229,75,182,28,230,41,053,35,236,45,141,34*60,1746257804000
NMEA,$GPGSA,A,3,29,28,25,31,11,,,,,,,,2.0,1.0,1.6*32,1746257804000
NMEA,$GNGSA,A,3,73,74,80,,,,,,,,,,2.0,1.0,1.6*27,1746257804000
NMEA,$BDGSA,A,3,229,230,236,,,,,,,,,,2.0,1.0,1.6*18,1746257804000
NMEA,$GPRMC,073645.000,A,4504.2536,N,00741.0802,E,0.0,348.3,030525,,,A*6F,1746257804000
NMEA,$PSAMCLK,2364,54582300,11,9748075,8043577,545823000*72,1746257804000
NMEA,$PSAMCLK,2364,54582300,11,9748075,8043577,545823000*72,1746257804000
NMEA,$GPGGA,073646.000,4504.2536,N,00741.0802,E,1,11,1.0,238.8,M,48.2,M,,*5D,1746257805000
NMEA,$PSAMSA,073646.000,4504.2536,N,00741.0802,E,0,M,,*66,1746257805000
NMEA,$GPGLL,4504.2536,N,00741.0802,E,073646.000,A,A*56,1746257805000
NMEA,$GPVTG,348.3,T,,M,0.0,N,0.0,K,A*01,1746257805000
NMEA,$GPGSV,2,1,07,11,09,035,39,12,15,104,28,18,32,175,43,25,49,103,35*72,1746257805000
NMEA,$GPGSV,2,2,07,28,60,244,32,29,79,034,39,31,49,290,37*49,1746257805000
NMEA,$GLGSV,2,1,05,73,76,347,36,74,30,318,32,80,39,122,35,87,33,057,24*66,1746257805000
NMEA,$GLGSV,2,2,05,88,32,113,24*54,1746257805000
NMEA,$BDGSV,1,1,03,229,75,182,27,230,41,053,35,236,45,141,35*6E,1746257805000
NMEA,$GPGSA,A,3,29,28,25,31,11,,,,,,,,2.0,1.0,1.6*32,1746257805000
NMEA,$GNGSA,A,3,73,74,80,,,,,,,,,,2.0,1.0,1.6*27,1746257805000
NMEA,$BDGSA,A,3,229,230,236,,,,,,,,,,2.0,1.0,1.6*18,1746257805000
NMEA,$GPRMC,073646.000,A,4504.2536,N,00741.0802,E,0.0,348.3,030525,,,A*6C,1746257805000
NMEA,$PSAMCLK,2364,54582400,11,9748113,8105454,545824000*70,1746257805000
NMEA,$PSAMCLK,2364,54582400,11,9748113,8105454,545824000*70,1746257805000
NMEA,$GPGGA,073647.000,4504.2536,N,00741.0802,E,1,11,1.0,238.8,M,48.2,M,,*5C,1746257806000
NMEA,$PSAMSA,073647.000,4504.2536,N,00741.0802,E,0,M,,*67,1746257806000
NMEA,$GPGLL,4504.2536,N,00741.0802,E,073647.000,A,A*57,1746257806000
NMEA,$GPVTG,348.3,T,,M,0.0,N,0.0,K,A*01,1746257806000
NMEA,$GPGSV,2,1,07,11,09,035,39,12,15,104,28,18,32,175,43,25,49,103,35*72,1746257806000
NMEA,$GPGSV,2,2,07,28,60,244,32,29,79,034,39,31,49,290,37*49,1746257806000
NMEA,$GLGSV,2,1,05,73,76,347,36,74,30,318,32,80,39,122,35,87,33,057,24*66,1746257806000
NMEA,$GLGSV,2,2,05,88,32,113,25*55,1746257806000
NMEA,$BDGSV,1,1,03,229,75,182,27,230,41,053,34,236,45,141,35*6F,1746257806000
NMEA,$GPGSA,A,3,29,28,25,31,11,,,,,,,,2.0,1.0,1.6*32,1746257806000
NMEA,$GNGSA,A,3,73,74,80,,,,,,,,,,2.0,1.0,1.6*27,1746257806000
NMEA,$BDGSA,A,3,229,230,236,,,,,,,,,,2.0,1.0,1.6*18,1746257806000
NMEA,$GPRMC,073647.000,A,4504.2536,N,00741.0802,E,0.0,348.3,030525,,,A*6D,1746257806000
NMEA,$PSAMCLK,2364,54582500,11,9748209,8167333,545825000*7A,1746257806000
NMEA,$PSAMCLK,2364,54582500,11,9748209,8167333,545825000*7A,1746257806000
NMEA,$GPGGA,073648.000,4504.2536,N,00741.0802,E,1,11,1.0,238.8,M,48.2,M,,*53,1746257807000
NMEA,$PSAMSA,073648.000,4504.2536,N,00741.0802,E,0,M,,*68,1746257807000
NMEA,$GPGLL,4504.2536,N,00741.0802,E,073648.000,A,A*58,1746257807000
NMEA,$GPVTG,348.3,T,,M,0.0,N,0.0,K,A*01,1746257807000
NMEA,$GPGSV,2,1,07,11,09,035,39,12,15,104,28,18,32,175,43,25,49,103,35*72,1746257807000
NMEA,$GPGSV,2,2,07,28,60,244,32,29,79,034,39,31,49,290,37*49,1746257807000
NMEA,$GLGSV,2,1,05,73,76,348,36,74,30,318,32,80,39,122,35,87,33,057,24*69,1746257807000
NMEA,$GLGSV,2,2,05,88,33,113,25*54,1746257807000
NMEA,$BDGSV,1,1,03,229,75,181,27,230,41,053,34,236,44,141,35*6D,1746257807000
NMEA,$GPGSA,A,3,29,28,31,25,11,,,,,,,,2.0,1.0,1.6*32,1746257807000
NMEA,$GNGSA,A,3,73,74,80,,,,,,,,,,2.0,1.0,1.6*27,1746257807000
NMEA,$BDGSA,A,3,229,230,236,,,,,,,,,,2.0,1.0,1.6*18,1746257807000
NMEA,$GPRMC,073648.000,A,4504.2536,N,00741.0802,E,0.0,348.3,030525,,,A*62,1746257807000
NMEA,$PSAMCLK,2364,54582600,11,9748188,8229212,545826000*7B,1746257807000
NMEA,$PSAMCLK,2364,54582600,11,9748188,8229212,545826000*7B,1746257807000
NMEA,$GPGGA,073649.000,4504.2536,N,00741.0802,E,1,11,1.0,238.8,M,48.2,M,,*52,1746257808000
NMEA,$PSAMSA,073649.000,4504.2536,N,00741.0802,E,1,M,,*68,1746257808000
NMEA,$GPGLL,4504.2536,N,00741.0802,E,073649.000,A,A*59,1746257808000
NMEA,$GPVTG,348.3,T,,M,0.0,N,0.0,K,A*01,1746257808000
NMEA,$GPGSV,2,1,07,11,09,035,39,12,15,104,28,18,32,175,43,25,49,103,34*73,1746257808000
NMEA,$GPGSV,2,2,07,28,60,244,32,29,79,034,39,31,49,290,36*48,1746257808000
NMEA,$GLGSV,2,1,05,73,76,348,36,74,30,318,33,80,39,122,35,87,33,057,24*68,1746257808000
NMEA,$GLGSV,2,2,05,88,33,113,25*54,1746257808000
NMEA,$BDGSV,1,1,03,229,75,181,30,230,41,053,34,236,44,141,35*6B,1746257808000
