     4.01           OBSERVATION DATA    M                   RINEX VERSION / TYPE
GnssLogger          Xiaomi 12           20250503 080039 UTC PGM / RUN BY / DATE
Google GnssLogger                                           MARKER NAME
Unknown                                                     MARKER NUMBER
Unknown             Unknown                                 OBSERVER / AGENCY
Unknown             GnssLogger          v3.1.0.4            REC # / TYPE / VERS
Unknown             Unknown                                 ANT # / TYPE
        0.0000        0.0000        0.0000                  ANTENNA: DELTA H/E/N
G    6 C1C D1C S1C C5Q D5Q S5Q                              SYS / # / OBS TYPES
R    3 C1C D1C S1C                                          SYS / # / OBS TYPES
C    9 C2I D2I S2I C5P D5P S5P C1P D1P S1P                  SYS / # / OBS TYPES
E    6 C1C D1C S1C C5Q D5Q S5Q                              SYS / # / OBS TYPES
  2025    05    03    08    00   39.0000000     GPS         TIME OF FIRST OBS
 8 R01  1 R02 -4 R09 -2 R10 -7 R16 -1 R18 -3 R19  3 R20  2  GLONASS SLOT / FRQ #
Xiaomi 2107113SG (Android 12) HW Year: 2018 HW Model:       COMMENT
qcom;MPSS.HI.4.3.c2-00084-LC_ALL_PACK-1.4500.49.6980.77;    COMMENT
                                                            END OF HEADER
> 2025 05 03 08 00 39.4279522  0 27                      
G05  24065140.68025      1930.49225        31.70025                                                
G20  24243131.35923      -389.05023        18.20023                                                
G25  21833443.95124     -2732.22424        28.80024  21831096.87623     -2041.10023        22.40023
G26  22139302.41024      2675.70024        23.50024  22136939.74624      1996.20224        26.20024
G28  21354639.72124     -1640.89024        29.20024  21352274.65824     -1225.63624        27.70024
G29  20653423.66225     -1177.36625        30.40025                                                
G31  21193913.48924        74.30024        27.90024                                                
R10  20925521.59323      3065.35023        23.40023
R18  21904701.32124     -3797.75024        24.50024
R09  19067788.97424        11.30024        26.10024
R16  21787023.48824     -3436.70024        26.50024
C45  21726482.79924      -316.70024        27.60024  21724598.00423      -237.20023        21.90023  21726527.76824      -317.65024        28.20024
C38  39479685.81223       769.95023        23.40023                                                  39479713.99324       778.62624        29.40024
C36  23660563.26325     -2779.14725        31.00025  23658682.66524     -2094.74124        27.90024  23660583.64925     -2804.97225        31.00025
C35  24359067.99823      2914.65023        19.80023                                                                                                
C30  23852996.14424     -2612.40024        27.90024                                                  23853023.42625     -2637.35225        33.40025
C29  21425686.03624       124.70024        25.60024                                                  21425720.21324       127.02824        29.20024
C26  24207362.52224      2602.20024        28.10024  24205483.72224      1959.10324        28.80024  24207403.89325      2623.94425        33.10025
C13  39339608.98624      1647.15024        26.20024                                                                                                
C08  39302260.54123      1312.25023        22.50023                                                                                                
E05  25842749.56723     -1683.90023        20.70023                                                
E16  26817201.56824      2392.49724        23.50024  26815286.19424      1787.03924        24.60024
E23  26451397.80824     -2241.75124        25.20024                                                
E24  25100863.06425      1789.16825        32.60025  25098951.88724      1336.07524        26.40024
E26  26320129.78324     -2132.81224        24.00024  26318233.59623     -1587.95023        22.00023
E31  23437535.36224      -472.66924        24.70024  23435613.69224      -348.25024        23.80024
E33  23995182.61124       454.37924        28.00024  23993268.43624       338.35024        23.80024
> 2025 05 03 08 00 40.4279522  0 25                      
G05  24064778.56925      1936.18725        30.60025                                                
G16  24345261.09522      3415.80022        17.30022                                                
G18  22071938.78423      2837.00023        22.40023                                                
G20  24243188.95824      -379.40024        24.50024                                                
G25  21833981.21824     -2729.55024        26.40024  21831613.75724     -2034.24124        27.10024
G26  22138795.79924      2672.20024        23.80024  22136433.43524      1992.72024        27.90024
G28  21354957.53924     -1643.00324        29.10024  21352586.78124     -1225.93424        26.60024
G29  20653644.34825     -1174.36725        31.70025                                                
G31  21193872.75625        69.28525        30.70025                                                
R18  21905377.69125     -3793.48025        30.00025
R09  19067764.43024        10.15024        23.70024
R16  21787681.57124     -3431.20024        28.20024
C45  21726557.78624      -314.90024        28.70024  21724666.99524      -236.64424        24.90024  21726588.96424      -317.90024        27.70024
C38  39479523.06424       775.30024        24.80024                                                  39479568.03324       779.30024        24.20024
C36  23661093.63524     -2776.45024        28.70024  23659214.83524     -2090.02924        26.10024  23661115.22024     -2797.89524        28.60024
C30  23853497.13624     -2611.15024        29.00024                                                                                                
C29  21425673.18424       126.05024        24.10024                                                  21425698.96624       128.50424        27.40024
C26  24206894.58424      2598.60024        24.70024  24204982.50824      1955.23724        27.70024  24206902.37925      2618.51625        32.80025
C13  39339290.34524      1651.25024        25.90024                                                                                                
E16  26816744.42324      2387.40624        26.90024  26814831.44724      1782.40724        27.00024
E23  26451834.94524     -2234.45624        24.80024                                                
E24  25100527.93524      1783.87924        29.10024                                                
E26  26320527.94624     -2122.19724        25.20024  26318636.25623     -1586.05023        22.70023
E31  23437635.23223      -462.20023        23.00023                                                
E33  23995089.41423       459.80023        20.70023                                                
> 2025 05 03 08 00 41.4279522  0 18                      
G05  24064401.12024      1942.14624        28.90024                                                
G25  21834483.95923     -2725.50023        22.30023                                                
G26  22138284.04323      2665.65023        23.10023                                                
G28  21355260.61925     -1641.30125        29.60025  21352903.95023     -1226.30023        23.10023
G29  20653888.06924     -1176.00024        24.60024                                                
G31  21193874.54424        65.95024        24.90024                                                
R10  20924418.08523      3063.95023        19.70023
R18  21906150.24624     -3792.95024        25.20024
R09  19067746.43224        11.00024        24.50024
R16  21788348.89824     -3426.45024        24.80024
C38  39479373.15724       778.45024        23.80024                                                  39479416.02724       785.05024        23.80024
C36  23661624.55625     -2767.85425        29.90025                                                  23661660.23125     -2794.58125        30.20025
C30  23853993.88224     -2609.80024        24.30024                                                  23854014.56724     -2629.65024        24.50024
C26  24206371.13624      2595.20024        27.00024                                                  24206403.51424      2616.28824        27.70024
E16  26816282.43223      2383.85023        21.20023                                                
E23  26452257.04223     -2230.40023        22.70023                                                
E24  25100192.45623      1784.50023        22.20023                                                
C45                                                                                                  21726637.52024      -317.75024        24.40024
> 2025 05 03 08 00 42.4279522  0 24                      
G05  24064079.58424      1926.80024        24.80024                                                
G18  22070852.16723      2848.05023        20.70023                                                
G20  24243329.39223      -383.70023        21.10023                                                
G25  21834999.74424     -2718.35024        26.60024                                                
G26  22137781.73324      2668.95024        26.10024                                                
G28  21355571.64524     -1644.70024        25.10024  21353214.37723     -1226.20023        22.20023
G29  20654105.26024     -1174.00024        26.60024                                                
G31  21193862.09424        69.20024        23.70024                                                
R10  20923800.95424      3058.85024        23.50024
R18  21906874.98624     -3791.50024        27.30024
R09  19067834.71324         7.95024        24.40024
R16  21788952.82225     -3417.47325        31.90025
C45  21726680.83223      -311.75023        23.40023                                                                                                
C38  39479216.50724       780.30024        26.30024                                                  39479261.17624       788.07924        26.90024
C36  23662155.03124     -2766.55024        23.90024                                                  23662179.91425     -2791.06125        29.70025
C30  23854489.28125     -2603.80925        29.90025                                                                                                
C29  21425622.05023       127.20023        20.50023                                                  21425673.91423       130.95023        23.30023
C26  24205885.61424      2592.80024        25.20024                                                  24205912.29624      2614.45024        25.70024
C13  39338659.71223      1663.15023        22.00023                                                                                                
E16  26815833.18524      2383.04524        24.20024                                                
E23  26452684.08823     -2226.45023        23.20023                                                
E24  25099843.94023      1783.30023        21.20023                                                
E26  26321340.51523     -2120.50023        18.60023                                                
E31  23437784.35923      -460.65023        20.50023                                                
> 2025 05 03 08 00 43.4279522  0 27                      
G05  24063665.91625      1946.45025        30.30025                                                
G18  22070316.18424      2837.65024        23.70024                                                
G20  24243393.89325      -377.78325        33.00025                                                
G25  21835550.80824     -2715.85024        24.50024                                                
G26  22137268.53324      2663.20024        27.30024  22134911.86524      1988.17924        28.80024
G28  21355881.37624     -1639.10024        25.70024  21353524.70824     -1226.04524        26.10024
G29  20654320.85725     -1170.59725        32.10025                                                
G31  21193860.34124        68.25024        25.50024                                                
R10  20923257.47624      3053.55024        25.70024
R18  21907545.96724     -3792.95024        26.00024
R09  19067776.59824        11.30024        24.80024
R16  21789580.63325     -3413.60225        34.10025
C45  21726736.93924      -305.10024        23.80024                                                  21726773.21323      -314.85023        21.80023
C38  39479090.64025       784.39925        30.50025  39477199.24924       591.10024        24.60024  39479114.62325       789.36425        33.40025
C36  23662690.80624     -2770.05024        26.60024  23660812.60624     -2081.56424        26.90024  23662720.18525     -2787.26825        31.30025
C30  23854983.68425     -2601.46325        35.30025                                                  23855022.65725     -2627.59725        31.60025
C29  21425594.21524       132.70024        26.30024                                                                                                
C26  24205365.81924      2590.15024        24.10024  24203495.11424      1950.81024        25.90024  24205421.58124      2613.35024        25.50024
C13  39338336.58224      1663.70024        25.60024                                                                                                
C08  39301219.27823      1328.55023        21.50023                                                                                                
C05  39858057.08723        42.25023        22.00023                                                                                                
E16  26815370.05124      2379.00824        24.70024  26813471.46524      1777.90824        27.60024
E23  26453103.84323     -2221.00023        22.20023                                                
E24  25099506.11924      1781.22024        23.60024  25097596.74123      1329.65023        22.60023
E26  26321747.07924     -2115.52024        27.20024                                                
E31  23437874.04323      -456.45023        22.00023                                                
E33  23994837.46522       462.85022        17.00022                                                
> 2025 05 03 08 00 44.4279522  0 26                      
G05  24063301.15824      1949.70024        27.90024                                                
G16  24342693.33823      3391.10023        18.60023                                                
G18  22069772.14924      2847.25024        26.90024                                                
G20  24243482.42125      -372.84625        30.50025                                                
G25  21836020.97224     -2706.20024        25.40024                                                
G26  22136756.57724      2662.05024        25.00024  22134407.40324      1988.20524        27.30024
G28  21356148.58023     -1635.05023        21.80023  21353839.27924     -1224.30024        28.70024
G29  20654549.68725     -1167.32725        29.60025                                                
G31  21193831.05024        67.30024        25.90024                                                
R10  20922642.99023      3052.10023        21.60023
R18  21908265.25824     -3785.55024        27.10024
R09  19067727.52123        19.30023        22.20023
R16  21790230.37225     -3408.02125        33.70025
C45  21726799.98423      -311.25023        21.90023                                                                                                
C38  39478923.74425       786.72925        31.00025  39477050.94123       593.40023        23.00023  39478964.81625       794.25325        31.00025
C36  23663221.52724     -2769.15024        23.70024  23661341.52824     -2077.05024        27.80024  23663248.50825     -2781.92025        33.60025
C30  23855487.42425     -2597.11325        34.00025  23853602.32924     -1957.40824        25.50024  23855514.10625     -2619.87525        33.60025
C29  21425561.92624       132.50024        25.90024                                                                                                
C26  24204895.23424      2600.85024        24.30024  24202996.94824      1950.91824        26.40024  24204918.01824      2611.97424        26.70024
C13  39338020.38924      1670.55024        27.10024                                                                                                
C08  39300977.43424      1339.70024        24.90024                                                                                                
E16  26814931.84324      2380.77824        27.40024  26813017.96825      1777.84025        30.10025
E23  26453523.34124     -2214.12624        25.20024                                                
E24  25099174.63724      1781.83424        26.40024  25097255.96623      1331.20023        22.60023
E26  26322150.98824     -2109.89624        27.10024  26320222.72323     -1576.15023        22.90023
E31  23437966.46824      -451.93024        23.80024                                                
> 2025 05 03 08 00 45.4279522  0 28                      
G05  24062928.74124      1950.65024        27.50024                                                
G16  24342028.32423      3388.50023        22.20023                                                
G18  22069237.24525      2847.64525        29.90025  22066872.78124      2127.69924        23.90024
G20  24243535.70925      -374.65225        32.10025                                                
G25  21836542.83624     -2711.30024        24.80024                                                
G26  22136253.15024      2661.60024        24.30024  22133904.57624      1984.75924        25.50024
G28  21356499.56325     -1642.28725        29.90025  21354149.19024     -1226.77624        29.30024
G29  20654769.36025     -1168.32325        32.00025                                                
G31  21193843.56724        60.90024        26.60024                                                
R10  20922127.57224      3049.85024        24.30024
R18  21908973.89325     -3786.00625        30.80025
R09  19067745.13424        15.55024        27.20024
R16  21790867.35626     -3407.53226        35.90026
C45  21726867.66223      -310.25023        21.90023  21724964.28023      -236.40023        20.60023  21726885.35023      -314.10023        23.30023
C38  39478767.47825       787.17025        32.30025  39476893.47524       593.95724        26.10024  39478804.35225       795.21725        35.30025
C36  23663746.38925     -2755.43025        29.50025  23661867.88924     -2077.19024        26.40024  23663776.96826     -2781.26826        36.50026
C30  23855987.70325     -2599.18125        33.90025  23854103.50724     -1957.44924        23.80024  23856021.58026     -2621.62126        37.20026
C29  21425531.87323       138.15023        22.50023                                                  21425562.45123       133.70023        22.20023
C26  24204393.00724      2586.40024        23.50024  24202498.01924      1947.47924        28.50024  24204417.59025      2608.52325        32.20025
C13  39337697.73824      1677.70024        26.20024                                                                                                
C08  39300700.05124      1339.45024        26.00024                                                                                                
E12  26148295.87123      2974.55023        17.70023                                                
E16  26814478.48224      2375.79424        25.40024  26812564.60725      1774.63325        30.50025
E23  26453928.88623     -2212.60023        22.20023                                                
E24  25098832.79924      1777.76624        27.80024                                                
E26  26322554.73424     -2112.69124        28.90024  26320639.06023     -1578.00023        21.50023
E31  23438043.44023      -454.55023        22.60023  23436139.15823      -339.65023        23.00023
E33  23994650.10923       471.05023        23.20023                                                
> 2025 05 03 08 00 46.4279522  0 24                      
G05  24062569.68124      1952.00024        27.10024                                                
G16  24341416.83923      3389.40023        21.30023                                                
G18  22068709.70224      2849.55024        27.10024  22066332.64725      2127.75325        29.70025
G20  24243591.56225      -374.73225        30.30025                                                
G25  21837046.57923     -2707.30023        22.70023                                                
G26  22135742.09624      2659.50024        23.90024  22133391.12424      1985.34624        27.20024
G28  21356839.01924     -1642.75024        25.70024  21354463.46424     -1227.04424        28.90024
G29  20654987.10125     -1168.30525        31.00025                                                
G31  21193802.28725        61.85625        32.90025                                                
R18  21909676.09824     -3788.40024        27.80024
R16  21791485.92023     -3411.20023        23.10023
C38  39478607.18024       786.70024        28.60024  39476720.28724       592.10624        24.90024  39478622.47025       796.15025        30.60025
C36  23664270.21825     -2755.80625        32.00025  23662401.61224     -2077.05024        25.40024  23664309.19125     -2780.81425        35.00025
C30  23856472.55924     -2597.55024        28.80024                                                  23856498.34124     -2621.75024        25.10024
C29  21425508.58024       129.80024        23.90024                                                                                                
C26  24203895.14324      2584.30024        28.50024  24202001.35523      1947.20023        22.90023  24203909.83324      2608.63224        28.00024
C13  39337354.26824      1675.00024        24.40024                                                                                                
C08  39300438.72425      1338.57425        33.00025                                                                                                
E23  26454364.87624     -2212.42224        23.60024                                                
E24  25098493.22624      1778.01724        25.60024                                                
E26  26322933.16424     -2112.80624        24.70024                                                
E31  23438141.56424      -453.96624        25.20024                                                
E33  23994550.37024       470.92024        25.80024                                                
C45                                                                                                  21726948.39824      -313.92724        26.30024
> 2025 05 03 08 00 47.4279522  0 27                      
G05  24062180.82724      1957.30024        25.90024                                                
G16  24340768.96424      3389.25024        28.20024                                                
G18  22068129.57924      2843.85024        27.30024                                                
G20  24243679.67824      -375.00024        27.50024                                                
G25  21837589.17924     -2707.35024        27.60024                                                
G26  22135243.81723      2661.95023        22.10023  22132886.54924      1984.77424        28.50024
G28  21357151.67924     -1644.10024        26.10024  21354782.41924     -1226.10424        26.70024
G29  20655209.52424     -1169.13324        28.70024                                                
G31  21193789.67225        60.54825        32.60025                                                
R10  20920992.02624      3053.00024        23.70024
R18  21910387.48224     -3788.45024        28.50024
R09  19067739.80623        13.35023        20.60023
R16  21792101.67023     -3412.30023        21.10023
C45  21726960.36623      -317.90023        23.00023                                                  21727005.33524      -317.99224        26.40024
C38  39478456.36124       784.40024        23.90024  39476570.06723       593.10023        23.40023  39478475.84825       795.66025        31.30025
C36  23664819.11423     -2762.05023        23.20023                                                  23664833.80425     -2789.95925        29.70025
C30  23856983.38224     -2601.15024        27.20024  23855104.28323     -1957.80023        21.40023  23857006.76625     -2621.98125        30.90025
C29  21425485.17324       129.50024        24.30024                                                  21425519.94923       132.80023        23.40023
C26  24203397.76424      2585.50024        24.20024  24201506.67324      1947.50024        24.00024  24203426.24425      2607.90025        32.10025
C13  39337039.46224      1672.40024        25.90024                                                                                                
C08  39300182.07825      1337.24425        30.60025                                                                                                
E16  26813584.56923      2378.55023        18.30023  26811662.30023      1775.45023        23.40023
E23  26454780.36423     -2213.65023        22.60023                                                
E24  25098152.03924      1777.36224        25.70024  25096243.26024      1327.56524        28.50024
E26  26323340.25824     -2114.06124        25.40024                                                
E31  23438224.58224      -456.31524        26.60024                                                
E33  23994464.00624       469.14124        27.60024                                                
> 2025 05 03 08 00 48.4279522  0 25                      
G05  24061801.68124      1951.50024        24.20024                                                
G16  24340095.12224      3391.01624        29.40024                                                
G18  22067596.94024      2843.85024        25.50024                                                
G20  24243743.02524      -375.10024        27.70024                                                
G25  21838104.91424     -2707.40024        24.70024                                                
G26  22134736.06024      2658.50024        27.20024  22132379.69224      1986.85024        23.70024
G28  21357450.66425     -1643.08325        33.40025  21355093.99524     -1226.77624        24.10024
G29  20655434.75925     -1167.70325        31.20025                                                
G31  21193777.47223        62.10023        23.10023                                                
R10  20920354.45923      3048.20023        22.10023
R18  21911039.62224     -3792.00024        24.90024
C45  21727028.21123      -313.00023        22.50023                                                  21727077.97624      -312.75024        25.30024
C38  39478317.04924       785.40024        25.20024                                                  39478327.84225       796.09525        30.80025
C36  23665335.74824     -2762.55024        23.80024                                                  23665365.12825     -2781.50025        32.60025
C30  23857472.73525     -2596.32825        32.30025  23855595.43424     -1956.38124        26.30024  23857511.40824     -2620.00924        26.10024
C29  21425456.78424       125.95024        25.10024                                                  21425502.05324       133.00024        24.50024
C26  24202893.90424      2589.80024        26.30024  24201006.11123      1949.90023        22.60023  24202930.17924      2603.53224        27.70024
C13  39336725.97024      1682.90024        24.40024                                                                                                
C08  39299933.04225      1339.43525        31.60025                                                                                                
E16  26813119.08324      2379.17924        26.50024  26811208.80624      1776.55024        24.10024
E23  26455223.24923     -2212.50023        21.80023                                                
E24  25097814.86424      1780.40224        27.90024  25095902.48724      1329.82324        27.80024
E26  26323730.08024     -2111.00424        25.20024                                                
E31  23438308.01624      -453.30024        24.50024                                                
E33  23994378.65724       470.70224        29.20024                                                
> 2025 05 03 08 00 49.4279522  0 25                      
G05  24061453.51025      1954.45725        31.70025                                                
G16  24339464.54724      3391.30024        27.30024                                                
G18  22067093.77723      2844.95023        21.80023                                                
G20  24243813.06525      -374.74425        31.20025                                                
G25  21838607.85424     -2713.65024        24.10024                                                
G26  22134217.00825      2660.24125        30.10025  22131872.93124      1987.08524        28.70024
G28  21357752.74325     -1645.40425        30.90025  21355406.26824     -1228.89424        28.70024
G29  20655682.27723     -1175.30023        22.20023                                                
G31  21193763.57124        58.90024        28.30024                                                
R10  20919805.72824      3047.05024        23.70024
R18  21911856.44524     -3787.75024        25.30024
R16  21793432.12923     -3407.25023        22.90023
C45  21727103.04724      -318.20024        24.90024                                                  21727122.23424      -316.18924        28.30024
C38  39478162.54524       786.30024        26.80024  39476264.55924       595.91024        26.20024  39478188.92624       798.67824        28.70024
C36  23665858.77524     -2760.50024        26.00024  23663995.26523     -2080.70023        22.10023  23665893.55125     -2783.23625        31.40025
C35  24353415.98922      2919.65022        17.20022                                                  24353427.98124      2939.27724        28.90024
C30  23857966.98125     -2596.55525        31.70025  23856092.67923     -1955.20023        21.80023  23857992.16425     -2618.54425        31.50025
C26  24202399.43524      2585.17124        29.40024  24200516.13924      1950.15024        25.80024  24202432.41324      2609.65024        28.30024
C13  39336410.17823      1676.40023        22.00023                                                                                                
C08  39299679.30624      1336.10024        24.80024                                                                                                
E16  26812664.18724      2380.61224        28.60024  26810754.80925      1776.91425        30.20025
E24  25097478.08525      1779.99825        30.20025  25095563.31124      1330.12824        25.00024
E26  26324133.78924     -2111.00024        29.10024  26322227.10923     -1576.90023        22.60023
E31  23438399.64124      -455.35024        26.60024                                                
E33                                                  23992373.53323       350.45023        22.70023
> 2025 05 03 08 00 50.4279522  0 27                      
G05  24061061.82324      1952.00024        26.60024                                                
G16  24338813.54024      3394.55024        26.70024                                                
G18  22066527.61124      2836.80024        28.50024                                                
G20  24243886.35725      -370.52825        31.10025                                                
G26  22133721.29324      2661.50024        27.30024  22131365.82424      1987.89024        26.10024
G28  21358073.36324     -1646.95024        28.40024  21355719.69323     -1231.40023        23.20023
G29  20655879.68224     -1168.00024        28.20024                                                
G31  21193760.71524        60.95024        27.00024                                                
R10  20919302.21824      3054.50024        25.70024
R18  21912508.03624     -3783.50024        28.30024
R09  19067773.80523         8.05023        19.10023
R16  21794098.11024     -3414.75024        26.60024
R19  19412304.59122     -1206.60022        16.10022
C45  21727158.95124      -314.05024        24.10024                                                  21727189.23024      -317.56624        28.10024
C38  39478001.39824       793.55024        29.10024  39476111.50624       597.92224        25.90024  39478024.48225       799.99025        31.30025
C36  23666396.44425     -2763.43425        29.50025                                                  23666421.92725     -2789.47125        30.00025
C30  23858460.88124     -2594.40024        28.90024                                                  23858497.15624     -2620.91824        28.70024
C29  21425416.04323       128.90023        22.10023                                                  21425446.62223       131.45023        22.70023
C26  24201895.32625      2588.75025        30.10025  24200018.02624      1952.22724        25.60024  24201938.49624      2612.50024        24.70024
C13  39336080.24824      1675.35024        25.30024                                                                                                
C08  39299427.02324      1331.55024        24.10024                                                                                                
E16  26812224.53324      2381.50524        26.10024                                                
E23  26456046.51023     -2215.40023        20.50023                                                
E24  25097140.36124      1781.35624        28.80024  25095226.48624      1330.65324        28.10024
E26  26324541.64924     -2106.71324        26.50024  26322622.07824     -1573.94124        24.50024
E31  23438492.41924      -455.45324        25.80024                                                
E33  23994196.11323       468.00023        22.40023                                                
> 2025 05 03 08 00 51.4279522  0 25                      
G05  24060713.74523      1954.30023        23.20023                                                
G16  24338175.26325      3393.77425        33.10025                                                
G18  22065974.17524      2833.16124        28.60024  22063625.60124      2113.90024        24.30024
G20  24243960.38624      -377.00024        27.60024                                                
G25  21839657.85023     -2715.85023        21.90023                                                
G26  22133214.32525      2662.70625        32.60025  22130858.85624      1988.52324        29.10024
G28  21358391.42424     -1651.40024        26.60024  21356031.45823     -1233.20023        22.20023
G29  20656098.51125     -1168.14925        30.50025                                                
G31  21193763.69424        57.85024        27.90024                                                
R10  20918675.63324      3055.85024        27.10024
R18  21913199.93824     -3780.30024        27.30024
R16  21794699.47425     -3420.12225        33.00025
C45  21727223.08723      -311.90023        22.40023                                                  21727233.58024      -319.05024        24.00024
C38  39477848.48524       793.30024        28.10024                                                  39477872.16925       801.29325        29.80025
C36  23666925.85924     -2769.80024        28.40024                                                  23666960.33525     -2792.91525        30.40025
C30  23858966.61224     -2597.65024        29.20024                                                  23859000.18924     -2617.36224        29.20024
C26  24201402.44925      2591.12425        34.50025                                                  24201432.42825      2614.85525        32.60025
C13  39335771.14324      1669.55024        24.20024                                                                                                
C08  39299161.08824      1337.45024        23.70024                                                                                                
E16  26811755.33924      2378.69724        23.60024                                                
E23  26456482.68923     -2218.05023        22.20023                                                
E24  25096799.77825      1783.05325        30.00025  25094892.49823      1329.75023        22.30023
E26  26324939.15524     -2107.04724        27.70024  26323024.68024     -1572.80024        24.20024
E31  23438568.54824      -457.31124        26.20024                                                
E33  23994119.94724       464.70524        23.80024                                                
> 2025 05 03 08 00 52.4279522  0 24                      
G16  24337533.18024      3396.42924        29.00024                                                
G18  22065446.61325      2831.12125        29.80025  22063089.34524      2115.45724        27.10024
G20  24244011.12425      -369.69725        31.60025                                                
G25  21840165.17223     -2720.10023        23.40023  21837801.30923     -2028.55023        22.90023
G26  22132701.15425      2666.13325        33.40025  22130350.18125      1990.78025        31.50025
G28  21358693.98824     -1652.40024        28.00024  21356345.41425     -1235.46525        29.80025
G29  20656318.93224     -1168.70024        28.20024                                                
G31  21193737.38524        64.00024        24.80024                                                
R10  20918129.18524      3063.35024        24.10024
R18  21913944.99624     -3784.70024        27.90024
R09  19067730.68923         9.30023        23.10023
R16  21795337.80625     -3422.65225        31.50025
C45  21727274.12524      -319.50024        28.20024                                                  21727310.40025      -321.21025        30.40025
C38  39477692.36624       787.70024        28.80024                                                  39477720.84725       800.35025        29.80025
C36  23667457.46425     -2770.65725        31.60025  23665583.16224     -2089.66424        26.50024  23667488.64325     -2797.20525        32.40025
C30  23859462.24225     -2593.58725        31.80025  23857590.93823     -1956.30023        21.80023  23859490.72224     -2615.84024        28.60024
C29  21425366.63123       125.20023        21.80023                                                  21425405.30524       129.90024        24.50024
C26  24200901.56925      2594.24225        33.90025  24199017.67324      1954.60024        27.70024  24200934.24625      2617.30025        30.30025
C08  39298900.94124      1332.90024        24.00024                                                                                                
E16  26811302.72525      2386.06425        33.60025  26809393.04724      1781.65024        27.40024
E24  25096462.88425      1784.82525        30.70025  25094543.01323      1334.60023        22.60023
E26  26325334.05524     -2105.64024        28.60024  26323426.47524     -1571.80424        29.30024
E31  23438653.46224      -457.00324        24.20024                                                
E33  23994016.29224       464.05124        25.90024                                                
> 2025 05 03 08 00 53.4279523  0 26                      
G12  25203346.93023     -3395.60023        21.40023                                                
G16  24336901.45825      3398.96525        35.40025                                                
G18  22064935.10725      2832.47625        35.10025  22062580.53725      2113.97225        32.50025
G20  24244126.48525      -373.82925        30.30025                                                
G25  21840703.83925     -2719.94925        31.10025  21838354.06624     -2028.65124        25.40024
G26  22132234.91724      2669.13624        29.10024  22129874.95024      1987.89924        28.00024
G28  21359052.78025     -1654.35825        30.60025  21356690.41524     -1235.76424        28.40024
G29  20656597.67924     -1179.10024        25.90024                                                
G31  21193756.81224        64.10024        26.40024                                                
R10  20917568.81324      3059.69424        29.30024
R18  21914628.16324     -3796.55024        28.50024
R09  19067780.09524         8.50024        26.20024
R16  21796032.96424     -3432.40024        25.10024
C45  21727358.00724      -319.25024        25.10024                                                  21727392.18324      -321.15324        27.50024
C38  39477615.26024       771.65024        28.70024  39475684.89623       595.75023        23.40023  39477594.57424       799.42324        29.20024
C36  23668024.61225     -2774.94825        32.00025  23666151.50824     -2090.37124        27.10024  23668047.09625     -2799.50225        31.60025
C30  23860002.70824     -2595.91924        29.40024  23858113.71624     -1954.56824        24.90024  23860023.99324     -2616.64024        28.50024
C26  24200434.73225      2594.18225        30.10025  24198551.73524      1954.90524        26.10024  24200463.81225      2619.35525        33.80025
C08  39298681.13323      1335.00023        22.30023                                                                                                
E16  26810880.55825      2387.98925        32.50025  26808971.18025      1783.16825        32.10025
E23  26457355.09823     -2223.50023        20.60023                                                
E24  25096152.53925      1786.70925        29.70025  25094235.66625      1333.81225        31.30025
E26  26325810.06524     -2133.70024        26.90024  26323855.41825     -1572.44725        30.10025
E31  23438775.71724      -457.43924        29.10024                                                
E33  23993960.77124       463.18824        24.10024  23992050.79323       345.40023        22.40023
C29                                                                                                  21425405.24523       128.35023        22.60023
> 2025 05 03 08 00 54.4279523  0 29                      
G05  24059696.68523      1914.55023        21.60023                                                
G16  24336258.52525      3401.63625        33.00025                                                
G18  22064396.50325      2830.28725        33.60025  22062041.33325      2113.19125        32.50025
G20  24244188.96425      -373.59325        32.60025                                                
G25  21841248.98424     -2724.45024        26.50024  21838868.03324     -2031.45324        25.60024
G26  22131705.30625      2668.67925        31.90025  22129363.32724      1993.30024        27.80024
G28  21359368.28425     -1652.45125        31.40025  21357005.02024     -1234.91724        26.50024
G29  20656816.35024     -1176.15024        26.30024                                                
G31  21193761.43124        61.27824        29.00024                                                
R10  20916997.23124      3061.65024        28.30024
R18  21915395.75424     -3787.75024        28.90024
R09  19067755.03424         6.20024        23.70024
R16  21796665.34925     -3428.01325        32.10025
R19  19413269.74022     -1211.05022        17.20022
C45  21727416.28924      -317.95024        23.60024                                                  21727463.35724      -322.38024        26.50024
C38  39477406.12724       786.35024        27.50024                                                  39477446.89925       798.99125        32.90025
C36  23668548.47125     -2774.93725        33.40025  23666683.46224     -2090.90824        24.60024  23668585.94525     -2800.92425        34.60025
C30  23860484.59725     -2600.92125        30.30025  23858611.19424     -1955.96424        24.40024  23860517.27425     -2619.20525        31.40025
C29  21425349.60623       122.80023        23.10023                                                  21425385.88024       123.65024        24.20024
C26  24199934.80026      2597.51126        35.90026  24198054.80224      1957.60724        26.00024  24199965.07926      2620.82426        39.60026
C13  39334863.50723      1653.75023        20.50023                                                                                                
C08  39298430.92924      1330.70024        23.70024                                                                                                
E05  25847696.97823     -1660.45023        18.30023                                                
E12  26143295.34022      2954.70022        16.30022                                                
E16  26810432.49024      2390.32024        29.00024  26808515.61724      1784.03724        28.40024
E24  25095810.89825      1787.67725        29.90025  25093898.52224      1335.42124        27.40024
E26  26326171.73725     -2108.20025        33.10025  26324256.36324     -1574.15024        26.00024
E31  23438861.28024      -458.19824        27.00024                                                
E33  23993875.75224       460.27524        25.00024  23991962.17723       344.90023        23.00023
> 2025 05 03 08 00 55.4279523  0 28                      
G05  24059315.90724      1917.90024        25.80024                                                
G16  24335613.93025      3404.32525        34.00025                                                
G18  22063860.13224      2830.15024        24.30024  22061501.66524      2113.76924        28.40024
G20  24244264.46925      -376.65825        31.60025                                                
G25  21841749.59624     -2724.20024        27.50024  21839387.53124     -2031.80824        27.00024
G26  22131216.60224      2673.93224        29.20024  22128862.03224      1993.56724        24.00024
G28  21359702.51023     -1646.50023        22.30023  21357320.65925     -1232.87925        32.40025
G29  20657038.45424     -1174.70024        26.30024                                                
G31  21193735.00724        64.35024        28.20024                                                
R10  20916403.30025      3062.92325        32.10025
R18  21916045.36224     -3786.85024        25.70024
R09  19067766.98423         0.60023        21.60023
R16  21797290.67425     -3428.06125        30.20025
C45  21727518.77623      -324.05023        22.90023  21725600.10523      -239.90023        22.90023  21727530.46824      -321.40024        24.30024
C38  39477276.87424       779.90024        26.60024  39475382.48624       595.05024        23.50024  39477293.66325       792.64225        33.20025
C36  23669103.04524     -2782.45024        26.70024  23667211.05524     -2091.20024        27.00024  23669112.03924     -2802.10024        26.30024
C30  23860987.60725     -2597.14925        31.90025  23859110.60624     -1956.94524        28.90024  23861015.78725     -2620.38025        29.70025
C29  21425305.19424       118.30024        24.70024  21423434.48924        95.84024        24.90024                                                
C26  24199436.20326      2599.36626        39.10026  24197557.40424      1959.27024        26.90024  24199467.08227      2622.99327        42.10027
C13  39334515.70624      1653.70024        24.90024                                                                                                
E03  28211882.44522       423.40022        16.00022                                                
E12  26142706.50524      2957.30724        25.60024                                                
E16  26809973.16625      2393.19525        30.60025  26808060.19125      1786.81125        32.80025
E23  26458211.38623     -2242.10023        20.70023                                                
E24  25095469.99224      1790.57724        28.90024  25093557.61626      1336.57826        36.70026
E26  26326577.61424     -2109.18624        28.10024  26324667.33724     -1575.15024        23.50024
E31  23438946.67923      -459.18623        23.30023                                                
E33  23993791.46824       458.91724        29.40024  23991872.79724       342.56324        24.50024
> 2025 05 03 08 00 56.4279523  0 28                      
G05  24058960.51124      1916.60024        27.90024                                                
G12  25205249.65223     -3395.25023        19.60023                                                
G16  24334972.83225      3404.53725        33.70025                                                
G18  22063316.76724      2826.80024        29.20024  22060966.09425      2111.20025        32.60025
G20  24244332.38125      -381.87325        34.20025                                                
G25  21842274.99124     -2730.40024        27.50024  21839906.93024     -2036.33424        28.40024
G26  22130702.61725      2671.74225        33.60025  22128354.94224      1994.09724        27.80024
G28  21359990.17024     -1649.15024        26.10024  21357636.49924     -1234.24824        28.00024
G29  20657245.17025     -1170.74925        30.40025                                                
G31  21193731.56825        60.96025        30.30025                                                
R10  20915824.85925      3061.31725        31.00025
R18  21916803.69624     -3788.80024        28.40024
R09  19067784.83023         0.40023        21.90023
R16  21798004.93824     -3446.30024        24.30024
R20  21151446.44222      3552.25022        15.90022
C45  21727552.21224      -323.75024        24.90024                                                  21727604.07624      -322.79724        27.00024
C38  39477118.74324       776.15024        26.00024  39475231.84924       590.53524        24.00024  39477147.82225       791.03725        33.50025
C36  23669620.94624     -2779.99624        29.30024  23667745.14425     -2095.93925        30.50025  23669652.72425     -2805.88425        33.20025
C30  23861494.71425     -2602.74625        31.80025  23859607.82024     -1961.19724        28.40024  23861514.50025     -2626.35225        31.00025
C29  21425320.94223       122.00023        23.10023                                                  21425338.93023       121.40023        20.40023
C26  24198933.61026      2598.28126        39.00026  24197059.00824      1957.64724        26.80024  24198966.58727      2622.13827        41.80027
E05  25848337.75123     -1665.20023        19.10023                                                
E12  26142154.14624      2952.30124        24.50024  26140223.18324      2205.07124        24.30024
E16  26809529.63224      2393.05024        24.60024  26807605.26425      1787.44125        29.90025
E24  25095128.98725      1789.00225        33.00025  25093214.21225      1335.86525        34.40025
E26  26326969.00224     -2115.69724        29.20024                                                
E31  23439035.27723      -463.20023        23.00023                                                
E33  23993701.98924       453.88024        28.60024  23991784.21723       340.25023        22.90023
> 2025 05 03 08 00 57.4279523  0 27                      
G05  24058602.93324      1918.10024        27.60024                                                
G16  24334308.26625      3408.83025        33.30025                                                
G18  22062782.31125      2827.16725        30.50025  22060425.64225      2112.04225        34.40025
G20  24244411.30025      -381.82525        30.90025                                                
G25  21842782.01424     -2731.50024        26.30024  21840424.44624     -2038.30024        23.70024
G26  22130192.44426      2674.80826        36.80026  22127840.27225      1997.29125        31.10025
G28  21360304.12625     -1650.52825        30.20025  21357953.15424     -1231.91924        26.80024
G29  20657474.88525     -1174.73225        29.80025                                                
G31  21193733.74024        64.10024        25.50024                                                
R10  20915268.21825      3064.48625        30.00025
R18  21917555.94924     -3797.55024        25.20024
R09  19067779.50824         1.30024        23.70024
C45  21727620.93823      -318.55023        22.10023                                                  21727643.42225      -323.00125        29.50025
C38  39476989.90624       776.20024        28.30024                                                  39476997.40025       788.49925        31.00025
C36  23670160.64624     -2784.60024        26.50024  23668280.04825     -2095.01425        29.60025  23670187.02825     -2806.36125        31.70025
C35  24348993.30023      2912.85023        17.70023                                                                                                
C30  23861993.64325     -2607.61325        29.50025  23860106.44924     -1961.97624        24.40024  23862026.62024     -2630.35024        24.00024
C29  21425272.45024       122.90024        28.90024                                                  21425303.62824       124.05024        24.60024
C26  24198436.62826      2602.35226        37.40026  24196556.92923      1961.35023        22.60023  24198469.60527      2626.06227        41.70027
C08  39297673.84423      1323.50023        20.60023                                                                                                
E05  25848652.30724     -1672.46824        24.30024                                                
E12  26141571.72324      2956.13924        27.20024  26139662.64524      2207.46424        24.80024
E16  26809070.12424      2397.85024        26.50024  26807148.45424      1791.11124        26.90024
E24  25094784.59925      1792.97125        34.70025  25092874.92125      1338.98725        33.60025
E26  26327380.39124     -2116.67024        24.90024  26325467.11524     -1581.40024        24.30024
E31  23439135.48124      -462.91224        23.90024                                                
E33  23993611.52523       453.45023        22.30023                                                
> 2025 05 03 08 00 58.4279523  0 30                      
G05  24058228.28924      1915.75024        27.00024                                                
G16  24333667.10725      3414.05125        32.00025                                                
G18  22062272.76124      2824.20024        23.80024  22059887.31225      2111.47025        30.40025
G20  24244472.55525      -388.97625        32.70025                                                
G25  21843311.24423     -2736.65023        22.60023                                                
G26  22129699.98225      2677.52725        32.10025  22127331.32125      1998.87825        29.50025
G28  21360632.79624     -1647.10024        24.50024  21358270.13124     -1231.56224        27.30024
G29  20657691.43225     -1176.49225        30.50025                                                
G31  21193693.06625        66.78225        31.50025                                                
R10  20914712.20024      3063.05024        24.30024
R18  21918201.49924     -3793.75024        23.90024
R09  19067745.12924         2.35024        24.90024
R16  21799333.49023     -3440.05023        20.30023
R20  21150010.30723      3557.25023        22.00023
C45  21727673.19924      -316.80024        28.40024                                                  21727706.47625      -322.16725        31.00025
C38  39476817.92224       774.95024        26.00024                                                  39476853.89724       784.22124        28.80024
C36  23670691.37624     -2785.60024        27.30024  23668817.07324     -2096.85024        24.40024  23670730.04924     -2806.75024        28.60024
C30  23862495.59225     -2609.04325        29.60025                                                  23862518.07725     -2631.09225        30.80025
C29  21425256.05824       123.85024        27.70024                                                  21425292.03324       124.20024        24.40024
C26  24197933.97326      2604.68926        37.90026  24196053.67524      1962.99524        25.80024  24197967.85026      2628.41826        39.40026
C08  39297392.73524      1323.65024        24.00024                                                                                                
E03  28211634.54623       432.95023        18.50023                                                
E05  25848926.41523     -1684.05023        20.80023                                                
E12  26141019.30323      2954.10023        22.30023  26139099.13223      2206.30023        22.80023
E16  26808601.94524      2400.01224        25.80024  26806692.56724      1793.33224        27.40024
E24  25094445.63125      1794.21625        34.50025  25092535.65325      1341.42825        30.60025
E26  26327840.96924     -2130.65024        25.40024  26325866.23624     -1583.13324        27.10024
E31  23439206.03024      -464.05724        24.30024                                                
E33  23993541.17123       449.95023        21.80023                                                
C35                                                                                                  24348455.26923      2940.60023        17.80023
> 2025 05 03 08 00 59.4279523  0 25                      
G16  24333018.10525      3414.83625        31.90025                                                
G18  22061704.10325      2826.73025        30.00025  22059344.73724      2110.20024        23.70024
G20  24244564.04124      -393.55424        29.00024                                                
G25  21843840.72723     -2735.35023        21.70023                                                
G26  22129183.18825      2677.49525        33.60025  22126823.22224      1999.38024        25.80024
G28  21360940.43224     -1649.75024        28.30024  21358576.56824     -1231.49724        25.20024
G31  21193668.53224        66.80024        27.50024                                                
R10  20914107.56824      3065.24924        29.30024
R18  21918979.80924     -3795.15024        25.80024
R09  19067804.83623         0.40023        22.40023
C38  39476690.25924       772.85024        25.90024                                                  39476709.44624       774.81124        28.70024
C36  23671219.35924     -2784.68124        29.40024  23669348.05423     -2099.35023        21.80023  23671258.03225     -2809.54325        31.60025
C35  24347838.04623      2917.35023        20.80023                                                                                                
C30  23862975.00924     -2611.55024        27.60024                                                                                                
C26  24197432.76925      2606.12925        32.00025  24195553.07024      1962.83624        26.30024  24197463.64825      2629.78425        34.90025
C13  39333265.65023      1653.70023        19.00023                                                                                                
E05  25849237.34823     -1678.95023        20.90023                                                
