NMEA,$GPGSV,3,1,12,05,15,085,32,12,07,111,20,16,09,295,20,18,43,172,25,1*60,1746259222009
NMEA,$GPGSV,3,2,12,20,14,049,18,25,40,112,29,26,36,301,24,28,53,225,29,1*68,1746259222009
NMEA,$GPGSV,3,3,12,29,68,045,30,31,53,273,28,04,05,324,,11,00,000,,1*6C,1746259222009
NMEA,$GPGSV,2,1,06,25,40,112,22,26,36,301,26,28,53,225,28,04,05,324,,8*69,1746259222009
NMEA,$GPGSV,2,2,06,11,00,000,,18,43,172,,8*61,1746259222009
NMEA,$GLGSV,2,1,08,74,41,322,23,82,27,034,25,73,85,071,26,80,28,132,27,1*74,1746259222009
NMEA,$GLGSV,2,2,08,83,71,047,19,66,01,022,,65,05,337,,84,37,205,,1*79,1746259222009
NMEA,$GAGSV,3,1,11,05,15,279,21,16,20,296,24,23,23,107,25,24,45,300,33,7*74,1746259222009
NMEA,$GAGSV,3,2,11,26,25,043,24,31,74,078,25,33,58,099,28,03,07,327,,7*7C,1746259222009
NMEA,$GAGSV,3,3,11,09,05,230,,10,12,190,,12,31,177,,7*44,1746259222009
NMEA,$GAGSV,3,1,11,16,20,296,25,23,23,107,21,24,45,300,26,26,25,043,22,1*79,1746259222009
NMEA,$GAGSV,3,2,11,31,74,078,24,33,58,099,24,03,07,327,,05,15,279,,1*78,1746259222009
NMEA,$GAGSV,3,3,11,09,05,230,,10,12,190,,12,31,177,,1*42,1746259222009
NMEA,$GBGSV,3,1,10,45,78,220,28,38,21,053,23,36,35,146,31,35,27,224,20,1*79,1746259222009
NMEA,$GBGSV,3,2,10,30,33,052,28,29,84,140,26,26,31,309,28,13,24,082,26,1*72,1746259222009
NMEA,$GBGSV,3,3,10,08,24,064,23,05,16,120,,1*7B,1746259222009
NMEA,$GBGSV,2,1,07,26,31,309,33,29,84,140,29,30,33,052,33,36,35,146,31,3*73,1746259222009
NMEA,$GBGSV,2,2,07,38,21,053,29,45,78,220,28,35,27,224,,3*45,1746259222009
NMEA,$GBGSV,2,1,07,26,31,309,29,29,84,140,19,30,33,052,21,36,35,146,28,5*76,1746259222009
NMEA,$GBGSV,2,2,07,38,21,053,18,45,78,220,22,35,27,224,,5*4B,1746259222009
NMEA,$GNGSA,A,3,05,12,16,18,20,25,26,28,29,31,,,0.7,0.4,0.5,1*3D,1746259222027
NMEA,$GNGSA,A,3,73,74,80,82,,,,,,,,,0.7,0.4,0.5,2*31,1746259222027
NMEA,$GNGSA,A,3,05,16,23,24,26,31,33,,,,,,0.7,0.4,0.5,3*36,1746259222027
NMEA,$GNGSA,A,3,08,13,26,29,30,35,36,38,45,,,,0.7,0.4,0.5,4*3D,1746259222027
NMEA,$GNVTG,117.8,T,114.5,M,4.8,N,8.8,K,A*3F,1746259222027
NMEA,$GNDTM,P90,,0000.000026,S,00000.000000,E,0.978,W84*5C,1746259222027
NMEA,$GNRMC,080022.00,A,4504.224916,N,00741.121223,E,4.8,117.8,030525,3.3,E,A,V*57,1746259222027
NMEA,$GNGNS,080022.00,4504.224916,N,00741.121223,E,AAAANN,30,0.4,234.2,48.0,,,V*2A,1746259222027
NMEA,$GNGGA,080022.00,4504.224916,N,00741.121223,E,1,12,0.4,234.2,M,48.0,M,,*7A,1746259222027
NMEA,$GPGSV,3,1,12,05,15,085,31,12,07,111,20,16,09,295,17,18,43,172,22,1*60,1746259223002
NMEA,$GPGSV,3,2,12,20,14,049,25,25,40,112,26,26,36,301,24,28,53,225,29,1*69,1746259223002
NMEA,$GPGSV,3,3,12,29,68,045,32,31,53,273,31,04,05,324,,11,00,000,,1*66,1746259223002
NMEA,$GPGSV,2,1,06,25,40,112,27,26,36,301,28,28,53,225,27,04,05,324,,8*6D,1746259223002
NMEA,$GPGSV,2,2,06,11,00,000,,18,43,172,,8*61,1746259223002
NMEA,$GLGSV,2,1,08,74,41,322,23,82,27,034,30,73,85,071,24,80,28,132,28,1*7D,1746259223002
NMEA,$GLGSV,2,2,08,83,71,047,19,66,01,022,,65,05,337,,84,37,205,,1*79,1746259223002
NMEA,$GAGSV,3,1,11,05,15,279,21,16,20,296,27,23,23,107,25,24,45,300,29,7*7C,1746259223002
NMEA,$GAGSV,3,2,11,26,25,043,25,31,74,078,23,33,58,099,21,03,07,327,,7*72,1746259223002
NMEA,$GAGSV,3,3,11,09,05,230,,10,12,190,,12,31,177,,7*44,1746259223002
NMEA,$GAGSV,3,1,11,16,20,296,27,23,23,107,21,24,45,300,21,26,25,043,23,1*7D,1746259223002
NMEA,$GAGSV,3,2,11,31,74,078,24,33,58,099,24,03,07,327,,05,15,279,,1*78,1746259223002
NMEA,$GAGSV,3,3,11,09,05,230,,10,12,190,,12,31,177,,1*42,1746259223002
NMEA,$GBGSV,3,1,10,45,78,220,29,38,21,053,25,36,35,146,29,35,27,224,20,1*77,1746259223002
NMEA,$GBGSV,3,2,10,30,33,052,29,29,84,140,24,26,31,309,25,13,24,082,26,1*7C,1746259223002
NMEA,$GBGSV,3,3,10,08,24,064,23,05,16,120,,1*7B,1746259223002
NMEA,$GBGSV,2,1,07,26,31,309,33,29,84,140,27,30,33,052,27,36,35,146,29,3*71,1746259223002
NMEA,$GBGSV,2,2,07,38,21,053,24,45,78,220,28,35,27,224,,3*48,1746259223002
NMEA,$GBGSV,2,1,07,26,31,309,28,29,84,140,19,30,33,052,20,36,35,146,26,5*78,1746259223002
NMEA,$GBGSV,2,2,07,38,21,053,18,45,78,220,25,35,27,224,,5*4C,1746259223002
NMEA,$GNGSA,A,3,05,12,16,18,20,25,26,28,29,31,,,0.7,0.4,0.5,1*3D,1746259223009
NMEA,$GNGSA,A,3,73,74,80,82,,,,,,,,,0.7,0.4,0.5,2*31,1746259223009
NMEA,$GNGSA,A,3,05,16,23,24,26,31,33,,,,,,0.7,0.4,0.5,3*36,1746259223009
NMEA,$GNGSA,A,3,08,13,26,29,30,35,36,38,45,,,,0.7,0.4,0.5,4*3D,1746259223009
NMEA,$GNVTG,115.7,T,112.4,M,5.5,N,10.2,K,A*0A,1746259223009
NMEA,$GNDTM,P90,,0000.000026,S,00000.000000,E,0.978,W84*5C,1746259223009
NMEA,$GNRMC,080023.00,A,4504.223728,N,00741.122950,E,5.5,115.7,030525,3.3,E,A,V*5F,1746259223009
NMEA,$GNGNS,080023.00,4504.223728,N,00741.122950,E,AAAANN,30,0.4,232.5,48.0,,,V*22,1746259223009
NMEA,$GNGGA,080023.00,4504.223728,N,00741.122950,E,1,12,0.4,232.5,M,48.0,M,,*72,1746259223009
NMEA,$GPGSV,3,1,12,05,15,085,29,12,07,111,20,16,09,295,17,18,43,172,22,1*69,1746259224007
NMEA,$GPGSV,3,2,12,20,14,049,25,25,40,112,22,26,36,301,23,28,53,225,30,1*62,1746259224007
NMEA,$GPGSV,3,3,12,29,68,045,25,31,53,273,25,04,05,324,,11,00,000,,1*65,1746259224007
NMEA,$GPGSV,2,1,06,25,40,112,27,26,36,301,28,28,53,225,23,04,05,324,,8*69,1746259224007
NMEA,$GPGSV,2,2,06,11,00,000,,18,43,172,,8*61,1746259224007
NMEA,$GLGSV,2,1,08,74,41,322,20,82,27,034,25,73,85,071,25,80,28,132,25,1*76,1746259224007
NMEA,$GLGSV,2,2,08,83,71,047,19,66,01,022,,65,05,337,,84,37,205,,1*79,1746259224007
NMEA,$GAGSV,3,1,11,05,15,279,21,16,20,296,21,23,23,107,23,24,45,300,22,7*77,1746259224007
NMEA,$GAGSV,3,2,11,26,25,043,25,31,74,078,23,33,58,099,21,03,07,327,,7*72,1746259224007
NMEA,$GAGSV,3,3,11,09,05,230,,10,12,190,,12,31,177,,7*44,1746259224007
NMEA,$GAGSV,3,1,11,16,20,296,27,23,23,107,21,24,45,300,21,26,25,043,23,1*7D,1746259224007
NMEA,$GAGSV,3,2,11,31,74,078,24,33,58,099,20,03,07,327,,05,15,279,,1*7C,1746259224007
NMEA,$GAGSV,3,3,11,09,05,230,,10,12,190,,12,31,177,,1*42,1746259224007
NMEA,$GBGSV,3,1,10,45,78,220,29,38,21,053,24,36,35,146,30,35,27,224,20,1*7E,1746259224007
NMEA,$GBGSV,3,2,10,30,33,052,24,29,84,140,24,26,31,309,27,13,24,082,26,1*73,1746259224007
NMEA,$GBGSV,3,3,10,08,24,064,23,05,16,120,,1*7B,1746259224007
NMEA,$GBGSV,2,1,07,26,31,309,28,29,84,140,27,30,33,052,25,36,35,146,30,3*71,1746259224007
NMEA,$GBGSV,2,2,07,38,21,053,24,45,78,220,24,35,27,224,,3*44,1746259224007
NMEA,$GBGSV,2,1,07,26,31,309,28,29,84,140,19,30,33,052,20,36,35,146,26,5*78,1746259224007
NMEA,$GBGSV,2,2,07,38,21,053,18,45,78,220,25,35,27,224,,5*4C,1746259224007
NMEA,$GNGSA,A,3,05,12,16,18,20,25,26,28,29,31,,,0.7,0.4,0.5,1*3D,1746259224021
NMEA,$GNGSA,A,3,73,74,80,82,,,,,,,,,0.7,0.4,0.5,2*31,1746259224021
NMEA,$GNGSA,A,3,05,16,23,24,26,31,33,,,,,,0.7,0.4,0.5,3*36,1746259224021
NMEA,$GNGSA,A,3,08,13,26,29,30,35,36,38,45,,,,0.7,0.4,0.5,4*3D,1746259224021
NMEA,$GNVTG,115.8,T,112.5,M,7.8,N,14.5,K,A*08,1746259224021
NMEA,$GNDTM,P90,,0000.000026,S,00000.000000,E,0.978,W84*5C,1746259224021
NMEA,$GNRMC,080024.00,A,4504.222409,N,00741.125396,E,7.8,115.8,030525,3.3,E,A,V*5E,1746259224021
NMEA,$GNGNS,080024.00,4504.222409,N,00741.125396,E,AAAANN,30,0.4,232.7,48.0,,,V*21,1746259224021
NMEA,$GNGGA,080024.00,4504.222409,N,00741.125396,E,1,12,0.4,232.7,M,48.0,M,,*71,1746259224021
NMEA,$GPGSV,3,1,12,05,15,085,25,12,07,111,20,16,09,295,17,18,43,172,21,1*66,1746259225008
NMEA,$GPGSV,3,2,12,20,14,049,21,25,40,112,27,26,36,301,26,28,53,225,25,1*62,1746259225008
NMEA,$GPGSV,3,3,12,29,68,045,27,31,53,273,24,04,05,324,,11,00,000,,1*66,1746259225008
NMEA,$GPGSV,2,1,06,25,40,112,27,26,36,301,21,28,53,225,22,04,05,324,,8*61,1746259225008
NMEA,$GPGSV,2,2,06,11,00,000,,18,43,172,,8*61,1746259225008
NMEA,$GLGSV,2,1,08,74,41,322,24,82,27,034,27,73,85,071,24,80,28,132,32,1*77,1746259225008
NMEA,$GLGSV,2,2,08,83,71,047,19,66,01,022,,65,05,337,,84,37,205,,1*79,1746259225008
NMEA,$GAGSV,3,1,11,05,15,279,21,16,20,296,24,23,23,107,23,24,45,300,21,7*71,1746259225008
NMEA,$GAGSV,3,2,11,26,25,043,19,31,74,078,21,33,58,099,21,03,07,327,,7*7F,1746259225008
NMEA,$GAGSV,3,3,11,09,05,230,,10,12,190,,12,31,177,,7*44,1746259225008
NMEA,$GAGSV,3,1,11,16,20,296,22,23,23,107,21,24,45,300,19,26,25,043,23,1*73,1746259225008
NMEA,$GAGSV,3,2,11,31,74,078,24,33,58,099,20,03,07,327,,05,15,279,,1*7C,1746259225008
NMEA,$GAGSV,3,3,11,09,05,230,,10,12,190,,12,31,177,,1*42,1746259225008
NMEA,$GBGSV,3,1,10,45,78,220,23,38,21,053,26,36,35,146,24,35,27,224,20,1*73,1746259225008
NMEA,$GBGSV,3,2,10,30,33,052,30,29,84,140,21,26,31,309,25,13,24,082,22,1*75,1746259225008
NMEA,$GBGSV,3,3,10,08,24,064,23,05,16,120,,1*7B,1746259225008
NMEA,$GBGSV,2,1,07,26,31,309,26,29,84,140,23,30,33,052,27,36,35,146,30,3*79,1746259225008
NMEA,$GBGSV,2,2,07,38,21,053,27,45,78,220,24,35,27,224,,3*47,1746259225008
NMEA,$GBGSV,2,1,07,26,31,309,20,29,84,140,19,30,33,052,20,36,35,146,20,5*76,1746259225008
NMEA,$GBGSV,2,2,07,38,21,053,18,45,78,220,25,35,27,224,,5*4C,1746259225008
NMEA,$GNGSA,A,3,05,12,16,18,20,25,26,28,29,31,,,0.7,0.4,0.5,1*3D,1746259225017
NMEA,$GNGSA,A,3,73,74,80,82,,,,,,,,,0.7,0.4,0.5,2*31,1746259225017
NMEA,$GNGSA,A,3,05,16,23,24,26,31,33,,,,,,0.7,0.4,0.5,3*36,1746259225017
NMEA,$GNGSA,A,3,08,13,26,29,30,35,36,38,45,,,,0.7,0.4,0.5,4*3D,1746259225017
NMEA,$GNVTG,115.6,T,112.3,M,8.7,N,16.1,K,A*06,1746259225017
NMEA,$GNDTM,P90,,0000.000026,S,00000.000000,E,0.978,W84*5C,1746259225017
NMEA,$GNRMC,080025.00,A,4504.220784,N,00741.128256,E,8.7,115.6,030525,3.3,E,A,V*55,1746259225017
NMEA,$GNGNS,080025.00,4504.220784,N,00741.128256,E,AAAANN,30,0.4,232.0,48.0,,,V*23,1746259225017
NMEA,$GNGGA,080025.00,4504.220784,N,00741.128256,E,1,12,0.4,232.0,M,48.0,M,,*73,1746259225017
NMEA,$GPGSV,3,1,12,05,15,085,30,12,07,111,20,16,09,295,17,18,43,172,24,1*67,1746259226014
NMEA,$GPGSV,3,2,12,20,14,049,33,25,40,112,25,26,36,301,27,28,53,225,26,1*61,1746259226014
NMEA,$GPGSV,3,3,12,29,68,045,32,31,53,273,26,04,05,324,,11,00,000,,1*60,1746259226014
NMEA,$GPGSV,2,1,06,25,40,112,18,26,36,301,29,28,53,225,26,04,05,324,,8*61,1746259226014
NMEA,$GPGSV,2,2,06,11,00,000,,18,43,172,,8*61,1746259226014
NMEA,$GLGSV,2,1,08,74,41,322,26,82,27,034,26,73,85,071,25,80,28,132,34,1*73,1746259226014
NMEA,$GLGSV,2,2,08,83,71,047,19,66,01,022,,65,05,337,,84,37,205,,1*79,1746259226014
NMEA,$GAGSV,3,1,11,05,15,279,21,16,20,296,25,23,23,107,22,24,45,300,24,7*74,1746259226014
NMEA,$GAGSV,3,2,11,26,25,043,27,31,74,078,22,33,58,099,17,03,07,327,,7*74,1746259226014
NMEA,$GAGSV,3,3,11,09,05,230,,10,12,190,,12,31,177,,7*44,1746259226014
NMEA,$GAGSV,3,1,11,16,20,296,28,23,23,107,21,24,45,300,23,26,25,043,20,1*73,1746259226014
NMEA,$GAGSV,3,2,11,31,74,078,21,33,58,099,20,03,07,327,,05,15,279,,1*79,1746259226014
NMEA,$GAGSV,3,3,11,09,05,230,,10,12,190,,12,31,177,,1*42,1746259226014
NMEA,$GBGSV,3,1,10,45,78,220,24,38,21,053,31,36,35,146,27,35,27,224,20,1*71,1746259226014
NMEA,$GBGSV,3,2,10,30,33,052,35,29,84,140,26,26,31,309,24,13,24,082,26,1*72,1746259226014
NMEA,$GBGSV,3,3,10,08,24,064,22,05,16,120,22,1*7A,1746259226014
NMEA,$GBGSV,2,1,07,26,31,309,26,29,84,140,23,30,33,052,32,36,35,146,31,3*7C,1746259226014
NMEA,$GBGSV,2,2,07,38,21,053,33,45,78,220,22,35,27,224,,3*44,1746259226014
NMEA,$GBGSV,2,1,07,26,31,309,26,29,84,140,17,30,33,052,20,36,35,146,27,5*79,1746259226014
NMEA,$GBGSV,2,2,07,38,21,053,25,45,78,220,25,35,27,224,,5*42,1746259226014
NMEA,$GNGSA,A,3,05,12,16,18,20,25,26,28,29,31,,,0.7,0.4,0.5,1*3D,1746259226035
NMEA,$GNGSA,A,3,73,74,80,82,,,,,,,,,0.7,0.4,0.5,2*31,1746259226035
NMEA,$GNGSA,A,3,05,16,23,24,26,31,33,,,,,,0.7,0.4,0.5,3*36,1746259226035
NMEA,$GNGSA,A,3,05,08,13,26,29,30,35,36,38,45,,,0.7,0.4,0.5,4*38,1746259226035
NMEA,$GNVTG,120.2,T,116.9,M,11.5,N,21.2,K,A*37,1746259226035
NMEA,$GNDTM,P90,,0000.000026,S,00000.000000,E,0.978,W84*5C,1746259226035
NMEA,$GNRMC,080026.00,A,4504.217189,N,00741.131649,E,11.5,120.2,030525,3.3,E,A,V*63,1746259226035
NMEA,$GNGNS,080026.00,4504.217189,N,00741.131649,E,AAAANN,31,0.4,230.8,48.0,,,V*26,1746259226035
NMEA,$GNGGA,080026.00,4504.217189,N,00741.131649,E,1,12,0.4,230.8,M,48.0,M,,*77,1746259226035
NMEA,$GPGSV,3,1,12,05,15,085,28,12,07,111,20,16,09,295,19,18,43,172,27,1*63,1746259227011
NMEA,$GPGSV,3,2,12,20,14,049,31,25,40,112,25,26,36,301,25,28,53,225,22,1*65,1746259227011
NMEA,$GPGSV,3,3,12,29,68,045,30,31,53,273,26,04,05,324,,11,00,000,,1*62,1746259227011
NMEA,$GPGSV,2,1,06,18,43,172,15,25,40,112,18,26,36,301,27,28,53,225,29,8*6A,1746259227011
NMEA,$GPGSV,2,2,06,04,05,324,,11,00,000,,8*6F,1746259227011
NMEA,$GLGSV,2,1,08,74,41,322,22,82,27,034,27,73,85,071,22,80,28,132,34,1*71,1746259227011
NMEA,$GLGSV,2,2,08,83,71,047,19,66,01,022,,65,05,337,,84,37,205,,1*79,1746259227011
NMEA,$GAGSV,3,1,11,05,15,279,21,16,20,296,27,23,23,107,25,24,45,300,26,7*73,1746259227011
NMEA,$GAGSV,3,2,11,26,25,043,27,31,74,078,24,33,58,099,17,03,07,327,,7*72,1746259227011
NMEA,$GAGSV,3,3,11,09,05,230,,10,12,190,,12,31,177,,7*44,1746259227011
NMEA,$GAGSV,3,1,11,16,20,296,30,23,23,107,21,24,45,300,23,26,25,043,23,1*79,1746259227011
NMEA,$GAGSV,3,2,11,31,74,078,21,33,58,099,19,03,07,327,,05,15,279,,1*73,1746259227011
NMEA,$GAGSV,3,3,11,09,05,230,,10,12,190,,12,31,177,,1*42,1746259227011
NMEA,$GBGSV,3,1,10,45,78,220,22,38,21,053,31,36,35,146,24,35,27,224,20,1*74,1746259227011
NMEA,$GBGSV,3,2,10,30,33,052,34,29,84,140,26,26,31,309,24,13,24,082,27,1*72,1746259227011
NMEA,$GBGSV,3,3,10,08,24,064,25,05,16,120,22,1*7D,1746259227011
NMEA,$GBGSV,2,1,07,26,31,309,27,29,84,140,23,30,33,052,34,36,35,146,34,3*7E,1746259227011
NMEA,$GBGSV,2,2,07,38,21,053,31,45,78,220,22,35,27,224,,3*46,1746259227011
NMEA,$GBGSV,2,1,07,26,31,309,26,29,84,140,17,30,33,052,26,36,35,146,28,5*70,1746259227011
NMEA,$GBGSV,2,2,07,38,21,053,23,45,78,220,16,35,27,224,,5*44,1746259227011
NMEA,$GNGSA,A,3,05,16,18,20,25,26,28,29,31,,,,0.7,0.4,0.5,1*3E,1746259227021
NMEA,$GNGSA,A,3,73,74,80,82,,,,,,,,,0.7,0.4,0.5,2*31,1746259227021
NMEA,$GNGSA,A,3,05,16,23,24,26,31,33,,,,,,0.7,0.4,0.5,3*36,1746259227021
NMEA,$GNGSA,A,3,05,08,13,26,29,30,35,36,38,45,,,0.7,0.4,0.5,4*38,1746259227021
NMEA,$GNVTG,114.8,T,111.5,M,12.4,N,22.9,K,A*3B,1746259227021
NMEA,$GNDTM,P90,,0000.000026,S,00000.000000,E,0.978,W84*5C,1746259227021
NMEA,$GNRMC,080027.00,A,4504.215465,N,00741.135316,E,12.4,114.8,030525,3.3,E,A,V*63,1746259227021
NMEA,$GNGNS,080027.00,4504.215465,N,00741.135316,E,AAAANN,30,0.4,232.1,48.0,,,V*23,1746259227021
NMEA,$GNGGA,080027.00,4504.215465,N,00741.135316,E,1,12,0.4,232.1,M,48.0,M,,*73,1746259227021
NMEA,$GPGSV,3,1,12,05,15,085,28,12,07,111,20,16,09,295,22,18,43,172,30,1*6D,1746259228002
NMEA,$GPGSV,3,2,12,20,14,049,32,25,40,112,25,26,36,301,24,28,53,225,30,1*64,1746259228002
NMEA,$GPGSV,3,3,12,29,68,045,32,31,53,273,27,04,05,324,,11,00,000,,1*61,1746259228002
NMEA,$GPGSV,2,1,06,18,43,172,24,25,40,112,21,26,36,301,26,28,53,225,29,8*63,1746259228002
NMEA,$GPGSV,2,2,06,04,05,324,,11,00,000,,8*6F,1746259228002
NMEA,$GLGSV,2,1,08,74,41,322,24,82,27,034,31,73,85,071,27,80,28,132,36,1*77,1746259228002
NMEA,$GLGSV,2,2,08,83,71,047,19,66,01,022,,65,05,337,,84,37,205,,1*79,1746259228002
NMEA,$GAGSV,3,1,11,05,15,279,21,12,31,177,18,16,20,296,25,23,23,107,22,7*7F,1746259228002
NMEA,$GAGSV,3,2,11,24,45,300,28,26,25,043,29,31,74,078,23,33,58,099,23,7*70,1746259228002
NMEA,$GAGSV,3,3,11,03,07,327,,09,05,230,,10,12,190,,7*46,1746259228002
NMEA,$GAGSV,3,1,11,16,20,296,31,23,23,107,21,24,45,300,23,26,25,043,22,1*79,1746259228002
NMEA,$GAGSV,3,2,11,31,74,078,23,33,58,099,19,03,07,327,,05,15,279,,1*71,1746259228002
NMEA,$GAGSV,3,3,11,09,05,230,,10,12,190,,12,31,177,,1*42,1746259228002
NMEA,$GBGSV,3,1,10,45,78,220,22,38,21,053,32,36,35,146,30,35,27,224,20,1*72,1746259228002
NMEA,$GBGSV,3,2,10,30,33,052,34,29,84,140,23,26,31,309,24,13,24,082,26,1*76,1746259228002
NMEA,$GBGSV,3,3,10,08,24,064,26,05,16,120,22,1*7E,1746259228002
NMEA,$GBGSV,2,1,07,26,31,309,32,29,84,140,22,30,33,052,37,36,35,146,37,3*7B,1746259228002
NMEA,$GBGSV,2,2,07,38,21,053,35,45,78,220,23,35,27,224,,3*43,1746259228002
NMEA,$GBGSV,2,1,07,26,31,309,29,29,84,140,18,30,33,052,24,36,35,146,26,5*7C,1746259228002
NMEA,$GBGSV,2,2,07,38,21,053,26,45,78,220,21,35,27,224,,5*45,1746259228002
NMEA,$GNGSA,A,3,05,16,18,20,25,26,28,29,31,,,,0.7,0.4,0.6,1*3D,1746259228009
NMEA,$GNGSA,A,3,73,74,80,82,,,,,,,,,0.7,0.4,0.6,2*32,1746259228009
NMEA,$GNGSA,A,3,12,16,23,24,26,31,33,,,,,,0.7,0.4,0.6,3*33,1746259228009
NMEA,$GNGSA,A,3,05,08,13,26,29,30,36,38,45,,,,0.7,0.4,0.6,4*3D,1746259228009
NMEA,$GNVTG,116.1,T,112.8,M,13.3,N,24.7,K,A*30,1746259228009
NMEA,$GNDTM,P90,,0000.000026,S,00000.000000,E,0.978,W84*5C,1746259228009
NMEA,$GNRMC,080028.00,A,4504.213357,N,00741.139427,E,13.3,116.1,030525,3.3,E,A,V*68,1746259228009
NMEA,$GNGNS,080028.00,4504.213357,N,00741.139427,E,AAAANN,29,0.4,232.5,48.0,,,V*29,1746259228009
NMEA,$GNGGA,080028.00,4504.213357,N,00741.139427,E,1,12,0.4,232.5,M,48.0,M,,*71,1746259228009
NMEA,$GPGSV,3,1,12,05,15,085,27,12,07,111,20,16,09,295,21,18,43,172,27,1*67,1746259229011
NMEA,$GPGSV,3,2,12,20,14,049,30,25,40,112,23,26,36,301,24,28,53,225,26,1*67,1746259229011
NMEA,$GPGSV,3,3,12,29,68,045,31,31,53,273,33,04,05,324,,11,00,000,,1*67,1746259229011
NMEA,$GPGSV,2,1,06,18,43,172,30,25,40,112,22,26,36,301,27,28,53,225,29,8*64,1746259229011
NMEA,$GPGSV,2,2,06,04,05,324,,11,00,000,,8*6F,1746259229011
NMEA,$GLGSV,2,1,08,74,41,322,24,82,27,034,28,73,85,071,27,80,28,132,23,1*7B,1746259229011
NMEA,$GLGSV,2,2,08,83,71,047,19,66,01,022,,65,05,337,,84,37,205,,1*79,1746259229011
NMEA,$GAGSV,3,1,11,05,15,279,21,12,31,177,18,16,20,296,25,23,23,107,24,7*79,1746259229011
NMEA,$GAGSV,3,2,11,24,45,300,26,26,25,043,25,31,74,078,25,33,58,099,26,7*71,1746259229011
NMEA,$GAGSV,3,3,11,03,07,327,,09,05,230,,10,12,190,,7*46,1746259229011
NMEA,$GAGSV,3,1,11,16,20,296,31,23,23,107,21,24,45,300,19,26,25,043,21,1*73,1746259229011
NMEA,$GAGSV,3,2,11,31,74,078,23,33,58,099,19,03,07,327,,05,15,279,,1*71,1746259229011
NMEA,$GAGSV,3,3,11,09,05,230,,10,12,190,,12,31,177,,1*42,1746259229011
NMEA,$GBGSV,3,1,10,45,78,220,22,38,21,053,29,36,35,146,32,35,27,224,20,1*7A,1746259229011
NMEA,$GBGSV,3,2,10,30,33,052,29,29,84,140,24,26,31,309,29,13,24,082,24,1*72,1746259229011
NMEA,$GBGSV,3,3,10,08,24,064,33,05,16,120,22,1*7A,1746259229011
NMEA,$GBGSV,2,1,07,26,31,309,28,29,84,140,22,30,33,052,25,36,35,146,35,3*71,1746259229011
NMEA,$GBGSV,2,2,07,38,21,053,31,45,78,220,26,35,27,224,,3*42,1746259229011
NMEA,$GBGSV,2,1,07,26,31,309,23,29,84,140,18,30,33,052,21,36,35,146,25,5*70,1746259229011
NMEA,$GBGSV,2,2,07,38,21,053,25,45,78,220,21,35,27,224,,5*46,1746259229011
NMEA,$GNGSA,A,3,05,16,18,20,25,26,28,29,31,,,,0.7,0.4,0.6,1*3D,1746259229034
NMEA,$GNGSA,A,3,73,74,80,82,,,,,,,,,0.7,0.4,0.6,2*32,1746259229034
NMEA,$GNGSA,A,3,12,16,23,24,26,31,33,,,,,,0.7,0.4,0.6,3*33,1746259229034
NMEA,$GNGSA,A,3,05,08,13,26,29,30,36,38,45,,,,0.7,0.4,0.6,4*3D,1746259229034
NMEA,$GNVTG,117.8,T,114.5,M,12.4,N,22.9,K,A*3D,1746259229034
NMEA,$GNDTM,P90,,0000.000026,S,00000.000000,E,0.978,W84*5C,1746259229034
NMEA,$GNRMC,080029.00,A,4504.212855,N,00741.144893,E,12.4,117.8,030525,3.3,E,A,V*66,1746259229034
NMEA,$GNGNS,080029.00,4504.212855,N,00741.144893,E,AAAANN,29,0.4,231.8,48.0,,,V*27,1746259229034
NMEA,$GNGGA,080029.00,4504.212855,N,00741.144893,E,1,12,0.4,231.8,M,48.0,M,,*7F,1746259229034
NMEA,$GPGSV,3,1,12,05,15,085,26,12,07,111,20,16,09,295,28,18,43,172,27,1*6F,1746259230010
NMEA,$GPGSV,3,2,12,20,14,049,28,25,40,112,28,26,36,301,22,28,53,225,26,1*63,1746259230010
NMEA,$GPGSV,3,3,12,29,68,045,29,31,53,273,33,04,05,324,,11,00,000,,1*6E,1746259230010
NMEA,$GPGSV,2,1,06,18,43,172,30,25,40,112,22,26,36,301,29,28,53,225,27,8*64,1746259230010
NMEA,$GPGSV,2,2,06,04,05,324,,11,00,000,,8*6F,1746259230010
NMEA,$GLGSV,2,1,08,74,41,322,24,82,27,034,29,73,85,071,21,80,28,132,21,1*7E,1746259230010
NMEA,$GLGSV,2,2,08,83,71,047,19,66,01,022,,65,05,337,,84,37,205,,1*79,1746259230010
NMEA,$GAGSV,3,1,11,05,15,279,21,12,31,177,18,16,20,296,18,23,23,107,23,7*70,1746259230010
NMEA,$GAGSV,3,2,11,24,45,300,26,26,25,043,25,31,74,078,27,33,58,099,28,7*7D,1746259230010
NMEA,$GAGSV,3,3,11,03,07,327,,09,05,230,,10,12,190,,7*46,1746259230010
NMEA,$GAGSV,3,1,11,16,20,296,23,23,23,107,21,24,45,300,29,26,25,043,21,1*73,1746259230010
NMEA,$GAGSV,3,2,11,31,74,078,23,33,58,099,19,03,07,327,,05,15,279,,1*71,1746259230010
NMEA,$GAGSV,3,3,11,09,05,230,,10,12,190,,12,31,177,,1*42,1746259230010
NMEA,$GBGSV,3,1,10,45,78,220,23,38,21,053,24,36,35,146,23,35,27,224,20,1*76,1746259230010
NMEA,$GBGSV,3,2,10,30,33,052,27,29,84,140,24,26,31,309,24,13,24,082,26,1*73,1746259230010
NMEA,$GBGSV,3,3,10,08,24,064,31,05,16,120,22,1*78,1746259230010
NMEA,$GBGSV,2,1,07,26,31,309,32,29,84,140,23,30,33,052,31,36,35,146,30,3*7B,1746259230010
NMEA,$GBGSV,2,2,07,38,21,053,31,45,78,220,26,35,27,224,,3*42,1746259230010
NMEA,$GBGSV,2,1,07,26,31,309,24,29,84,140,18,30,33,052,21,36,35,146,25,5*77,1746259230010
NMEA,$GBGSV,2,2,07,38,21,053,23,45,78,220,21,35,27,224,,5*40,1746259230010
NMEA,$GNGSA,A,3,05,16,18,20,25,26,28,29,31,,,,0.7,0.4,0.6,1*3D,1746259230029
NMEA,$GNGSA,A,3,73,74,80,82,,,,,,,,,0.7,0.4,0.6,2*32,1746259230029
NMEA,$GNGSA,A,3,12,16,23,24,26,31,33,,,,,,0.7,0.4,0.6,3*33,1746259230029
NMEA,$GNGSA,A,3,05,08,13,26,29,30,36,38,45,,,,0.7,0.4,0.6,4*3D,1746259230029
NMEA,$GNVTG,115.9,T,112.6,M,12.5,N,23.2,K,A*30,1746259230029
NMEA,$GNDTM,P90,,0000.000026,S,00000.000000,E,0.978,W84*5C,1746259230029
NMEA,$GNRMC,080030.00,A,4504.211239,N,00741.149808,E,12.5,115.9,030525,3.3,E,A,V*60,1746259230029
NMEA,$GNGNS,080030.00,4504.211239,N,00741.149808,E,AAAANN,29,0.4,231.5,48.0,,,V*2E,1746259230029
NMEA,$GNGGA,080030.00,4504.211239,N,00741.149808,E,1,12,0.4,231.5,M,48.0,M,,*76,1746259230029
NMEA,$GPGSV,3,1,12,05,15,085,24,12,07,111,20,16,09,295,29,18,43,172,26,1*6D,1746259231013
NMEA,$GPGSV,3,2,12,20,14,049,28,25,40,112,25,26,36,301,27,28,53,225,33,1*6F,1746259231013
NMEA,$GPGSV,3,3,12,29,68,045,31,31,53,273,23,04,05,324,,11,00,000,,1*66,1746259231013
NMEA,$GPGSV,2,1,06,18,43,172,21,25,40,112,19,26,36,301,24,28,53,225,24,8*62,1746259231013
NMEA,$GPGSV,2,2,06,04,05,324,,11,00,000,,8*6F,1746259231013
NMEA,$GLGSV,2,1,08,74,41,322,22,82,27,034,25,73,85,071,21,80,28,132,21,1*74,1746259231013
NMEA,$GLGSV,2,2,08,83,71,047,19,66,01,022,,65,05,337,,84,37,205,,1*79,1746259231013
NMEA,$GAGSV,3,1,11,05,15,279,21,12,31,177,18,16,20,296,27,23,23,107,22,7*7D,1746259231013
NMEA,$GAGSV,3,2,11,24,45,300,28,26,25,043,25,31,74,078,25,33,58,099,29,7*70,1746259231013
NMEA,$GAGSV,3,3,11,03,07,327,,09,05,230,,10,12,190,,7*46,1746259231013
NMEA,$GAGSV,3,1,11,16,20,296,24,23,23,107,21,24,45,300,28,26,25,043,22,1*76,1746259231013
NMEA,$GAGSV,3,2,11,31,74,078,18,33,58,099,19,03,07,327,,05,15,279,,1*79,1746259231013
NMEA,$GAGSV,3,3,11,09,05,230,,10,12,190,,12,31,177,,1*42,1746259231013
NMEA,$GBGSV,3,1,10,45,78,220,23,38,21,053,25,36,35,146,24,35,27,224,20,1*70,1746259231013
NMEA,$GBGSV,3,2,10,30,33,052,32,29,84,140,25,26,31,309,26,13,24,082,24,1*76,1746259231013
NMEA,$GBGSV,3,3,10,08,24,064,32,05,16,120,22,1*7B,1746259231013
NMEA,$GBGSV,2,1,07,26,31,309,28,29,84,140,25,30,33,052,26,35,27,224,16,3*73,1746259231013
NMEA,$GBGSV,2,2,07,36,35,146,33,38,21,053,31,45,78,220,25,3*46,1746259231013
NMEA,$GBGSV,2,1,07,26,31,309,23,29,84,140,18,30,33,052,26,36,35,146,19,5*78,1746259231013
NMEA,$GBGSV,2,2,07,38,21,053,22,45,78,220,21,35,27,224,,5*41,1746259231013
NMEA,$GNGSA,A,3,05,16,18,20,25,26,28,29,31,,,,0.7,0.4,0.6,1*3D,1746259231037
NMEA,$GNGSA,A,3,73,74,80,82,,,,,,,,,0.7,0.4,0.6,2*32,1746259231037
NMEA,$GNGSA,A,3,12,16,23,24,26,31,33,,,,,,0.7,0.4,0.6,3*33,1746259231037
NMEA,$GNGSA,A,3,05,08,13,26,29,30,36,38,45,,,,0.7,0.4,0.6,4*3D,1746259231037
NMEA,$GNVTG,111.3,T,108.0,M,11.7,N,21.7,K,A*35,1746259231037
NMEA,$GNDTM,P90,,0000.000026,S,00000.000000,E,0.978,W84*5C,1746259231037
NMEA,$GNRMC,080031.00,A,4504.210712,N,00741.154164,E,11.7,111.3,030525,3.3,E,A,V*6C,1746259231037
NMEA,$GNGNS,080031.00,4504.210712,N,00741.154164,E,AAAANN,29,0.4,231.0,48.0,,,V*28,1746259231037
NMEA,$GNGGA,080031.00,4504.210712,N,00741.154164,E,1,12,0.4,231.0,M,48.0,M,,*70,1746259231037
NMEA,$GPGSV,3,1,12,05,15,085,32,12,07,111,20,16,09,295,27,18,43,172,22,1*60,1746259232008
NMEA,$GPGSV,3,2,12,20,14,049,31,25,40,112,24,26,36,301,30,28,53,225,31,1*62,1746259232008
NMEA,$GPGSV,3,3,12,29,68,045,22,31,53,273,28,04,05,324,,11,00,000,,1*6F,1746259232008
NMEA,$GPGSV,2,1,06,18,43,172,21,25,40,112,19,26,36,301,29,28,53,225,29,8*62,1746259232008
NMEA,$GPGSV,2,2,06,04,05,324,,11,00,000,,8*6F,1746259232008
NMEA,$GLGSV,2,1,08,74,41,322,24,82,27,034,25,73,85,071,21,80,28,132,23,1*70,1746259232008
NMEA,$GLGSV,2,2,08,83,71,047,19,66,01,022,,65,05,337,,84,37,205,,1*79,1746259232008
NMEA,$GAGSV,3,1,11,05,15,279,21,12,31,177,18,16,20,296,29,23,23,107,22,7*73,1746259232008
NMEA,$GAGSV,3,2,11,24,45,300,30,26,25,043,29,31,74,078,27,33,58,099,29,7*77,1746259232008
NMEA,$GAGSV,3,3,11,03,07,327,,09,05,230,,10,12,190,,7*46,1746259232008
NMEA,$GAGSV,3,1,11,16,20,296,30,23,23,107,21,24,45,300,25,26,25,043,23,1*7F,1746259232008
NMEA,$GAGSV,3,2,11,31,74,078,18,33,58,099,23,03,07,327,,05,15,279,,1*70,1746259232008
NMEA,$GAGSV,3,3,11,09,05,230,,10,12,190,,12,31,177,,1*42,1746259232008
NMEA,$GBGSV,3,1,10,45,78,220,25,38,21,053,27,36,35,146,26,35,27,224,17,1*72,1746259232008
NMEA,$GBGSV,3,2,10,30,33,052,32,29,84,140,25,26,31,309,29,13,24,082,22,1*7F,1746259232008
NMEA,$GBGSV,3,3,10,08,24,064,25,05,16,120,22,1*7D,1746259232008
NMEA,$GBGSV,2,1,07,26,31,309,28,29,84,140,25,30,33,052,32,35,27,224,29,3*7A,1746259232008
NMEA,$GBGSV,2,2,07,36,35,146,31,38,21,053,29,45,78,220,28,3*40,1746259232008
NMEA,$GBGSV,2,1,07,26,31,309,26,29,84,140,18,30,33,052,22,35,27,224,20,5*74,1746259232008
NMEA,$GBGSV,2,2,07,36,35,146,22,38,21,053,26,45,78,220,19,5*49,1746259232008
NMEA,$GNGSA,A,3,05,16,18,20,25,26,28,29,31,,,,0.7,0.4,0.5,1*3E,1746259232028
NMEA,$GNGSA,A,3,73,74,80,82,,,,,,,,,0.7,0.4,0.5,2*31,1746259232028
NMEA,$GNGSA,A,3,12,16,23,24,26,31,33,,,,,,0.7,0.4,0.5,3*30,1746259232028
NMEA,$GNGSA,A,3,08,13,26,29,30,35,36,38,45,,,,0.7,0.4,0.5,4*3D,1746259232028
NMEA,$GNVTG,111.6,T,108.3,M,11.4,N,21.1,K,A*36,1746259232028
NMEA,$GNDTM,P90,,0000.000026,S,00000.000000,E,0.978,W84*5C,1746259232028
NMEA,$GNRMC,080032.00,A,4504.209807,N,00741.158834,E,11.4,111.6,030525,3.3,E,A,V*6A,1746259232028
NMEA,$GNGNS,080032.00,4504.209807,N,00741.158834,E,AAAANN,29,0.4,232.3,48.0,,,V*28,1746259232028
NMEA,$GNGGA,080032.00,4504.209807,N,00741.158834,E,1,12,0.4,232.3,M,48.0,M,,*70,1746259232028
NMEA,$GPGSV,3,1,12,05,15,085,27,12,07,111,20,16,09,295,27,18,43,172,29,1*6F,1746259233007
NMEA,$GPGSV,3,2,12,20,14,049,31,25,40,112,24,26,36,301,27,28,53,225,28,1*6C,1746259233007
NMEA,$GPGSV,3,3,12,29,68,045,28,31,53,273,27,04,05,324,,11,00,000,,1*6A,1746259233007
NMEA,$GPGSV,2,1,06,18,43,172,21,25,40,112,19,26,36,301,26,28,53,225,23,8*67,1746259233007
NMEA,$GPGSV,2,2,06,04,05,324,,11,00,000,,8*6F,1746259233007
NMEA,$GLGSV,2,1,08,74,41,322,26,82,27,034,28,73,85,071,19,80,28,132,27,1*70,1746259233007
NMEA,$GLGSV,2,2,08,83,71,047,16,66,01,022,,65,05,337,,84,37,205,,1*76,1746259233007
NMEA,$GAGSV,3,1,11,05,15,279,21,12,31,177,18,16,20,296,26,23,23,107,21,7*7F,1746259233007
NMEA,$GAGSV,3,2,11,24,45,300,29,26,25,043,27,31,74,078,26,33,58,099,22,7*7B,1746259233007
NMEA,$GAGSV,3,3,11,03,07,327,,09,05,230,,10,12,190,,7*46,1746259233007
NMEA,$GAGSV,3,1,11,16,20,296,22,23,23,107,12,24,45,300,28,26,25,043,25,1*77,1746259233007
NMEA,$GAGSV,3,2,11,31,74,078,20,33,58,099,23,03,07,327,,05,15,279,,1*7B,1746259233007
NMEA,$GAGSV,3,3,11,09,05,230,,10,12,190,,12,31,177,,1*42,1746259233007
NMEA,$GBGSV,3,1,10,45,78,220,24,38,21,053,29,36,35,146,30,35,27,224,17,1*7A,1746259233007
NMEA,$GBGSV,3,2,10,30,33,052,29,29,84,140,22,26,31,309,30,13,24,082,25,1*7D,1746259233007
NMEA,$GBGSV,3,3,10,08,24,064,24,05,16,120,22,1*7C,1746259233007
NMEA,$GBGSV,2,1,07,26,31,309,25,29,84,140,23,30,33,052,29,35,27,224,29,3*7B,1746259233007
NMEA,$GBGSV,2,2,07,36,35,146,30,38,21,053,31,45,78,220,28,3*48,1746259233007
NMEA,$GBGSV,2,1,07,26,31,309,26,29,84,140,18,30,33,052,22,35,27,224,20,5*74,1746259233007
NMEA,$GBGSV,2,2,07,36,35,146,22,38,21,053,26,45,78,220,19,5*49,1746259233007
NMEA,$GNGSA,A,3,05,16,18,20,25,26,28,29,31,,,,0.7,0.4,0.5,1*3E,1746259233014
NMEA,$GNGSA,A,3,73,74,80,82,,,,,,,,,0.7,0.4,0.5,2*31,1746259233014
NMEA,$GNGSA,A,3,12,16,23,24,26,31,33,,,,,,0.7,0.4,0.5,3*30,1746259233014
NMEA,$GNGSA,A,3,08,13,26,29,30,35,36,38,45,,,,0.7,0.4,0.5,4*3D,1746259233014
NMEA,$GNVTG,95.9,T,92.6,M,10.6,N,19.6,K,A*3C,1746259233014
NMEA,$GNDTM,P90,,0000.000026,S,00000.000000,E,0.978,W84*5C,1746259233014
NMEA,$GNRMC,080033.00,A,4504.209746,N,00741.163644,E,10.6,95.9,030525,3.3,E,A,V*51,1746259233014
NMEA,$GNGNS,080033.00,4504.209746,N,00741.163644,E,AAAANN,29,0.4,231.8,48.0,,,V*2A,1746259233014
NMEA,$GNGGA,080033.00,4504.209746,N,00741.163644,E,1,12,0.4,231.8,M,48.0,M,,*72,1746259233014
NMEA,$GPGSV,3,1,12,05,15,085,23,12,07,111,20,16,09,295,33,18,43,172,29,1*6E,1746259234014
NMEA,$GPGSV,3,2,12,20,14,049,28,25,40,112,22,26,36,301,33,28,53,225,27,1*68,1746259234014
NMEA,$GPGSV,3,3,12,29,68,045,31,31,53,273,28,04,05,324,,11,00,000,,1*6D,1746259234014
NMEA,$GPGSV,2,1,06,18,43,172,24,25,40,112,19,26,36,301,29,28,53,225,22,8*6C,1746259234014
NMEA,$GPGSV,2,2,06,04,05,324,,11,00,000,,8*6F,1746259234014
NMEA,$GLGSV,2,1,08,74,41,322,27,82,27,034,27,73,85,071,19,80,28,132,33,1*7B,1746259234014
NMEA,$GLGSV,2,2,08,83,71,047,16,66,01,022,,65,05,337,,84,37,205,,1*76,1746259234014
NMEA,$GAGSV,3,1,11,05,15,279,21,12,31,177,18,16,20,296,24,23,23,107,22,7*7E,1746259234014
NMEA,$GAGSV,3,2,11,24,45,300,30,26,25,043,28,31,74,078,26,33,58,099,24,7*7A,1746259234014
NMEA,$GAGSV,3,3,11,03,07,327,,09,05,230,,10,12,190,,7*46,1746259234014
NMEA,$GAGSV,3,1,11,16,20,296,22,23,23,107,12,24,45,300,22,26,25,043,24,1*7C,1746259234014
NMEA,$GAGSV,3,2,11,31,74,078,20,33,58,099,23,03,07,327,,05,15,279,,1*7B,1746259234014
NMEA,$GAGSV,3,3,11,09,05,230,,10,12,190,,12,31,177,,1*42,1746259234014
NMEA,$GBGSV,3,1,10,45,78,220,22,38,21,053,28,36,35,146,28,35,27,224,17,1*74,1746259234014
NMEA,$GBGSV,3,2,10,30,33,052,29,29,84,140,22,26,31,309,35,13,24,082,24,1*79,1746259234014
NMEA,$GBGSV,3,3,10,08,24,064,24,05,16,120,22,1*7C,1746259234014
NMEA,$GBGSV,2,1,07,26,31,309,33,29,84,140,23,30,33,052,29,35,27,224,29,3*7C,1746259234014
NMEA,$GBGSV,2,2,07,36,35,146,30,38,21,053,30,45,78,220,24,3*45,1746259234014
NMEA,$GBGSV,2,1,07,26,31,309,26,29,84,140,18,30,33,052,22,35,27,224,20,5*74,1746259234014
NMEA,$GBGSV,2,2,07,36,35,146,23,38,21,053,26,45,78,220,19,5*48,1746259234014
NMEA,$GNGSA,A,3,05,16,18,20,25,26,28,29,31,,,,0.7,0.4,0.6,1*3D,1746259234024
NMEA,$GNGSA,A,3,73,74,80,82,,,,,,,,,0.7,0.4,0.6,2*32,1746259234024
NMEA,$GNGSA,A,3,16,23,24,26,31,33,,,,,,,0.7,0.4,0.6,3*30,1746259234024
NMEA,$GNGSA,A,3,08,13,26,29,30,35,36,38,45,,,,0.7,0.4,0.6,4*3E,1746259234024
NMEA,$GNVTG,81.8,T,78.5,M,10.6,N,19.6,K,A*3F,1746259234024
NMEA,$GNDTM,P90,,0000.000026,S,00000.000000,E,0.978,W84*5C,1746259234024
NMEA,$GNRMC,080034.00,A,4504.209848,N,00741.168148,E,10.6,81.8,030525,3.3,E,A,V*53,1746259234024
NMEA,$GNGNS,080034.00,4504.209848,N,00741.168148,E,AAAANN,28,0.4,232.9,48.0,,,V*2F,1746259234024
NMEA,$GNGGA,080034.00,4504.209848,N,00741.168148,E,1,12,0.4,232.9,M,48.0,M,,*76,1746259234024
NMEA,$GPGSV,3,1,12,05,15,085,23,12,07,111,20,16,09,295,29,18,43,172,30,1*6D,1746259235012
NMEA,$GPGSV,3,2,12,20,14,049,32,25,40,112,23,26,36,301,33,28,53,225,28,1*6D,1746259235012
NMEA,$GPGSV,3,3,12,29,68,045,28,31,53,273,25,04,05,324,,11,00,000,,1*68,1746259235012
NMEA,$GPGSV,2,1,06,18,43,172,27,25,40,112,23,26,36,301,32,28,53,225,30,8*6F,1746259235012
NMEA,$GPGSV,2,2,06,04,05,324,,11,00,000,,8*6F,1746259235012
NMEA,$GLGSV,2,1,08,74,41,322,24,82,27,034,28,73,85,071,23,80,28,132,32,1*7F,1746259235012
NMEA,$GLGSV,2,2,08,83,71,047,16,66,01,022,,65,05,337,,84,37,205,,1*76,1746259235012
NMEA,$GAGSV,3,1,11,05,15,279,21,12,31,177,18,16,20,296,34,23,23,107,22,7*7F,1746259235012
NMEA,$GAGSV,3,2,11,24,45,300,31,26,25,043,29,31,74,078,24,33,58,099,26,7*7A,1746259235012
NMEA,$GAGSV,3,3,11,03,07,327,,09,05,230,,10,12,190,,7*46,1746259235012
NMEA,$GAGSV,3,1,11,16,20,296,27,23,23,107,20,24,45,300,23,26,25,043,29,1*74,1746259235012
NMEA,$GAGSV,3,2,11,31,74,078,19,33,58,099,23,03,07,327,,05,15,279,,1*71,1746259235012
NMEA,$GAGSV,3,3,11,09,05,230,,10,12,190,,12,31,177,,1*42,1746259235012
NMEA,$GBGSV,3,1,10,45,78,220,28,38,21,053,29,36,35,146,32,35,27,224,17,1*74,1746259235012
NMEA,$GBGSV,3,2,10,30,33,052,32,29,84,140,22,26,31,309,34,13,24,082,24,1*72,1746259235012
NMEA,$GBGSV,3,3,10,08,24,064,24,05,16,120,22,1*7C,1746259235012
NMEA,$GBGSV,2,1,07,26,31,309,30,29,84,140,25,30,33,052,29,35,27,224,29,3*79,1746259235012
NMEA,$GBGSV,2,2,07,36,35,146,32,38,21,053,30,45,78,220,30,3*42,1746259235012
NMEA,$GBGSV,2,1,07,26,31,309,28,29,84,140,18,30,33,052,22,35,27,224,20,5*7A,1746259235012
NMEA,$GBGSV,2,2,07,36,35,146,27,38,21,053,21,45,78,220,21,5*40,1746259235012
NMEA,$GNGSA,A,3,05,16,18,20,25,26,28,29,31,,,,0.7,0.4,0.6,1*3D,1746259235038
NMEA,$GNGSA,A,3,73,74,80,82,,,,,,,,,0.7,0.4,0.6,2*32,1746259235038
NMEA,$GNGSA,A,3,16,23,24,26,31,33,,,,,,,0.7,0.4,0.6,3*30,1746259235038
NMEA,$GNGSA,A,3,08,13,26,29,30,35,36,38,45,,,,0.7,0.4,0.6,4*3E,1746259235038
NMEA,$GNVTG,87.3,T,84.0,M,10.2,N,18.8,K,A*3F,1746259235038
NMEA,$GNDTM,P90,,0000.000026,S,00000.000000,E,0.978,W84*5C,1746259235038
NMEA,$GNRMC,080035.00,A,4504.210541,N,00741.172304,E,10.2,87.3,030525,3.3,E,A,V*56,1746259235038
NMEA,$GNGNS,080035.00,4504.210541,N,00741.172304,E,AAAANN,28,0.4,232.1,48.0,,,V*2B,1746259235038
NMEA,$GNGGA,080035.00,4504.210541,N,00741.172304,E,1,12,0.4,232.1,M,48.0,M,,*72,1746259235038
NMEA,$GPGSV,3,1,12,05,15,085,23,12,07,111,21,16,09,295,35,18,43,172,35,1*64,1746259236012
NMEA,$GPGSV,3,2,12,20,14,049,30,25,40,112,31,26,36,301,29,28,53,225,31,1*6F,1746259236012
NMEA,$GPGSV,3,3,12,29,68,045,26,31,53,273,26,04,05,324,,11,00,000,,1*65,1746259236012
NMEA,$GPGSV,2,1,06,18,43,172,33,25,40,112,25,26,36,301,28,28,53,225,28,8*6E,1746259236012
NMEA,$GPGSV,2,2,06,04,05,324,,11,00,000,,8*6F,1746259236012
NMEA,$GLGSV,2,1,08,74,41,322,29,82,27,034,29,73,85,071,26,80,28,132,25,1*70,1746259236012
NMEA,$GLGSV,2,2,08,83,71,047,16,66,01,022,,65,05,337,,84,37,205,,1*76,1746259236012
NMEA,$GAGSV,3,1,11,05,15,279,21,12,31,177,18,16,20,296,33,23,23,107,21,7*7B,1746259236012
NMEA,$GAGSV,3,2,11,24,45,300,30,26,25,043,27,31,74,078,29,33,58,099,24,7*7A,1746259236012
NMEA,$GAGSV,3,3,11,03,07,327,,09,05,230,,10,12,190,,7*46,1746259236012
NMEA,$GAGSV,3,1,11,16,20,296,32,23,23,107,20,24,45,300,31,26,25,043,30,1*7B,1746259236012
NMEA,$GAGSV,3,2,11,31,74,078,19,33,58,099,22,03,07,327,,05,15,279,,1*70,1746259236012
NMEA,$GAGSV,3,3,11,09,05,230,,10,12,190,,12,31,177,,1*42,1746259236012
NMEA,$GBGSV,3,1,10,45,78,220,25,38,21,053,29,36,35,146,32,35,27,224,17,1*79,1746259236012
NMEA,$GBGSV,3,2,10,30,33,052,29,29,84,140,22,26,31,309,30,13,24,082,24,1*7C,1746259236012
NMEA,$GBGSV,3,3,10,08,24,064,22,05,16,120,22,1*7A,1746259236012
NMEA,$GBGSV,2,1,07,26,31,309,34,29,84,140,23,30,33,052,29,35,27,224,29,3*7B,1746259236012
NMEA,$GBGSV,2,2,07,36,35,146,32,38,21,053,29,45,78,220,28,3*43,1746259236012
NMEA,$GBGSV,2,1,07,26,31,309,26,29,84,140,16,30,33,052,25,35,27,224,20,5*7D,1746259236012
NMEA,$GBGSV,2,2,07,36,35,146,27,38,21,053,23,45,78,220,21,5*42,1746259236012
NMEA,$GNGSA,A,3,05,16,18,20,25,26,28,29,31,,,,0.7,0.4,0.6,1*3D,1746259236032
NMEA,$GNGSA,A,3,73,74,80,82,,,,,,,,,0.7,0.4,0.6,2*32,1746259236032
NMEA,$GNGSA,A,3,16,23,24,26,31,33,,,,,,,0.7,0.4,0.6,3*30,1746259236032
NMEA,$GNGSA,A,3,08,13,26,29,30,35,36,38,45,,,,0.7,0.4,0.6,4*3E,1746259236032
NMEA,$GNVTG,64.6,T,61.3,M,9.7,N,18.0,K,A*0A,1746259236032
NMEA,$GNDTM,P90,,0000.000026,S,00000.000000,E,0.978,W84*5C,1746259236032
NMEA,$GNRMC,080036.00,A,4504.211422,N,00741.176304,E,9.7,64.6,030525,3.3,E,A,V*61,1746259236032
NMEA,$GNGNS,080036.00,4504.211422,N,00741.176304,E,AAAANN,28,0.4,231.5,48.0,,,V*2E,1746259236032
NMEA,$GNGGA,080036.00,4504.211422,N,00741.176304,E,1,12,0.4,231.5,M,48.0,M,,*77,1746259236032
NMEA,$GPGSV,3,1,12,05,15,085,22,12,07,111,21,16,09,295,33,18,43,172,34,1*62,1746259237011
NMEA,$GPGSV,3,2,12,20,14,049,33,25,40,112,27,26,36,301,32,28,53,225,31,1*61,1746259237011
NMEA,$GPGSV,3,3,12,29,68,045,26,31,53,273,29,04,05,324,,11,00,000,,1*6A,1746259237011
NMEA,$GPGSV,1,1,04,18,43,172,33,25,40,112,26,26,36,301,28,28,53,225,27,8*63,1746259237011
NMEA,$GLGSV,2,1,08,74,41,322,28,82,27,034,29,73,85,071,24,80,28,132,32,1*75,1746259237011
NMEA,$GLGSV,2,2,08,83,71,047,17,66,01,022,,65,05,337,,84,37,205,,1*77,1746259237011
NMEA,$GAGSV,3,1,11,05,15,279,18,12,31,177,16,16,20,296,29,23,23,107,21,7*74,1746259237011
NMEA,$GAGSV,3,2,11,24,45,300,30,26,25,043,33,31,74,078,27,33,58,099,25,7*70,1746259237011
NMEA,$GAGSV,3,3,11,03,07,327,,09,05,230,,10,12,190,,7*46,1746259237011
NMEA,$GAGSV,3,1,11,16,20,296,28,23,23,107,20,24,45,300,27,26,25,043,26,1*70,1746259237011
NMEA,$GAGSV,3,2,11,31,74,078,19,33,58,099,23,03,07,327,,05,15,279,,1*71,1746259237011
NMEA,$GAGSV,3,3,11,09,05,230,,10,12,190,,12,31,177,,1*42,1746259237011
NMEA,$GBGSV,3,1,10,45,78,220,24,38,21,053,28,36,35,146,33,35,27,224,17,1*78,1746259237011
NMEA,$GBGSV,3,2,10,30,33,052,30,29,84,140,23,26,31,309,36,13,24,082,21,1*76,1746259237011
NMEA,$GBGSV,3,3,10,08,24,064,24,05,16,120,22,1*7C,1746259237011
NMEA,$GBGSV,2,1,07,26,31,309,40,29,84,140,24,30,33,052,31,35,27,224,29,3*76,1746259237011
NMEA,$GBGSV,2,2,07,36,35,146,35,38,21,053,33,45,78,220,27,3*40,1746259237011
NMEA,$GBGSV,2,1,07,26,31,309,26,29,84,140,20,30,33,052,24,35,27,224,20,5*79,1746259237011
NMEA,$GBGSV,2,2,07,36,35,146,25,38,21,053,23,45,78,220,20,5*41,1746259237011
NMEA,$GNGSA,A,3,05,16,18,20,25,26,28,29,31,,,,0.7,0.4,0.5,1*3E,1746259237035
NMEA,$GNGSA,A,3,73,74,80,82,,,,,,,,,0.7,0.4,0.5,2*31,1746259237035
NMEA,$GNGSA,A,3,05,12,16,23,24,26,31,33,,,,,0.7,0.4,0.5,3*35,1746259237035
NMEA,$GNGSA,A,3,08,13,26,29,30,35,36,38,45,,,,0.7,0.4,0.5,4*3D,1746259237035
NMEA,$GNVTG,46.2,T,42.9,M,8.5,N,15.7,K,A*0C,1746259237035
NMEA,$GNDTM,P90,,0000.000026,S,00000.000000,E,0.978,W84*5C,1746259237035
NMEA,$GNRMC,080037.00,A,4504.212231,N,00741.179721,E,8.5,46.2,030525,3.3,E,A,V*6C,1746259237035
NMEA,$GNGNS,080037.00,4504.212231,N,00741.179721,E,AAAANN,30,0.4,231.5,48.0,,,V*2D,1746259237035
NMEA,$GNGGA,080037.00,4504.212231,N,00741.179721,E,1,12,0.4,231.5,M,48.0,M,,*7D,1746259237035
NMEA,$GPGSV,3,1,12,05,15,085,26,12,07,111,21,16,09,295,34,18,43,172,24,1*60,1746259238009
NMEA,$GPGSV,3,2,12,20,14,049,32,25,40,112,28,26,36,301,29,28,53,225,22,1*67,1746259238009
NMEA,$GPGSV,3,3,12,29,68,045,26,31,53,273,28,04,05,324,,11,00,000,,1*6B,1746259238009
NMEA,$GPGSV,2,1,06,18,43,172,28,25,40,112,27,26,36,301,24,28,53,225,32,8*61,1746259238009
NMEA,$GPGSV,2,2,06,04,05,324,,11,00,000,,8*6F,1746259238009
NMEA,$GLGSV,2,1,08,74,41,322,32,82,27,034,26,73,85,071,22,80,28,132,30,1*75,1746259238009
NMEA,$GLGSV,2,2,08,83,71,047,17,66,01,022,,65,05,337,,84,37,205,,1*77,1746259238009
NMEA,$GAGSV,3,1,11,03,07,327,16,05,15,279,18,12,31,177,26,16,20,296,31,7*7E,1746259238009
NMEA,$GAGSV,3,2,11,23,23,107,21,24,45,300,29,26,25,043,28,31,74,078,23,7*79,1746259238009
NMEA,$GAGSV,3,3,11,33,58,099,29,09,05,230,,10,12,190,,7*42,1746259238009
NMEA,$GAGSV,3,1,11,05,15,279,15,12,31,177,17,16,20,296,33,23,23,107,20,1*74,1746259238009
NMEA,$GAGSV,3,2,11,24,45,300,37,26,25,043,24,31,74,078,21,33,58,099,25,1*71,1746259238009
NMEA,$GAGSV,3,3,11,03,07,327,,09,05,230,,10,12,190,,1*40,1746259238009
NMEA,$GBGSV,3,1,10,45,78,220,23,38,21,053,27,36,35,146,27,35,27,224,17,1*75,1746259238009
NMEA,$GBGSV,3,2,10,30,33,052,32,29,84,140,25,26,31,309,39,13,24,082,25,1*79,1746259238009
NMEA,$GBGSV,3,3,10,08,24,064,24,05,16,120,22,1*7C,1746259238009
NMEA,$GBGSV,2,1,07,26,31,309,42,29,84,140,24,30,33,052,30,35,27,224,29,3*75,1746259238009
NMEA,$GBGSV,2,2,07,36,35,146,26,38,21,053,33,45,78,220,24,3*41,1746259238009
NMEA,$GBGSV,2,1,07,26,31,309,27,29,84,140,25,30,33,052,29,35,27,224,20,5*70,1746259238009
NMEA,$GBGSV,2,2,07,36,35,146,27,38,21,053,24,45,78,220,23,5*47,1746259238009
NMEA,$GNGSA,A,3,05,16,18,20,25,26,28,29,31,,,,0.7,0.4,0.5,1*3E,1746259238030
NMEA,$GNGSA,A,3,73,74,80,82,,,,,,,,,0.7,0.4,0.5,2*31,1746259238030
NMEA,$GNGSA,A,3,03,05,12,16,23,24,26,31,33,,,,0.7,0.4,0.5,3*36,1746259238030
NMEA,$GNGSA,A,3,08,13,26,29,30,36,38,45,,,,,0.7,0.4,0.5,4*3B,1746259238030
NMEA,$GNVTG,42.1,T,38.8,M,7.4,N,13.8,K,A*00,1746259238030
NMEA,$GNDTM,P90,,0000.000026,S,00000.000000,E,0.978,W84*5C,1746259238030
NMEA,$GNRMC,080038.00,A,4504.212599,N,00741.182787,E,7.4,42.1,030525,3.3,E,A,V*67,1746259238030
NMEA,$GNGNS,080038.00,4504.212599,N,00741.182787,E,AAAANN,30,0.4,231.3,48.0,,,V*29,1746259238030
NMEA,$GNGGA,080038.00,4504.212599,N,00741.182787,E,1,12,0.4,231.3,M,48.0,M,,*79,1746259238030
NMEA,$GPGSV,3,1,12,05,15,085,28,12,07,111,20,16,09,295,34,18,43,172,29,1*62,1746259239010
NMEA,$GPGSV,3,2,12,20,14,049,34,25,40,112,28,26,36,301,34,28,53,225,26,1*69,1746259239010
NMEA,$GPGSV,3,3,12,29,68,045,30,31,53,273,30,04,05,324,,11,00,000,,1*65,1746259239010
NMEA,$GPGSV,2,1,06,18,43,172,33,25,40,112,28,26,36,301,28,28,53,225,28,8*63,1746259239010
NMEA,$GPGSV,2,2,06,04,05,324,,11,00,000,,8*6F,1746259239010
NMEA,$GLGSV,2,1,08,74,41,322,31,82,27,034,28,73,85,071,22,80,28,132,24,1*7D,1746259239010
NMEA,$GLGSV,2,2,08,84,37,205,16,83,71,047,17,66,01,022,,65,05,337,,1*70,1746259239010
NMEA,$GAGSV,3,1,11,03,07,327,16,05,15,279,19,12,31,177,25,16,20,296,25,7*79,1746259239010
NMEA,$GAGSV,3,2,11,23,23,107,21,24,45,300,33,26,25,043,29,31,74,078,23,7*73,1746259239010
NMEA,$GAGSV,3,3,11,33,58,099,29,09,05,230,,10,12,190,,7*42,1746259239010
NMEA,$GAGSV,3,1,11,05,15,279,15,12,31,177,24,16,20,296,30,23,23,107,20,1*77,1746259239010
NMEA,$GAGSV,3,2,11,24,45,300,34,26,25,043,24,31,74,078,21,33,58,099,23,1*74,1746259239010
NMEA,$GAGSV,3,3,11,03,07,327,,09,05,230,,10,12,190,,1*40,1746259239010
NMEA,$GBGSV,3,1,10,45,78,220,25,38,21,053,26,36,35,146,29,35,27,224,17,1*7C,1746259239010
NMEA,$GBGSV,3,2,10,30,33,052,32,29,84,140,23,26,31,309,39,13,24,082,25,1*7F,1746259239010
NMEA,$GBGSV,3,3,10,08,24,064,24,05,16,120,22,1*7C,1746259239010
NMEA,$GBGSV,2,1,07,26,31,309,42,29,84,140,20,30,33,052,31,35,27,224,29,3*70,1746259239010
NMEA,$GBGSV,2,2,07,36,35,146,33,38,21,053,34,45,78,220,27,3*41,1746259239010
NMEA,$GBGSV,2,1,07,26,31,309,27,29,84,140,21,30,33,052,28,35,27,224,20,5*75,1746259239010
NMEA,$GBGSV,2,2,07,36,35,146,31,38,21,053,24,45,78,220,23,5*40,1746259239010
NMEA,$GNGSA,A,3,05,16,18,20,25,26,28,29,31,,,,0.7,0.4,0.5,1*3E,1746259239028
NMEA,$GNGSA,A,3,73,74,80,82,,,,,,,,,0.7,0.4,0.5,2*31,1746259239028
NMEA,$GNGSA,A,3,03,05,12,16,23,24,26,31,33,,,,0.7,0.4,0.5,3*36,1746259239028
NMEA,$GNGSA,A,3,08,13,26,29,30,36,38,45,,,,,0.7,0.4,0.5,4*3B,1746259239028
NMEA,$GNVTG,66.0,T,62.7,M,6.3,N,11.6,K,A*0D,1746259239028
NMEA,$GNDTM,P90,,0000.000026,S,00000.000000,E,0.978,W84*5C,1746259239028
NMEA,$GNRMC,080039.00,A,4504.213213,N,00741.185257,E,6.3,66.0,030525,3.3,E,A,V*6C,1746259239028
NMEA,$GNGNS,080039.00,4504.213213,N,00741.185257,E,AAAANN,30,0.4,231.3,48.0,,,V*23,1746259239028
NMEA,$GNGGA,080039.00,4504.213213,N,00741.185257,E,1,12,0.4,231.3,M,48.0,M,,*73,1746259239028
NMEA,$GPGSV,3,1,12,05,15,085,28,12,07,111,20,16,09,295,33,18,43,172,31,1*6C,1746259240011
NMEA,$GPGSV,3,2,12,20,14,049,31,25,40,112,26,26,36,301,37,28,53,225,30,1*66,1746259240011
NMEA,$GPGSV,3,3,12,29,68,045,30,31,53,273,26,04,05,324,,11,00,000,,1*62,1746259240011
NMEA,$GPGSV,2,1,06,18,43,172,34,25,40,112,24,26,36,301,31,28,53,225,27,8*6F,1746259240011
NMEA,$GPGSV,2,2,06,04,05,324,,11,00,000,,8*6F,1746259240011
NMEA,$GLGSV,2,1,08,74,41,322,30,82,27,034,25,73,85,071,24,80,28,132,24,1*77,1746259240011
NMEA,$GLGSV,2,2,08,84,37,205,16,83,71,047,17,66,01,022,,65,05,337,,1*70,1746259240011
NMEA,$GAGSV,3,1,11,03,07,327,16,05,15,279,24,12,31,177,27,16,20,296,27,7*77,1746259240011
NMEA,$GAGSV,3,2,11,23,23,107,21,24,45,300,35,26,25,043,25,31,74,078,24,7*7E,1746259240011
NMEA,$GAGSV,3,3,11,33,58,099,22,09,05,230,,10,12,190,,7*49,1746259240011
NMEA,$GAGSV,2,1,08,05,15,279,19,12,31,177,25,16,20,296,27,23,23,107,20,1*75,1746259240011
NMEA,$GAGSV,2,2,08,24,45,300,34,26,25,043,24,31,74,078,21,33,58,099,23,1*7D,1746259240011
NMEA,$GBGSV,3,1,10,45,78,220,22,38,21,053,28,36,35,146,27,35,27,224,18,1*74,1746259240011
NMEA,$GBGSV,3,2,10,30,33,052,30,29,84,140,29,26,31,309,37,13,24,082,25,1*79,1746259240011
NMEA,$GBGSV,3,3,10,08,24,064,21,05,16,120,22,1*79,1746259240011
NMEA,$GBGSV,2,1,07,26,31,309,42,29,84,140,25,30,33,052,24,35,27,224,29,3*71,1746259240011
NMEA,$GBGSV,2,2,07,36,35,146,32,38,21,053,31,45,78,220,30,3*43,1746259240011
NMEA,$GBGSV,2,1,07,26,31,309,23,29,84,140,21,30,33,052,24,35,27,224,20,5*7D,1746259240011
NMEA,$GBGSV,2,2,07,36,35,146,30,38,21,053,24,45,78,220,23,5*41,1746259240011
NMEA,$GNGSA,A,3,05,16,18,20,25,26,28,29,31,,,,0.6,0.4,0.5,1*3F,1746259240030
NMEA,$GNGSA,A,3,73,74,80,82,,,,,,,,,0.6,0.4,0.5,2*30,1746259240030
NMEA,$GNGSA,A,3,03,05,12,16,23,24,26,31,33,,,,0.6,0.4,0.5,3*37,1746259240030
NMEA,$GNGSA,A,3,08,13,26,29,30,35,36,38,45,,,,0.6,0.4,0.5,4*3C,1746259240030
NMEA,$GNVTG,85.3,T,82.0,M,4.8,N,8.9,K,A*34,1746259240030
NMEA,$GNDTM,P90,,0000.000026,S,00000.000000,E,0.978,W84*5C,1746259240030
NMEA,$GNRMC,080040.00,A,4504.213576,N,00741.186858,E,4.8,85.3,030525,3.3,E,A,V*67,1746259240030
NMEA,$GNGNS,080040.00,4504.213576,N,00741.186858,E,AAAANN,31,0.4,231.4,48.0,,,V*29,1746259240030
NMEA,$GNGGA,080040.00,4504.213576,N,00741.186858,E,1,12,0.4,231.4,M,48.0,M,,*78,1746259240030
NMEA,$GPGSV,3,1,12,05,15,085,27,12,07,111,20,16,09,295,32,18,43,172,24,1*66,1746259241009
NMEA,$GPGSV,3,2,12,20,14,049,33,25,40,112,23,26,36,301,32,28,53,225,25,1*60,1746259241009
NMEA,$GPGSV,3,3,12,29,68,045,31,31,53,273,32,04,05,324,,11,00,000,,1*66,1746259241009
NMEA,$GPGSV,2,1,06,18,43,172,30,25,40,112,24,26,36,301,30,28,53,225,27,8*6A,1746259241009
NMEA,$GPGSV,2,2,06,04,05,324,,11,00,000,,8*6F,1746259241009
NMEA,$GLGSV,2,1,08,74,41,322,24,82,27,034,24,73,85,071,25,80,28,132,20,1*76,1746259241009
NMEA,$GLGSV,2,2,08,84,37,205,22,83,71,047,17,66,01,022,,65,05,337,,1*77,1746259241009
NMEA,$GAGSV,3,1,11,03,07,327,19,05,15,279,21,12,31,177,22,16,20,296,26,7*79,1746259241009
NMEA,$GAGSV,3,2,11,23,23,107,21,24,45,300,35,26,25,043,25,31,74,078,24,7*7E,1746259241009
NMEA,$GAGSV,3,3,11,33,58,099,22,09,05,230,,10,12,190,,7*49,1746259241009
NMEA,$GAGSV,3,1,11,05,15,279,19,12,31,177,23,16,20,296,27,23,23,107,20,1*7A,1746259241009
NMEA,$GAGSV,3,2,11,24,45,300,31,26,25,043,27,31,74,078,21,33,58,099,23,1*72,1746259241009
NMEA,$GAGSV,3,3,11,03,07,327,,09,05,230,,10,12,190,,1*40,1746259241009
NMEA,$GBGSV,3,1,10,45,78,220,28,38,21,053,26,36,35,146,27,35,27,224,18,1*70,1746259241009
NMEA,$GBGSV,3,2,10,30,33,052,30,29,84,140,28,26,31,309,38,13,24,082,25,1*77,1746259241009
NMEA,$GBGSV,3,3,10,08,24,064,24,05,16,120,22,1*7C,1746259241009
NMEA,$GBGSV,2,1,07,26,31,309,39,29,84,140,24,30,33,052,31,35,27,224,18,3*7A,1746259241009
NMEA,$GBGSV,2,2,07,36,35,146,29,38,21,053,29,45,78,220,31,3*41,1746259241009
NMEA,$GBGSV,2,1,07,26,31,309,26,29,84,140,19,30,33,052,24,35,27,224,20,5*73,1746259241009
NMEA,$GBGSV,2,2,07,36,35,146,24,38,21,053,21,45,78,220,18,5*49,1746259241009
NMEA,$GNGSA,A,3,05,16,18,20,25,26,28,29,31,,,,0.7,0.4,0.5,1*3E,1746259241022
NMEA,$GNGSA,A,3,73,74,80,82,,,,,,,,,0.7,0.4,0.5,2*31,1746259241022
NMEA,$GNGSA,A,3,03,05,12,16,23,24,26,31,33,,,,0.7,0.4,0.5,3*36,1746259241022
NMEA,$GNGSA,A,3,08,13,26,29,30,35,36,38,45,,,,0.7,0.4,0.5,4*3D,1746259241022
NMEA,$GNVTG,68.3,T,65.0,M,2.5,N,4.6,K,A*36,1746259241022
NMEA,$GNDTM,P90,,0000.000026,S,00000.000000,E,0.978,W84*5C,1746259241022
NMEA,$GNRMC,080041.00,A,4504.213932,N,00741.187770,E,2.5,68.3,030525,3.3,E,A,V*66,1746259241022
NMEA,$GNGNS,080041.00,4504.213932,N,00741.187770,E,AAAANN,31,0.4,231.9,48.0,,,V*2D,1746259241022
NMEA,$GNGGA,080041.00,4504.213932,N,00741.187770,E,1,12,0.4,231.9,M,48.0,M,,*7C,1746259241022
NMEA,$GPGSV,3,1,12,05,15,085,27,12,07,111,20,16,09,295,32,18,43,172,30,1*63,1746259242006
NMEA,$GPGSV,3,2,12,20,14,049,29,25,40,112,22,26,36,301,34,28,53,225,28,1*61,1746259242006
NMEA,$GPGSV,3,3,12,29,68,045,31,31,53,273,28,04,05,324,,11,00,000,,1*6D,1746259242006
NMEA,$GPGSV,2,1,06,18,43,172,24,25,40,112,24,26,36,301,26,28,53,225,25,8*6A,1746259242006
NMEA,$GPGSV,2,2,06,04,05,324,,11,00,000,,8*6F,1746259242006
NMEA,$GLGSV,2,1,08,74,41,322,29,82,27,034,26,73,85,071,22,80,28,132,20,1*7E,1746259242006
NMEA,$GLGSV,2,2,08,84,37,205,22,83,71,047,17,66,01,022,,65,05,337,,1*77,1746259242006
NMEA,$GAGSV,3,1,11,03,07,327,19,05,15,279,21,12,31,177,23,16,20,296,31,7*7E,1746259242006
NMEA,$GAGSV,3,2,11,23,23,107,21,24,45,300,31,26,25,043,27,31,74,078,23,7*7F,1746259242006
NMEA,$GAGSV,3,3,11,33,58,099,24,09,05,230,,10,12,190,,7*4F,1746259242006
NMEA,$GAGSV,3,1,11,05,15,279,19,12,31,177,23,16,20,296,26,23,23,107,20,1*7B,1746259242006
NMEA,$GAGSV,3,2,11,24,45,300,31,26,25,043,27,31,74,078,19,33,58,099,23,1*79,1746259242006
NMEA,$GAGSV,3,3,11,03,07,327,,09,05,230,,10,12,190,,1*40,1746259242006
NMEA,$GBGSV,3,1,10,45,78,220,28,38,21,053,26,36,35,146,29,35,27,224,21,1*74,1746259242006
NMEA,$GBGSV,3,2,10,30,33,052,28,29,84,140,28,26,31,309,32,13,24,082,19,1*7B,1746259242006
NMEA,$GBGSV,3,3,10,08,24,064,24,05,16,120,22,1*7C,1746259242006
NMEA,$GBGSV,2,1,07,26,31,309,35,29,84,140,25,30,33,052,31,35,27,224,18,3*77,1746259242006
NMEA,$GBGSV,2,2,07,36,35,146,32,38,21,053,29,45,78,220,27,3*4C,1746259242006
NMEA,$GBGSV,2,1,07,26,31,309,26,29,84,140,19,30,33,052,21,35,27,224,20,5*76,1746259242006
NMEA,$GBGSV,2,2,07,36,35,146,22,38,21,053,21,45,78,220,18,5*4F,1746259242006
NMEA,$GNGSA,A,3,05,16,18,20,25,26,28,29,31,,,,0.7,0.4,0.5,1*3E,1746259242014
NMEA,$GNGSA,A,3,73,74,80,82,,,,,,,,,0.7,0.4,0.5,2*31,1746259242014
NMEA,$GNGSA,A,3,03,05,12,16,23,24,26,31,33,,,,0.7,0.4,0.5,3*36,1746259242014
NMEA,$GNGSA,A,3,08,13,26,29,30,35,36,38,45,,,,0.7,0.4,0.5,4*3D,1746259242014
NMEA,$GNVTG,76.5,T,73.2,M,1.7,N,3.2,K,A*38,1746259242014
NMEA,$GNDTM,P90,,0000.000026,S,00000.000000,E,0.978,W84*5C,1746259242014
NMEA,$GNRMC,080042.00,A,4504.214104,N,00741.188477,E,1.7,76.5,030525,3.3,E,A,V*6C,1746259242014
NMEA,$GNGNS,080042.00,4504.214104,N,00741.188477,E,AAAANN,31,0.4,232.5,48.0,,,V*20,1746259242014
NMEA,$GNGGA,080042.00,4504.214104,N,00741.188477,E,1,12,0.4,232.5,M,48.0,M,,*71,1746259242014
NMEA,$GPGSV,3,1,12,05,15,085,20,12,07,111,20,16,09,295,36,18,43,172,26,1*67,1746259243009
NMEA,$GPGSV,3,2,12,20,14,049,32,25,40,112,24,26,36,301,37,28,53,225,33,1*64,1746259243009
NMEA,$GPGSV,3,3,12,29,68,045,31,31,53,273,28,04,05,324,,11,00,000,,1*6D,1746259243009
NMEA,$GPGSV,2,1,06,18,43,172,24,25,40,112,19,26,36,301,27,28,53,225,29,8*69,1746259243009
NMEA,$GPGSV,2,2,06,04,05,324,,11,00,000,,8*6F,1746259243009
NMEA,$GLGSV,2,1,08,74,41,322,27,82,27,034,30,73,85,071,22,80,28,132,20,1*77,1746259243009
NMEA,$GLGSV,2,2,08,84,37,205,21,83,71,047,17,66,01,022,,65,05,337,,1*74,1746259243009
NMEA,$GAGSV,3,1,11,03,07,327,19,05,15,279,21,12,31,177,24,16,20,296,34,7*7C,1746259243009
NMEA,$GAGSV,3,2,11,23,23,107,21,24,45,300,34,26,25,043,29,31,74,078,21,7*76,1746259243009
NMEA,$GAGSV,3,3,11,33,58,099,24,09,05,230,,10,12,190,,7*4F,1746259243009
NMEA,$GAGSV,3,1,11,05,15,279,19,12,31,177,23,16,20,296,26,23,23,107,20,1*7B,1746259243009
NMEA,$GAGSV,3,2,11,24,45,300,19,26,25,043,22,31,74,078,24,33,58,099,20,1*7B,1746259243009
NMEA,$GAGSV,3,3,11,03,07,327,,09,05,230,,10,12,190,,1*40,1746259243009
NMEA,$GBGSV,3,1,10,45,78,220,24,38,21,053,25,36,35,146,25,35,27,224,24,1*72,1746259243009
NMEA,$GBGSV,3,2,10,30,33,052,32,29,84,140,21,26,31,309,36,13,24,082,19,1*7D,1746259243009
NMEA,$GBGSV,3,3,10,08,24,064,23,05,16,120,22,1*7B,1746259243009
NMEA,$GBGSV,2,1,07,26,31,309,37,29,84,140,27,30,33,052,26,35,27,224,26,3*7C,1746259243009
NMEA,$GBGSV,2,2,07,36,35,146,35,38,21,053,30,45,78,220,29,3*4D,1746259243009
NMEA,$GBGSV,2,1,07,26,31,309,29,29,84,140,19,30,33,052,24,35,27,224,20,5*7C,1746259243009
NMEA,$GBGSV,2,2,07,36,35,146,24,38,21,053,19,45,78,220,18,5*42,1746259243009
NMEA,$GNGSA,A,3,05,16,18,20,25,26,28,29,31,,,,0.6,0.4,0.5,1*3F,1746259243026
NMEA,$GNGSA,A,3,73,74,80,82,,,,,,,,,0.6,0.4,0.5,2*30,1746259243026
NMEA,$GNGSA,A,3,03,05,12,16,23,24,26,31,33,,,,0.6,0.4,0.5,3*37,1746259243026
NMEA,$GNGSA,A,3,08,13,26,29,30,35,36,38,45,,,,0.6,0.4,0.5,4*3C,1746259243026
NMEA,$GNVTG,78.8,T,75.5,M,0.7,N,1.4,K,A*3F,1746259243026
NMEA,$GNDTM,P90,,0000.000026,S,00000.000000,E,0.978,W84*5C,1746259243026
NMEA,$GNRMC,080043.00,A,4504.214290,N,00741.188842,E,0.7,78.8,030525,3.3,E,A,V*6B,1746259243026
NMEA,$GNGNS,080043.00,4504.214290,N,00741.188842,E,AAAANN,31,0.4,232.5,48.0,,,V*25,1746259243026
NMEA,$GNGGA,080043.00,4504.214290,N,00741.188842,E,1,12,0.4,232.5,M,48.0,M,,*74,1746259243026
NMEA,$GPGSV,3,1,12,05,15,085,20,12,07,111,20,16,09,295,36,18,43,172,25,1*64,1746259244281
NMEA,$GPGSV,3,2,12,20,14,049,30,25,40,112,24,26,36,301,36,28,53,225,33,1*67,1746259244281
NMEA,$GPGSV,3,3,12,29,68,045,22,31,53,273,20,04,05,324,,11,00,000,,1*67,1746259244281
NMEA,$GPGSV,2,1,06,18,43,172,25,25,40,112,19,26,36,301,32,28,53,225,31,8*65,1746259244281
NMEA,$GPGSV,2,2,06,04,05,324,,11,00,000,,8*6F,1746259244281
NMEA,$GLGSV,2,1,08,74,41,322,28,82,27,034,29,73,85,071,22,80,28,132,20,1*70,1746259244281
NMEA,$GLGSV,2,2,08,84,37,205,21,83,71,047,17,66,01,022,,65,05,337,,1*74,1746259244281
NMEA,$GAGSV,3,1,11,03,07,327,19,05,15,279,22,12,31,177,23,16,20,296,36,7*7A,1746259244281
NMEA,$GAGSV,3,2,11,23,23,107,21,24,45,300,36,26,25,043,28,31,74,078,22,7*76,1746259244281
NMEA,$GAGSV,3,3,11,33,58,099,21,09,05,230,,10,12,190,,7*4A,1746259244281
NMEA,$GAGSV,3,1,11,05,15,279,19,12,31,177,23,16,20,296,22,23,23,107,20,1*7F,1746259244281
NMEA,$GAGSV,3,2,11,24,45,300,19,26,25,043,24,31,74,078,24,33,58,099,24,1*79,1746259244281
NMEA,$GAGSV,3,3,11,03,07,327,,09,05,230,,10,12,190,,1*40,1746259244281
NMEA,$GBGSV,3,1,10,45,78,220,24,38,21,053,29,36,35,146,27,35,27,224,25,1*7D,1746259244281
NMEA,$GBGSV,3,2,10,30,33,052,29,29,84,140,21,26,31,309,37,13,24,082,19,1*76,1746259244281
NMEA,$GBGSV,3,3,10,08,24,064,28,05,16,120,22,1*70,1746259244281
NMEA,$GBGSV,2,1,07,26,31,309,34,29,84,140,27,30,33,052,30,35,27,224,31,3*7E,1746259244281
NMEA,$GBGSV,2,2,07,36,35,146,33,38,21,053,33,45,78,220,28,3*49,1746259244281
NMEA,$GBGSV,2,1,07,26,31,309,25,29,84,140,19,30,33,052,24,35,27,224,14,5*77,1746259244281
NMEA,$GBGSV,2,2,07,36,35,146,24,38,21,053,19,45,78,220,18,5*42,1746259244281
NMEA,$GNGSA,A,3,05,16,18,20,25,26,28,29,31,,,,0.7,0.4,0.5,1*3E,1746259244303
NMEA,$GNGSA,A,3,73,74,80,82,,,,,,,,,0.7,0.4,0.5,2*31,1746259244303
NMEA,$GNGSA,A,3,03,05,12,16,24,26,31,33,,,,,0.7,0.4,0.5,3*37,1746259244303
NMEA,$GNGSA,A,3,08,13,26,29,30,35,36,38,45,,,,0.7,0.4,0.5,4*3D,1746259244303
NMEA,$GNVTG,78.7,T,75.4,M,0.5,N,0.9,K,A*3F,1746259244303
NMEA,$GNDTM,P90,,0000.000026,S,00000.000000,E,0.978,W84*5C,1746259244303
NMEA,$GNRMC,080044.00,A,4504.214431,N,00741.188997,E,0.5,78.7,030525,3.3,E,A,V*65,1746259244303
NMEA,$GNGNS,080044.00,4504.214431,N,00741.188997,E,AAAANN,30,0.4,232.7,48.0,,,V*25,1746259244303
NMEA,$GNGGA,080044.00,4504.214431,N,00741.188997,E,1,12,0.4,232.7,M,48.0,M,,*75,1746259244303
NMEA,$GPGSV,3,1,12,05,15,085,20,12,07,111,20,16,09,295,39,18,43,172,26,1*68,1746259245012
NMEA,$GPGSV,3,2,12,20,14,049,29,25,40,112,24,26,36,301,37,28,53,225,30,1*6D,1746259245012
NMEA,$GPGSV,3,3,12,29,68,045,32,31,53,273,22,04,05,324,,11,00,000,,1*64,1746259245012
NMEA,$GPGSV,2,1,06,18,43,172,26,25,40,112,20,26,36,301,30,28,53,225,30,8*6F,1746259245012
NMEA,$GPGSV,2,2,06,04,05,324,,11,00,000,,8*6F,1746259245012
NMEA,$GLGSV,2,1,08,74,41,322,27,82,27,034,27,73,85,071,22,80,28,132,19,1*7B,1746259245012
NMEA,$GLGSV,2,2,08,84,37,205,21,83,71,047,17,66,01,022,,65,05,337,,1*74,1746259245012
NMEA,$GAGSV,3,1,11,03,07,327,22,05,15,279,22,12,31,177,22,16,20,296,36,7*73,1746259245012
NMEA,$GAGSV,3,2,11,23,23,107,21,24,45,300,35,26,25,043,31,31,74,078,24,7*7B,1746259245012
NMEA,$GAGSV,3,3,11,33,58,099,22,09,05,230,,10,12,190,,7*49,1746259245012
NMEA,$GAGSV,3,1,11,05,15,279,19,12,31,177,23,16,20,296,29,23,23,107,20,1*74,1746259245012
NMEA,$GAGSV,3,2,11,24,45,300,19,26,25,043,24,31,74,078,24,33,58,099,24,1*79,1746259245012
NMEA,$GAGSV,3,3,11,03,07,327,,09,05,230,,10,12,190,,1*40,1746259245012
NMEA,$GBGSV,3,1,10,45,78,220,24,38,21,053,29,36,35,146,30,35,27,224,26,1*78,1746259245012
NMEA,$GBGSV,3,2,10,30,33,052,32,29,84,140,21,26,31,309,39,13,24,082,19,1*72,1746259245012
NMEA,$GBGSV,3,3,10,08,24,064,29,05,16,120,22,1*71,1746259245012
NMEA,$GBGSV,2,1,07,26,31,309,36,29,84,140,27,30,33,052,30,35,27,224,29,3*75,1746259245012
NMEA,$GBGSV,2,2,07,36,35,146,30,38,21,053,32,45,78,220,27,3*44,1746259245012
NMEA,$GBGSV,2,1,07,26,31,309,26,29,84,140,19,30,33,052,24,35,27,224,14,5*74,1746259245012
NMEA,$GBGSV,2,2,07,36,35,146,22,38,21,053,19,45,78,220,18,5*44,1746259245012
NMEA,$GNGSA,A,3,05,16,18,20,25,26,28,29,31,,,,0.7,0.4,0.5,1*3E,1746259245028
NMEA,$GNGSA,A,3,73,74,80,82,,,,,,,,,0.7,0.4,0.5,2*31,1746259245028
NMEA,$GNGSA,A,3,03,05,12,16,24,26,31,33,,,,,0.7,0.4,0.5,3*37,1746259245028
NMEA,$GNGSA,A,3,08,13,26,29,30,35,36,38,45,,,,0.7,0.4,0.5,4*3D,1746259245028
NMEA,$GNVTG,78.6,T,75.3,M,0.3,N,0.6,K,A*30,1746259245028
NMEA,$GNDTM,P90,,0000.000026,S,00000.000000,E,0.978,W84*5C,1746259245028
NMEA,$GNRMC,080045.00,A,4504.214593,N,00741.189116,E,0.3,78.6,030525,3.3,E,A,V*6A,1746259245028
NMEA,$GNGNS,080045.00,4504.214593,N,00741.189116,E,AAAANN,30,0.4,232.4,48.0,,,V*2E,1746259245028
NMEA,$GNGGA,080045.00,4504.214593,N,00741.189116,E,1,12,0.4,232.4,M,48.0,M,,*7E,1746259245028
NMEA,$GPGSV,3,1,12,05,15,085,20,12,07,111,20,16,09,295,39,18,43,172,26,1*68,1746259246010
NMEA,$GPGSV,3,2,12,20,14,049,29,25,40,112,19,26,36,301,36,28,53,225,31,1*63,1746259246010
NMEA,$GPGSV,3,3,12,29,68,045,30,31,53,273,29,04,05,324,,11,00,000,,1*6D,1746259246010
NMEA,$GPGSV,2,1,06,18,43,172,26,25,40,112,23,26,36,301,30,28,53,225,29,8*64,1746259246010
NMEA,$GPGSV,2,2,06,04,05,324,,11,00,000,,8*6F,1746259246010
NMEA,$GLGSV,2,1,08,74,41,322,25,82,27,034,29,73,85,071,22,80,28,132,19,1*77,1746259246010
NMEA,$GLGSV,2,2,08,84,37,205,21,83,71,047,17,66,01,022,,65,05,337,,1*74,1746259246010
NMEA,$GAGSV,3,1,11,03,07,327,23,05,15,279,22,12,31,177,22,16,20,296,34,7*70,1746259246010
NMEA,$GAGSV,3,2,11,23,23,107,21,24,45,300,36,26,25,043,33,31,74,078,21,7*7F,1746259246010
NMEA,$GAGSV,3,3,11,33,58,099,22,09,05,230,,10,12,190,,7*49,1746259246010
NMEA,$GAGSV,3,1,11,05,15,279,16,12,31,177,23,16,20,296,28,23,23,107,20,1*7A,1746259246010
NMEA,$GAGSV,3,2,11,24,45,300,19,26,25,043,28,31,74,078,24,33,58,099,19,1*7B,1746259246010
NMEA,$GAGSV,3,3,11,03,07,327,,09,05,230,,10,12,190,,1*40,1746259246010
NMEA,$GBGSV,3,1,10,45,78,220,24,38,21,053,27,36,35,146,29,35,27,224,29,1*71,1746259246010
NMEA,$GBGSV,3,2,10,30,33,052,26,29,84,140,22,26,31,309,38,13,24,082,19,1*75,1746259246010
NMEA,$GBGSV,3,3,10,08,24,064,25,05,16,120,22,1*7D,1746259246010
NMEA,$GBGSV,2,1,07,26,31,309,36,29,84,140,27,30,33,052,27,35,27,224,26,3*7C,1746259246010
NMEA,$GBGSV,2,2,07,36,35,146,27,38,21,053,30,45,78,220,26,3*41,1746259246010
NMEA,$GBGSV,2,1,07,26,31,309,24,29,84,140,19,30,33,052,19,35,27,224,14,5*78,1746259246010
NMEA,$GBGSV,2,2,07,36,35,146,22,38,21,053,19,45,78,220,18,5*44,1746259246010
NMEA,$GNGSA,A,3,05,16,18,20,25,26,28,29,31,,,,0.7,0.4,0.5,1*3E,1746259246029
NMEA,$GNGSA,A,3,73,74,80,82,,,,,,,,,0.7,0.4,0.5,2*31,1746259246029
NMEA,$GNGSA,A,3,03,05,12,16,24,26,31,33,,,,,0.7,0.4,0.5,3*37,1746259246029
NMEA,$GNGSA,A,3,08,13,26,29,30,35,36,38,45,,,,0.7,0.4,0.5,4*3D,1746259246029
NMEA,$GNVTG,,T,,M,0.0,N,0.0,K,A*3D,1746259246029
NMEA,$GNDTM,P90,,0000.000026,S,00000.000000,E,0.978,W84*5C,1746259246029
NMEA,$GNRMC,080046.00,A,4504.214899,N,00741.189110,E,0.0,,030525,3.3,E,A,V*7C,1746259246029
NMEA,$GNGNS,080046.00,4504.214899,N,00741.189110,E,AAAANN,30,0.4,233.5,48.0,,,V*2C,1746259246029
NMEA,$GNGGA,080046.00,4504.214899,N,00741.189110,E,1,12,0.4,233.5,M,48.0,M,,*7C,1746259246029
NMEA,$GPGSV,3,1,12,05,15,085,20,12,07,111,20,16,09,295,38,18,43,172,28,1*67,1746259247007
NMEA,$GPGSV,3,2,12,20,14,049,27,25,40,112,24,26,36,301,33,28,53,225,30,1*67,1746259247007
NMEA,$GPGSV,3,3,12,29,68,045,29,31,53,273,29,04,05,324,,11,00,000,,1*65,1746259247007
NMEA,$GPGSV,2,1,06,18,43,172,26,25,40,112,22,26,36,301,30,28,53,225,28,8*64,1746259247007
NMEA,$GPGSV,2,2,06,04,05,324,,11,00,000,,8*6F,1746259247007
NMEA,$GLGSV,2,1,08,74,41,322,23,82,27,034,29,73,85,071,22,80,28,132,21,1*7A,1746259247007
NMEA,$GLGSV,2,2,08,84,37,205,21,83,71,047,17,66,01,022,,65,05,337,,1*74,1746259247007
