NMEA,$GPGGA,090028.000,4503.5918,N,00741.8380,E,1,12,0.8,290.9,M,48.2,M,,*5E,1746867627000
NMEA,$PSAMSA,090028.000,4503.5918,N,00741.8380,E,0,M,,*6C,1746867627000
NMEA,$GPGLL,4503.5918,N,00741.8380,E,090028.000,A,A*5C,1746867627000
NMEA,$GPVTG,351.0,T,,M,0.0,N,0.0,K,A*0A,1746867627000
NMEA,$GPGSV,2,1,07,05,18,045,32,16,46,306,37,18,76,099,42,26,73,275,39*71,1746867627000
NMEA,$GPGSV,2,2,07,27,34,277,34,29,32,072,35,31,32,221,41*47,1746867627000
NMEA,$GLGSV,2,1,05,66,08,030,31,73,75,271,37,78,67,044,33,80,36,160,36*6D,1746867627000
NMEA,$GLGSV,2,2,05,82,35,038,34*50,1746867627000
NMEA,$BDGSV,2,1,07,208,32,047,28,213,37,066,33,224,16,317,35,226,54,282,38*6E,1746867627000
NMEA,$BDGSV,2,2,07,229,53,055,38,232,04,033,13,235,70,261,37*6C,1746867627000
NMEA,$GPGSA,A,3,18,16,31,29,05,,,,,,,,1.6,0.8,1.4*3A,1746867627000
NMEA,$GNGSA,A,3,73,80,82,,,,,,,,,,1.6,0.8,1.4*20,1746867627000
NMEA,$BDGSA,A,3,208,213,224,229,,,,,,,,,1.6,0.8,1.4*2E,1746867627000
NMEA,$GPRMC,090028.000,A,4503.5918,N,00741.8380,E,0.0,351.0,100525,,,A*6F,1746867627000
NMEA,$PSAMCLK,2365,55084600,12,9743243,2350143,550846000*74,1746867627000
NMEA,$PSAMCLK,2365,55084600,12,9743243,2350143,550846000*74,1746867627000
NMEA,$GPGGA,090029.000,4503.5918,N,00741.8380,E,1,13,0.8,290.9,M,48.2,M,,*5E,1746867628000
NMEA,$PSAMSA,090029.000,4503.5918,N,00741.8380,E,0,M,,*6D,1746867628000
NMEA,$GPGLL,4503.5918,N,00741.8380,E,090029.000,A,A*5D,1746867628000
NMEA,$GPVTG,351.0,T,,M,0.0,N,0.0,K,A*0A,1746867628000
NMEA,$GPGSV,2,1,07,05,18,045,32,16,46,306,37,18,76,099,42,26,73,275,39*71,1746867628000
NMEA,$GPGSV,2,2,07,27,34,277,36,29,32,072,35,31,32,221,41*45,1746867628000
NMEA,$GLGSV,2,1,05,66,08,030,31,73,75,271,37,78,67,044,33,80,36,160,36*6D,1746867628000
NMEA,$GLGSV,2,2,05,82,35,038,33*57,1746867628000
NMEA,$BDGSV,2,1,07,208,32,047,28,213,37,066,33,224,16,317,35,226,54,282,38*6E,1746867628000
NMEA,$BDGSV,2,2,07,229,53,055,38,232,04,033,13,235,70,261,37*6C,1746867628000
NMEA,$GPGSA,A,3,18,16,31,29,05,,,,,,,,1.4,0.8,1.2*3E,1746867628000
NMEA,$GNGSA,A,3,66,73,80,82,,,,,,,,,1.4,0.8,1.2*24,1746867628000
NMEA,$BDGSA,A,3,208,213,224,229,,,,,,,,,1.4,0.8,1.2*2A,1746867628000
NMEA,$GPRMC,090029.000,A,4503.5918,N,00741.8380,E,0.0,351.0,100525,,,A*6E,1746867628000
NMEA,$PSAMCLK,2365,55084700,13,9743197,2411990,550847000*7B,1746867628000
NMEA,$PSAMCLK,2365,55084700,13,9743197,2411990,550847000*7B,1746867628000
NMEA,$GPGGA,090030.000,4503.5918,N,00741.8380,E,1,13,0.8,290.9,M,48.2,M,,*56,1746867629000
NMEA,$PSAMSA,090030.000,4503.5918,N,00741.8380,E,0,M,,*65,1746867629000
NMEA,$GPGLL,4503.5918,N,00741.8380,E,090030.000,A,A*55,1746867629000
NMEA,$GPVTG,351.0,T,,M,0.0,N,0.0,K,A*0A,1746867629000
NMEA,$GPGSV,2,1,07,05,18,045,32,16,46,306,38,18,76,099,42,26,73,275,39*7E,1746867629000
NMEA,$GPGSV,2,2,07,27,34,277,35,29,32,072,35,31,32,221,41*46,1746867629000
NMEA,$GLGSV,2,1,05,66,08,030,30,73,75,271,37,78,67,044,33,80,36,160,35*6F,1746867629000
NMEA,$GLGSV,2,2,05,82,35,038,36*52,1746867629000
NMEA,$BDGSV,2,1,07,208,32,047,31,213,37,066,33,224,16,317,35,226,54,282,38*66,1746867629000
NMEA,$BDGSV,2,2,07,229,53,055,39,232,04,033,12,235,70,261,37*6C,1746867629000
NMEA,$GPGSA,A,3,18,16,31,29,05,,,,,,,,1.4,0.8,1.2*3E,1746867629000
NMEA,$GNGSA,A,3,66,73,80,82,,,,,,,,,1.4,0.8,1.2*24,1746867629000
NMEA,$BDGSA,A,3,208,213,224,229,,,,,,,,,1.4,0.8,1.2*2A,1746867629000
NMEA,$GPRMC,090030.000,A,4503.5918,N,00741.8380,E,0.0,351.0,100525,,,A*66,1746867629000
NMEA,$PSAMCLK,2365,55084800,13,9743333,2473835,550848000*7D,1746867629000
NMEA,$PSAMCLK,2365,55084800,13,9743333,2473835,550848000*7D,1746867629000
NMEA,$GPGGA,090031.000,4503.5918,N,00741.8380,E,1,12,0.8,290.9,M,48.2,M,,*56,1746867630000
NMEA,$PSAMSA,090031.000,4503.5918,N,00741.8380,E,0,M,,*64,1746867630000
NMEA,$GPGLL,4503.5918,N,00741.8380,E,090031.000,A,A*54,1746867630000
NMEA,$GPVTG,351.0,T,,M,0.0,N,0.0,K,A*0A,1746867630000
NMEA,$GPGSV,2,1,07,05,18,045,32,16,46,306,38,18,76,099,41,26,73,274,39*7C,1746867630000
NMEA,$GPGSV,2,2,07,27,34,277,35,29,32,072,35,31,32,221,41*46,1746867630000
NMEA,$GLGSV,2,1,05,66,08,030,30,73,75,271,36,78,67,044,33,80,36,160,34*6F,1746867630000
NMEA,$GLGSV,2,2,05,82,35,038,34*50,1746867630000
NMEA,$BDGSV,2,1,06,208,32,047,31,213,37,066,33,224,16,317,35,226,54,282,38*67,1746867630000
NMEA,$BDGSV,2,2,06,229,53,055,39,235,70,261,37*69,1746867630000
NMEA,$GPGSA,A,3,18,16,31,29,05,,,,,,,,1.6,0.8,1.2*3C,1746867630000
NMEA,$GNGSA,A,3,66,73,80,,,,,,,,,,1.6,0.8,1.2*2C,1746867630000
NMEA,$BDGSA,A,3,208,213,224,229,,,,,,,,,1.6,0.8,1.2*28,1746867630000
NMEA,$GPRMC,090031.000,A,4503.5918,N,00741.8380,E,0.0,351.0,100525,,,A*67,1746867630000
NMEA,$PSAMCLK,2365,55084900,12,9743344,2535680,550849000*7F,1746867630000
NMEA,$PSAMCLK,2365,55084900,12,9743344,2535680,550849000*7F,1746867630000
NMEA,$GPGGA,090032.000,4503.5920,N,00741.8379,E,1,05,5.2,290.8,M,48.2,M,,*50,1746867631000
NMEA,$PSAMSA,090032.000,4503.5920,N,00741.8379,E,0,M,,*6A,1746867631000
NMEA,$GPGLL,4503.5920,N,00741.8379,E,090032.000,A,A*5A,1746867631000
NMEA,$GPVTG,349.8,T,,M,1.7,N,3.2,K,A*0C,1746867631000
NMEA,$GPGSV,2,1,07,05,18,045,32,16,46,306,37,18,76,099,40,26,73,274,37*7C,1746867631000
NMEA,$GPGSV,2,2,07,27,34,277,34,29,32,072,34,31,32,221,39*49,1746867631000
NMEA,$GLGSV,2,1,05,66,08,030,30,73,75,271,36,78,67,044,32,80,36,160,34*6E,1746867631000
NMEA,$GLGSV,2,2,05,82,35,038,33*57,1746867631000
NMEA,$BDGSV,2,1,06,208,32,047,30,213,37,066,32,224,16,317,34,226,54,282,37*69,1746867631000
NMEA,$BDGSV,2,2,06,229,53,055,38,235,70,261,37*68,1746867631000
NMEA,$GPGSA,A,3,16,29,05,,,,,,,,,,9.2,5.2,7.6*36,1746867631000
NMEA,$GNGSA,A,3,73,,,,,,,,,,,,9.2,5.2,7.6*25,1746867631000
NMEA,$BDGSA,A,3,208,,,,,,,,,,,,9.2,5.2,7.6*14,1746867631000
NMEA,$GPRMC,090032.000,A,4503.5920,N,00741.8379,E,1.7,349.8,100525,,,A*6E,1746867631000
NMEA,$PSAMCLK,2365,55085000,5,9743401,2597525,550850000*4B,1746867631000
NMEA,$PSAMCLK,2365,55085000,5,9743401,2597525,550850000*4B,1746867631000
NMEA,$GPGGA,090033.000,4503.5928,N,00741.8374,E,1,04,2.0,290.8,M,48.2,M,,*50,1746867632000
NMEA,$PSAMSA,090033.000,4503.5928,N,00741.8374,E,0,M,,*6E,1746867632000
NMEA,$GPGLL,4503.5928,N,00741.8374,E,090033.000,A,A*5E,1746867632000
NMEA,$GPVTG,348.1,T,,M,3.2,N,5.9,K,A*0E,1746867632000
NMEA,$GPGSV,2,1,07,05,18,045,31,16,46,306,36,18,76,099,38,26,73,274,36*70,1746867632000
NMEA,$GPGSV,2,2,07,27,34,277,33,29,32,072,33,31,32,221,38*48,1746867632000
NMEA,$GLGSV,2,1,05,66,08,030,29,73,75,271,34,78,67,044,31,80,36,160,33*60,1746867632000
NMEA,$GLGSV,2,2,05,82,35,038,31*55,1746867632000
NMEA,$BDGSV,2,1,06,208,32,047,30,213,37,066,31,224,16,317,33,226,54,282,36*6C,1746867632000
NMEA,$BDGSV,2,2,06,229,53,055,37,235,70,261,36*66,1746867632000
NMEA,$GPGSA,A,3,18,16,31,,,,,,,,,,5.6,2.0,5.2*38,1746867632000
NMEA,$BDGSA,A,3,229,,,,,,,,,,,,5.6,2.0,5.2*1C,1746867632000
NMEA,$GPRMC,090033.000,A,4503.5928,N,00741.8374,E,3.2,348.1,100525,,,A*65,1746867632000
NMEA,$PSAMCLK,2365,55085100,4,9743253,2659371,550851000*4D,1746867632000
NMEA,$PSAMCLK,2365,55085100,4,9743253,2659371,550851000*4D,1746867632000
NMEA,$GPGGA,090034.000,4503.5937,N,00741.8378,E,1,06,1.4,290.8,M,48.2,M,,*50,1746867633000
NMEA,$PSAMSA,090034.000,4503.5937,N,00741.8378,E,0,M,,*6B,1746867633000
NMEA,$GPGLL,4503.5937,N,00741.8378,E,090034.000,A,A*5B,1746867633000
NMEA,$GPVTG,350.9,T,,M,3.2,N,6.0,K,A*05,1746867633000
NMEA,$GPGSV,2,1,07,05,18,045,30,16,46,306,35,18,76,099,37,26,73,274,34*7F,1746867633000
NMEA,$GPGSV,2,2,07,27,34,277,33,29,32,072,32,31,32,221,37*46,1746867633000
NMEA,$GLGSV,2,1,05,66,08,030,29,73,75,271,33,78,67,044,30,80,36,160,32*67,1746867633000
NMEA,$GLGSV,2,2,05,82,35,038,30*54,1746867633000
NMEA,$BDGSV,2,1,06,208,32,047,30,213,37,066,30,224,16,317,32,226,54,282,35*6F,1746867633000
NMEA,$BDGSV,2,2,06,229,53,055,36,235,70,261,35*64,1746867633000
NMEA,$GPGSA,A,3,18,16,31,05,,,,,,,,,2.4,1.4,2.0*3A,1746867633000
NMEA,$BDGSA,A,3,213,229,,,,,,,,,,,2.4,1.4,2.0*2B,1746867633000
NMEA,$GPRMC,090034.000,A,4503.5937,N,00741.8378,E,3.2,350.9,100525,,,A*61,1746867633000
NMEA,$PSAMCLK,2365,55085200,6,9743101,2721215,550852000*46,1746867633000
NMEA,$PSAMCLK,2365,55085200,6,9743101,2721215,550852000*46,1746867633000
NMEA,$GPGGA,090035.000,4503.5945,N,00741.8382,E,1,05,6.0,290.8,M,48.2,M,,*51,1746867634000
NMEA,$PSAMSA,090035.000,4503.5945,N,00741.8382,E,0,M,,*6A,1746867634000
NMEA,$GPGLL,4503.5945,N,00741.8382,E,090035.000,A,A*5A,1746867634000
NMEA,$GPVTG,354.2,T,,M,2.9,N,5.4,K,A*07,1746867634000
NMEA,$GPGSV,2,1,07,05,18,045,29,16,46,306,34,18,76,099,36,26,73,274,33*70,1746867634000
NMEA,$GPGSV,2,2,07,27,34,277,32,29,32,072,30,31,32,221,36*44,1746867634000
NMEA,$GLGSV,2,1,05,66,08,030,28,73,75,271,31,78,67,044,29,80,36,160,32*6C,1746867634000
NMEA,$GLGSV,2,2,05,82,35,038,28*5D,1746867634000
NMEA,$BDGSV,2,1,06,208,32,047,29,213,37,066,29,224,16,317,31,226,54,282,34*6D,1746867634000
NMEA,$BDGSV,2,2,06,229,53,055,34,235,70,261,33*60,1746867634000
NMEA,$GPGSA,A,3,18,05,,,,,,,,,,,8.4,6.0,6.0*32,1746867634000
NMEA,$BDGSA,A,3,213,224,229,,,,,,,,,,8.4,6.0,6.0*12,1746867634000
NMEA,$GPRMC,090035.000,A,4503.5945,N,00741.8382,E,2.9,354.2,100525,,,A*65,1746867634000
NMEA,$PSAMCLK,2365,55085300,5,9743011,2783060,550853000*4D,1746867634000
NMEA,$PSAMCLK,2365,55085300,5,9743011,2783060,550853000*4D,1746867634000
NMEA,$GPGGA,090036.000,4503.5953,N,00741.8370,E,1,08,0.8,290.8,M,48.2,M,,*5B,1746867635000
NMEA,$PSAMSA,090036.000,4503.5953,N,00741.8370,E,0,M,,*63,1746867635000
NMEA,$GPGLL,4503.5953,N,00741.8370,E,090036.000,A,A*53,1746867635000
NMEA,$GPVTG,349.3,T,,M,3.2,N,5.9,K,A*0D,1746867635000
NMEA,$GPGSV,2,1,07,05,18,045,28,16,46,306,33,18,76,099,34,26,73,274,31*76,1746867635000
NMEA,$GPGSV,2,2,07,27,34,277,31,29,32,072,29,31,32,221,34*4D,1746867635000
NMEA,$GLGSV,2,1,05,66,08,030,27,73,75,271,30,78,67,044,28,80,36,160,31*60,1746867635000
NMEA,$GLGSV,2,2,05,82,35,038,27*52,1746867635000
NMEA,$BDGSV,2,1,06,208,32,047,29,213,37,066,28,224,16,317,30,226,54,282,33*6A,1746867635000
NMEA,$BDGSV,2,2,06,229,53,055,33,235,70,261,32*66,1746867635000
NMEA,$GPGSA,A,3,18,16,31,05,,,,,,,,,2.0,0.8,1.6*36,1746867635000
NMEA,$GNGSA,A,3,80,,,,,,,,,,,,2.0,0.8,1.6*29,1746867635000
NMEA,$BDGSA,A,3,213,224,229,,,,,,,,,,2.0,0.8,1.6*13,1746867635000
NMEA,$GPRMC,090036.000,A,4503.5953,N,00741.8370,E,3.2,349.3,100525,,,A*6B,1746867635000
NMEA,$PSAMCLK,2365,55085400,8,9742768,2844902,550854000*41,1746867635000
NMEA,$PSAMCLK,2365,55085400,8,9742768,2844902,550854000*41,1746867635000
NMEA,$GPGGA,090037.000,4503.5964,N,00741.8348,E,1,07,1.2,290.8,M,48.2,M,,*51,1746867636000
NMEA,$PSAMSA,090037.000,4503.5964,N,00741.8348,E,0,M,,*6D,1746867636000
NMEA,$GPGLL,4503.5964,N,00741.8348,E,090037.000,A,A*5D,1746867636000
NMEA,$GPVTG,330.8,T,,M,5.1,N,9.4,K,A*0C,1746867636000
NMEA,$GPGSV,2,1,07,05,18,045,27,16,46,306,32,18,76,099,33,26,73,274,30*7E,1746867636000
NMEA,$GPGSV,2,2,07,27,34,277,31,29,32,072,27,31,32,221,33*44,1746867636000
NMEA,$GLGSV,2,1,05,66,08,030,25,73,75,271,28,78,67,044,28,80,36,160,31*6B,1746867636000
NMEA,$GLGSV,2,2,05,82,35,038,25*50,1746867636000
NMEA,$BDGSV,2,1,06,208,32,047,27,213,37,066,27,224,16,317,29,226,54,282,32*62,1746867636000
NMEA,$BDGSV,2,2,06,229,53,055,32,235,70,261,31*64,1746867636000
NMEA,$GPGSA,A,3,18,16,31,05,,,,,,,,,2.2,1.2,1.8*31,1746867636000
NMEA,$BDGSA,A,3,213,224,229,,,,,,,,,,2.2,1.2,1.8*14,1746867636000
NMEA,$GPRMC,090037.000,A,4503.5964,N,00741.8348,E,5.1,330.8,100525,,,A*65,1746867636000
NMEA,$PSAMCLK,2365,55085500,7,9742558,2906742,550855000*42,1746867636000
NMEA,$PSAMCLK,2365,55085500,7,9742558,2906742,550855000*42,1746867636000
NMEA,$GPGGA,090038.000,4503.5968,N,00741.8327,E,1,06,1.4,290.7,M,48.2,M,,*53,1746867637000
NMEA,$PSAMSA,090038.000,4503.5968,N,00741.8327,E,0,M,,*67,1746867637000
NMEA,$GPGLL,4503.5968,N,00741.8327,E,090038.000,A,A*57,1746867637000
NMEA,$GPVTG,314.1,T,,M,5.4,N,10.0,K,A*3A,1746867637000
NMEA,$GPGSV,2,1,07,05,18,045,26,16,46,306,31,18,76,099,32,26,73,274,28*74,1746867637000
NMEA,$GPGSV,2,2,07,27,34,277,30,29,32,072,26,31,32,221,32*45,1746867637000
NMEA,$GLGSV,2,1,05,66,08,030,24,73,75,271,27,78,67,044,27,80,36,160,30*6B,1746867637000
NMEA,$GLGSV,2,2,05,82,35,038,24*51,1746867637000
NMEA,$BDGSV,2,1,06,208,32,047,26,213,37,066,27,224,16,317,28,226,54,282,31*61,1746867637000
NMEA,$BDGSV,2,2,06,229,53,055,31,235,70,261,30*66,1746867637000
NMEA,$GPGSA,A,3,18,16,31,05,,,,,,,,,2.4,1.4,2.0*3A,1746867637000
NMEA,$BDGSA,A,3,213,229,,,,,,,,,,,2.4,1.4,2.0*2B,1746867637000
NMEA,$GPRMC,090038.000,A,4503.5968,N,00741.8327,E,5.4,314.1,100525,,,A*65,1746867637000
NMEA,$PSAMCLK,2365,55085600,6,9742436,2968582,550856000*4C,1746867637000
NMEA,$PSAMCLK,2365,55085600,6,9742436,2968582,550856000*4C,1746867637000
NMEA,$GPGGA,090039.000,4503.5974,N,00741.8304,E,1,05,1.8,290.7,M,48.2,M,,*51,1746867638000
NMEA,$PSAMSA,090039.000,4503.5974,N,00741.8304,E,0,M,,*6A,1746867638000
NMEA,$GPGLL,4503.5974,N,00741.8304,E,090039.000,A,A*5A,1746867638000
NMEA,$GPVTG,302.4,T,,M,5.8,N,10.7,K,A*33,1746867638000
NMEA,$GPGSV,2,1,07,05,18,045,24,16,46,306,31,18,76,099,31,26,73,274,27*7A,1746867638000
NMEA,$GPGSV,2,2,07,27,34,277,29,29,32,072,24,31,32,221,31*4C,1746867638000
NMEA,$GLGSV,2,1,05,66,08,030,22,73,75,271,25,78,67,044,25,80,36,160,28*64,1746867638000
NMEA,$GLGSV,2,2,05,82,35,038,22*57,1746867638000
NMEA,$BDGSV,2,1,06,208,32,047,24,213,37,066,25,224,16,317,27,226,54,282,30*6F,1746867638000
NMEA,$BDGSV,2,2,06,229,53,055,30,235,70,261,29*6F,1746867638000
NMEA,$GPGSA,A,3,18,16,31,,,,,,,,,,3.6,1.8,3.0*31,1746867638000
NMEA,$BDGSA,A,3,224,229,,,,,,,,,,,3.6,1.8,3.0*21,1746867638000
NMEA,$GPRMC,090039.000,A,4503.5974,N,00741.8304,E,5.8,302.4,100525,,,A*66,1746867638000
NMEA,$PSAMCLK,2365,55085700,5,9742420,3030422,550857000*46,1746867638000
NMEA,$PSAMCLK,2365,55085700,5,9742420,3030422,550857000*46,1746867638000
NMEA,$GPGGA,090040.000,4503.5983,N,00741.8279,E,1,05,1.8,290.7,M,48.2,M,,*5C,1746867639000
NMEA,$PSAMSA,090040.000,4503.5983,N,00741.8279,E,0,M,,*67,1746867639000
NMEA,$GPGLL,4503.5983,N,00741.8279,E,090040.000,A,A*57,1746867639000
NMEA,$GPVTG,294.6,T,,M,6.3,N,11.6,K,A*37,1746867639000
NMEA,$GPGSV,2,1,07,05,18,045,23,16,46,306,30,18,76,099,30,26,73,274,25*7F,1746867639000
NMEA,$GPGSV,2,2,07,27,34,277,29,29,32,072,23,31,32,221,30*4A,1746867639000
NMEA,$GLGSV,2,1,05,66,08,030,21,73,75,271,24,78,67,044,24,80,36,160,27*68,1746867639000
NMEA,$GLGSV,2,2,05,82,35,038,21*54,1746867639000
NMEA,$BDGSV,2,1,06,208,32,047,23,213,37,066,24,224,16,317,27,226,54,282,29*61,1746867639000
NMEA,$BDGSV,2,2,06,229,53,055,29,235,70,261,28*66,1746867639000
NMEA,$GPGSA,A,3,18,16,31,,,,,,,,,,3.6,1.8,3.0*31,1746867639000
NMEA,$BDGSA,A,3,224,229,,,,,,,,,,,3.6,1.8,3.0*21,1746867639000
NMEA,$GPRMC,090040.000,A,4503.5983,N,00741.8279,E,6.3,294.6,100525,,,A*6F,1746867639000
NMEA,$PSAMCLK,2365,55085800,5,9742460,3092263,550858000*49,1746867639000
NMEA,$PSAMCLK,2365,55085800,5,9742460,3092263,550858000*49,1746867639000
NMEA,$GPGGA,090041.000,4503.5994,N,00741.8251,E,1,05,1.8,290.6,M,48.2,M,,*50,1746867640000
NMEA,$PSAMSA,090041.000,4503.5994,N,00741.8251,E,0,M,,*6A,1746867640000
NMEA,$GPGLL,4503.5994,N,00741.8251,E,090041.000,A,A*5A,1746867640000
NMEA,$GPVTG,287.5,T,,M,6.7,N,12.4,K,A*33,1746867640000
NMEA,$GPGSV,2,1,07,05,18,045,21,16,46,306,29,18,76,099,29,26,73,274,24*7C,1746867640000
NMEA,$GPGSV,2,2,07,27,34,277,28,29,32,072,21,31,32,221,30*49,1746867640000
NMEA,$GLGSV,2,1,05,66,08,030,19,73,75,271,22,78,67,044,22,80,36,160,25*61,1746867640000
NMEA,$GLGSV,2,2,05,82,35,038,19*5F,1746867640000
NMEA,$BDGSV,2,1,06,208,32,047,21,213,37,066,22,224,16,317,26,226,54,282,29*64,1746867640000
NMEA,$BDGSV,2,2,06,229,53,055,28,235,70,261,27*68,1746867640000
NMEA,$GPGSA,A,3,18,16,31,,,,,,,,,,3.6,1.8,3.0*31,1746867640000
NMEA,$BDGSA,A,3,224,229,,,,,,,,,,,3.6,1.8,3.0*21,1746867640000
NMEA,$GPRMC,090041.000,A,4503.5994,N,00741.8251,E,6.7,287.5,100525,,,A*67,1746867640000
NMEA,$PSAMCLK,2365,55085900,5,9742502,3154104,550859000*45,1746867640000
NMEA,$PSAMCLK,2365,55085900,5,9742502,3154104,550859000*45,1746867640000
NMEA,$GPGGA,090042.000,4503.5992,N,00741.8241,E,1,05,1.8,290.7,M,48.2,M,,*55,1746867641000
NMEA,$PSAMSA,090042.000,4503.5992,N,00741.8241,E,0,M,,*6E,1746867641000
NMEA,$GPGLL,4503.5992,N,00741.8241,E,090042.000,A,A*5E,1746867641000
NMEA,$GPVTG,280.7,T,,M,5.2,N,9.5,K,A*0B,1746867641000
NMEA,$GPGSV,2,1,07,05,18,045,20,16,46,306,28,18,76,099,28,26,73,274,22*7B,1746867641000
NMEA,$GPGSV,2,2,07,27,34,277,27,29,32,072,20,31,32,221,29*4F,1746867641000
NMEA,$GLGSV,2,1,05,66,08,030,18,73,75,271,21,78,67,044,21,80,36,160,24*61,1746867641000
NMEA,$GLGSV,2,2,05,82,35,038,18*5E,1746867641000
NMEA,$BDGSV,2,1,06,208,32,047,20,213,37,066,21,224,16,317,25,226,54,282,28*64,1746867641000
NMEA,$BDGSV,2,2,06,229,53,055,27,235,70,261,26*66,1746867641000
NMEA,$GPGSA,A,3,18,16,31,,,,,,,,,,3.6,1.8,3.0*31,1746867641000
NMEA,$BDGSA,A,3,224,229,,,,,,,,,,,3.6,1.8,3.0*21,1746867641000
NMEA,$GPRMC,090042.000,A,4503.5992,N,00741.8241,E,5.2,280.7,100525,,,A*60,1746867641000
NMEA,$PSAMCLK,2365,55086000,5,9742670,3215945,550860000*48,1746867641000
NMEA,$PSAMCLK,2365,55086000,5,9742670,3215945,550860000*48,1746867641000
NMEA,$GPGGA,090043.000,4503.6000,N,00741.8215,E,1,05,1.8,290.7,M,48.2,M,,*54,1746867642000
NMEA,$PSAMSA,090043.000,4503.6000,N,00741.8215,E,0,M,,*6F,1746867642000
NMEA,$GPGLL,4503.6000,N,00741.8215,E,090043.000,A,A*5F,1746867642000
NMEA,$GPVTG,275.1,T,,M,5.3,N,9.8,K,A*0B,1746867642000
NMEA,$GPGSV,2,1,07,05,18,045,18,16,46,306,28,18,76,099,27,26,73,274,21*7C,1746867642000
NMEA,$GPGSV,2,2,07,27,34,277,27,29,32,072,18,31,32,221,28*45,1746867642000
NMEA,$GLGSV,2,1,05,66,08,030,16,73,75,271,19,78,67,044,19,80,36,160,22*69,1746867642000
NMEA,$GLGSV,2,2,05,82,35,038,16*50,1746867642000
NMEA,$BDGSV,2,1,06,208,32,047,18,213,37,066,19,224,16,317,25,226,54,282,27*6B,1746867642000
NMEA,$BDGSV,2,2,06,229,53,055,27,235,70,261,25*65,1746867642000
NMEA,$GPGSA,A,3,18,16,31,,,,,,,,,,3.6,1.8,3.0*31,1746867642000
NMEA,$BDGSA,A,3,224,229,,,,,,,,,,,3.6,1.8,3.0*21,1746867642000
NMEA,$GPRMC,090043.000,A,4503.6000,N,00741.8215,E,5.3,275.1,100525,,,A*6C,1746867642000
NMEA,$PSAMCLK,2365,55086100,5,9742795,3277787,550861000*46,1746867642000
NMEA,$PSAMCLK,2365,55086100,5,9742795,3277787,550861000*46,1746867642000
NMEA,$GPGGA,090044.000,4503.5994,N,00741.8186,E,1,04,3.4,290.6,M,48.2,M,,*53,1746867643000
NMEA,$PSAMSA,090044.000,4503.5994,N,00741.8186,E,0,M,,*66,1746867643000
NMEA,$GPGLL,4503.5994,N,00741.8186,E,090044.000,A,A*56,1746867643000
NMEA,$GPVTG,270.4,T,,M,5.4,N,10.1,K,A*3D,1746867643000
NMEA,$GPGSV,2,1,07,05,18,045,17,16,46,306,26,18,76,099,26,26,73,274,19*77,1746867643000
NMEA,$GPGSV,2,2,07,27,34,277,26,29,32,072,17,31,32,221,27*44,1746867643000
NMEA,$GLGSV,2,1,05,66,08,030,15,73,75,271,18,78,67,044,18,80,36,160,21*69,1746867643000
NMEA,$GLGSV,2,2,05,82,35,038,15*53,1746867643000
NMEA,$BDGSV,2,1,06,208,32,047,17,213,37,066,18,224,16,317,24,226,54,282,26*65,1746867643000
NMEA,$BDGSV,2,2,06,229,53,055,26,235,70,261,24*65,1746867643000
NMEA,$GPGSA,A,3,18,31,,,,,,,,,,,7.2,3.4,6.2*3F,1746867643000
NMEA,$BDGSA,A,3,224,229,,,,,,,,,,,7.2,3.4,6.2*28,1746867643000
NMEA,$GPRMC,090044.000,A,4503.5994,N,00741.8186,E,5.4,270.4,100525,,,A*62,1746867643000
NMEA,$PSAMCLK,2365,55086200,4,9742847,3339628,550862000*48,1746867643000
NMEA,$PSAMCLK,2365,55086200,4,9742847,3339628,550862000*48,1746867643000
NMEA,$GPGGA,090045.000,,,,,0,,,,,,,,*70,1746867644000
NMEA,$PSAMSA,,,,,,0,,,,,,,,*2D,1746867644000
NMEA,$GPGLL,4503.6015,N,00741.8166,E,090045.000,V,N*42,1746867644000
NMEA,$GPVTG,263.6,T,,M,7.0,N,13.0,K,N*36,1746867644000
NMEA,$GPGSV,2,1,07,05,18,045,15,16,46,306,25,18,76,099,26,26,73,274,18*77,1746867644000
NMEA,$GPGSV,2,2,07,27,34,277,26,29,32,072,15,31,32,221,26*47,1746867644000
NMEA,$GLGSV,2,1,05,66,08,030,14,73,75,271,20,78,67,044,16,80,36,160,19*66,1746867644000
NMEA,$GLGSV,2,2,05,82,35,038,14*52,1746867644000
NMEA,$BDGSV,2,1,06,208,32,047,15,213,37,066,16,224,16,317,23,226,54,282,26*6E,1746867644000
NMEA,$BDGSV,2,2,06,229,53,055,25,235,70,261,23*61,1746867644000
NMEA,$GPRMC,090045.000,V,,,,,,,100525,,,N*46,1746867644000
NMEA,$PSAMCLK,2365,55086300,3,9743042,3401475,550863000*45,1746867644000
NMEA,$PSAMCLK,2365,55086300,3,9743042,3401475,550863000*45,1746867644000
NMEA,$GPGGA,090046.000,,,,,0,,,,,,,,*73,1746867645000
NMEA,$PSAMSA,,,,,,0,,,,,,,,*2D,1746867645000
NMEA,$GPGLL,4503.6033,N,00741.8154,E,090046.000,V,N*44,1746867645000
NMEA,$GPVTG,256.8,T,,M,7.2,N,13.2,K,N*3E,1746867645000
NMEA,$GPGSV,2,1,07,05,18,045,14,16,46,306,23,18,76,099,25,26,73,274,16*7D,1746867645000
NMEA,$GPGSV,2,2,07,27,34,277,25,29,32,072,14,31,32,221,24*47,1746867645000
NMEA,$GLGSV,2,1,05,66,08,030,13,73,75,271,20,78,67,044,15,80,36,160,18*63,1746867645000
NMEA,$GLGSV,2,2,05,82,35,038,13*55,1746867645000
NMEA,$BDGSV,2,1,06,208,32,047,14,213,37,066,15,224,16,317,23,226,54,282,25*6F,1746867645000
NMEA,$BDGSV,2,2,06,229,53,055,25,235,70,261,21*63,1746867645000
NMEA,$GPRMC,090046.000,V,,,,,,,100525,,,N*45,1746867645000
NMEA,$PSAMCLK,2365,55086400,3,9743049,3463320,550864000*4D,1746867645000
NMEA,$PSAMCLK,2365,55086400,3,9743049,3463320,550864000*4D,1746867645000
NMEA,$GPGGA,090047.000,,,,,0,,,,,,,,*72,1746867646000
NMEA,$PSAMSA,,,,,,0,,,,,,,,*2D,1746867646000
NMEA,$GPGLL,4503.6057,N,00741.8143,E,090047.000,V,N*41,1746867646000
NMEA,$GPVTG,250.0,T,,M,8.6,N,15.9,K,N*36,1746867646000
NMEA,$GPGSV,2,1,07,05,18,045,13,16,46,306,22,18,76,099,24,26,73,274,15*79,1746867646000
NMEA,$GPGSV,2,2,07,27,34,277,25,29,32,072,13,31,32,221,23*47,1746867646000
NMEA,$GLGSV,2,1,05,66,08,030,13,73,75,271,21,78,67,044,14,80,36,160,16*6D,1746867646000
NMEA,$GLGSV,2,2,05,82,35,038,13*55,1746867646000
NMEA,$BDGSV,2,1,06,208,32,047,13,213,37,066,14,224,16,317,22,226,54,282,24*69,1746867646000
NMEA,$BDGSV,2,2,06,229,53,055,24,235,70,261,20*63,1746867646000
NMEA,$GPRMC,090047.000,V,,,,,,,100525,,,N*44,1746867646000
NMEA,$PSAMCLK,2365,55086500,3,9743056,3525165,550865000*43,1746867646000
NMEA,$PSAMCLK,2365,55086500,3,9743056,3525165,550865000*43,1746867646000
NMEA,$GPGGA,090048.000,,,,,0,,,,,,,,*7D,1746867647000
NMEA,$PSAMSA,,,,,,0,,,,,,,,*2D,1746867647000
NMEA,$GPGLL,4503.6081,N,00741.8116,E,090048.000,V,N*45,1746867647000
NMEA,$GPVTG,257.2,T,,M,10.1,N,18.7,K,N*0E,1746867647000
NMEA,$GPGSV,2,1,07,05,18,045,12,16,46,306,20,18,76,099,24,26,73,274,14*7B,1746867647000
NMEA,$GPGSV,2,2,07,27,34,277,24,29,32,072,12,31,32,221,21*45,1746867647000
NMEA,$GLGSV,2,1,05,66,08,030,12,73,75,271,21,78,67,044,13,80,36,160,15*68,1746867647000
NMEA,$GLGSV,2,2,05,82,35,038,12*54,1746867647000
NMEA,$BDGSV,2,1,06,208,32,047,12,213,37,066,13,224,16,317,22,226,54,282,24*6F,1746867647000
NMEA,$BDGSV,2,2,06,229,53,055,24,235,70,261,18*68,1746867647000
NMEA,$GPRMC,090048.000,V,,,,,,,100525,,,N*4B,1746867647000
NMEA,$PSAMCLK,2365,55086600,3,9743070,3587010,550866000*4C,1746867647000
NMEA,$PSAMCLK,2365,55086600,3,9743070,3587010,550866000*4C,1746867647000
NMEA,$GPGGA,090049.000,,,,,0,,,,,,,,*7C,1746867648000
NMEA,$PSAMSA,,,,,,0,,,,,,,,*2D,1746867648000
NMEA,$GPGLL,4503.6105,N,00741.8067,E,090049.000,V,N*4E,1746867648000
NMEA,$GPVTG,266.8,T,,M,13.2,N,24.4,K,N*0A,1746867648000
NMEA,$GPGSV,2,1,05,16,46,306,19,18,76,099,23,26,73,274,13,27,34,277,24*7B,1746867648000
NMEA,$GPGSV,2,2,05,31,32,221,20*4C,1746867648000
NMEA,$GLGSV,1,1,03,73,75,271,21,78,67,044,13,80,36,160,14*54,1746867648000
NMEA,$BDGSV,2,1,05,213,37,066,12,224,16,317,22,226,54,282,23,229,53,055,23*6F,1746867648000
NMEA,$BDGSV,2,2,05,235,70,261,17*6D,1746867648000
NMEA,$GPRMC,090049.000,V,,,,,,,100525,,,N*4A,1746867648000
NMEA,$PSAMCLK,2365,55086700,3,9743086,3648856,550867000*4F,1746867648000
NMEA,$PSAMCLK,2365,55086700,3,9743086,3648856,550867000*4F,1746867648000
NMEA,$GPGGA,090050.000,,,,,0,,,,,,,,*74,1746867649000
NMEA,$PSAMSA,,,,,,0,,,,,,,,*2D,1746867649000
NMEA,$GPGLL,4503.6130,N,00741.8030,E,090050.000,V,N*42,1746867649000
NMEA,$GPVTG,263.3,T,,M,13.2,N,24.4,K,N*04,1746867649000
NMEA,$GPGSV,2,1,05,16,46,306,17,18,76,099,22,26,73,274,13,27,34,277,22*72,1746867649000
NMEA,$GPGSV,2,2,05,31,32,221,18*47,1746867649000
NMEA,$GLGSV,1,1,03,73,75,271,21,78,67,044,12,80,36,160,13*52,1746867649000
NMEA,$BDGSV,1,1,04,224,16,317,21,226,54,282,22,229,53,055,23,235,70,261,15*6A,1746867649000
NMEA,$GPRMC,090050.000,V,,,,,,,100525,,,N*42,1746867649000
NMEA,$PSAMCLK,2365,55086800,0,9742712,3710701,550868000*46,1746867649000
NMEA,$PSAMCLK,2365,55086800,0,9742712,3710701,550868000*46,1746867649000
NMEA,$GPGGA,090051.000,,,,,0,,,,,,,,*75,1746867650000
NMEA,$PSAMSA,,,,,,0,,,,,,,,*2D,1746867650000
NMEA,$GPGLL,4503.6156,N,00741.7992,E,090051.000,V,N*4D,1746867650000
NMEA,$GPVTG,259.8,T,,M,13.2,N,24.4,K,N*06,1746867650000
NMEA,$GPGSV,1,1,04,16,46,306,16,18,76,099,20,27,34,277,21,31,32,221,17*77,1746867650000
NMEA,$GLGSV,1,1,02,73,75,270,20,80,36,160,13*6E,1746867650000
NMEA,$BDGSV,1,1,04,224,16,317,21,226,54,282,20,229,53,055,22,235,70,261,14*68,1746867650000
NMEA,$GPRMC,090051.000,V,,,,,,,100525,,,N*43,1746867650000
NMEA,$PSAMCLK,2365,55086900,0,9742712,3772543,550869000*46,1746867650000
NMEA,$PSAMCLK,2365,55086900,0,9742712,3772543,550869000*46,1746867650000
NMEA,$GPGGA,090052.000,,,,,0,,,,,,,,*76,1746867651000
NMEA,$PSAMSA,,,,,,0,,,,,,,,*2D,1746867651000
NMEA,$GPGLL,4503.6181,N,00741.7955,E,090052.000,V,N*4F,1746867651000
NMEA,$GPVTG,256.2,T,,M,13.2,N,24.4,K,N*03,1746867651000
NMEA,$GPGSV,1,1,04,16,46,306,14,18,75,098,19,27,34,277,19,31,32,221,15*74,1746867651000
NMEA,$GLGSV,1,1,02,73,75,270,20,80,36,160,12*6F,1746867651000
NMEA,$BDGSV,1,1,04,224,16,317,20,226,54,282,19,229,53,055,22,235,70,261,13*64,1746867651000
NMEA,$GPRMC,090052.000,V,,,,,,,100525,,,N*40,1746867651000
NMEA,$PSAMCLK,2365,55087000,0,9742712,3834385,550870000*47,1746867651000
NMEA,$PSAMCLK,2365,55087000,0,9742712,3834385,550870000*47,1746867651000
NMEA,$GPGGA,090053.000,,,,,0,,,,,,,,*77,1746867652000
NMEA,$PSAMSA,,,,,,0,,,,,,,,*2D,1746867652000
NMEA,$GPGLL,4503.6206,N,00741.7918,E,090053.000,V,N*4B,1746867652000
NMEA,$GPVTG,252.7,T,,M,13.2,N,24.4,K,N*02,1746867652000
NMEA,$GPGSV,1,1,04,16,46,306,13,18,75,098,17,27,34,277,18,31,32,221,14*7D,1746867652000
NMEA,$GLGSV,1,1,01,73,75,270,20*55,1746867652000
NMEA,$BDGSV,1,1,04,224,16,317,19,226,54,282,17,229,53,055,21,235,70,261,13*63,1746867652000
NMEA,$GPRMC,090053.000,V,,,,,,,100525,,,N*41,1746867652000
NMEA,$PSAMCLK,2365,55087100,0,9742712,3896227,550871000*46,1746867652000
NMEA,$PSAMCLK,2365,55087100,0,9742712,3896227,550871000*46,1746867652000
NMEA,$GPGGA,090054.000,,,,,0,,,,,,,,*70,1746867653000
NMEA,$PSAMSA,,,,,,0,,,,,,,,*2D,1746867653000
NMEA,$GPGLL,4503.6232,N,00741.7880,E,090054.000,V,N*4B,1746867653000
NMEA,$GPVTG,249.2,T,,M,13.2,N,24.4,K,N*0D,1746867653000
NMEA,$GPGSV,1,1,04,16,46,306,13,18,75,098,16,27,34,277,16,31,32,221,13*75,1746867653000
NMEA,$GLGSV,1,1,01,73,75,270,20*55,1746867653000
NMEA,$BDGSV,1,1,03,224,16,317,17,226,54,282,16,229,53,055,21*6F,1746867653000
NMEA,$GPRMC,090054.000,V,,,,,,,100525,,,N*46,1746867653000
NMEA,$PSAMCLK,2365,55087200,0,9742712,3958069,550872000*4D,1746867653000
NMEA,$PSAMCLK,2365,55087200,0,9742712,3958069,550872000*4D,1746867653000
NMEA,$GPGGA,090055.000,,,,,0,,,,,,,,*71,1746867654000
NMEA,$PSAMSA,,,,,,0,,,,,,,,*2D,1746867654000
NMEA,$GPGLL,4503.6257,N,00741.7843,E,090055.000,V,N*46,1746867654000
NMEA,$GPVTG,245.7,T,,M,0.0,N,0.0,K,N*06,1746867654000
NMEA,$GPGSV,1,1,04,16,46,306,12,18,75,098,14,27,34,277,15,31,32,221,12*74,1746867654000
NMEA,$GLGSV,1,1,01,73,75,270,20*55,1746867654000
NMEA,$BDGSV,1,1,03,224,16,317,16,226,54,282,14,229,53,055,19*67,1746867654000
NMEA,$GPRMC,090055.000,V,,,,,,,100525,,,N*47,1746867654000
NMEA,$PSAMCLK,2365,55087300,0,9742712,4019911,550873000*40,1746867654000
NMEA,$PSAMCLK,2365,55087300,0,9742712,4019911,550873000*40,1746867654000
NMEA,$GPGGA,090056.000,,,,,0,,,,,,,,*72,1746867655000
NMEA,$PSAMSA,,,,,,0,,,,,,,,*2D,1746867655000
NMEA,$GPGLL,4503.6282,N,00741.7805,E,090056.000,V,N*4F,1746867655000
NMEA,$GPVTG,242.1,T,,M,0.0,N,0.0,K,N*07,1746867655000
NMEA,$GPGSV,1,1,02,18,75,098,13,27,34,277,14*76,1746867655000
NMEA,$GLGSV,1,1,01,73,75,270,20*55,1746867655000
NMEA,$BDGSV,1,1,03,224,00,000,14,226,00,000,14,229,00,000,18*69,1746867655000
NMEA,$GPRMC,090056.000,V,,,,,,,100525,,,N*44,1746867655000
NMEA,$PSAMCLK,2365,55087400,0,9742712,4081753,550874000*49,1746867655000
NMEA,$PSAMCLK,2365,55087400,0,9742712,4081753,550874000*49,1746867655000
NMEA,$GPGGA,090057.000,,,,,0,,,,,,,,*73,1746867656000
NMEA,$PSAMSA,,,,,,0,,,,,,,,*2D,1746867656000
NMEA,$GPGLL,4503.6308,N,00741.7768,E,090057.000,V,N*49,1746867656000
NMEA,$GPVTG,238.6,T,,M,0.0,N,0.0,K,N*0D,1746867656000
NMEA,$GPGSV,1,1,02,18,75,098,13,27,34,277,13*71,1746867656000
NMEA,$GLGSV,1,1,01,73,75,270,19*5F,1746867656000
NMEA,$BDGSV,1,1,03,224,00,000,14,226,00,000,13,229,00,000,16*60,1746867656000
NMEA,$GPRMC,090057.000,V,,,,,,,100525,,,N*45,1746867656000
NMEA,$PSAMCLK,2365,55087500,0,9742712,4143595,550875000*4E,1746867656000
NMEA,$PSAMCLK,2365,55087500,0,9742712,4143595,550875000*4E,1746867656000
NMEA,$GPGGA,090058.000,,,,,0,,,,,,,,*7C,1746867657000
NMEA,$PSAMSA,,,,,,0,,,,,,,,*2D,1746867657000
NMEA,$GPGLL,4503.6333,N,00741.7730,E,090058.000,V,N*43,1746867657000
NMEA,$GPVTG,235.1,T,,M,0.0,N,0.0,K,N*07,1746867657000
NMEA,$GPGSV,1,1,02,18,75,098,12,27,34,277,13*70,1746867657000
NMEA,$GLGSV,1,1,01,73,75,270,17*51,1746867657000
NMEA,$BDGSV,1,1,03,224,00,000,13,226,00,000,12,229,00,000,15*65,1746867657000
NMEA,$GPRMC,090058.000,V,,,,,,,100525,,,N*4A,1746867657000
NMEA,$PSAMCLK,2365,55087600,0,9742712,4205437,550876000*46,1746867657000
NMEA,$PSAMCLK,2365,55087600,0,9742712,4205437,550876000*46,1746867657000
NMEA,$GPGGA,090059.000,,,,,0,,,,,,,,*7D,1746867658000
NMEA,$PSAMSA,,,,,,0,,,,,,,,*2D,1746867658000
NMEA,$GPGLL,4503.6358,N,00741.7693,E,090059.000,V,N*47,1746867658000
NMEA,$GPVTG,231.6,T,,M,0.0,N,0.0,K,N*04,1746867658000
NMEA,$GPGSV,1,1,01,27,34,277,12*4B,1746867658000
NMEA,$GLGSV,1,1,01,73,75,270,16*50,1746867658000
NMEA,$BDGSV,1,1,02,224,00,000,12,229,00,000,14*61,1746867658000
NMEA,$GPRMC,090059.000,V,,,,,,,100525,,,N*4B,1746867658000
NMEA,$PSAMCLK,2365,55087700,0,9742712,4267279,550877000*4E,1746867658000
NMEA,$PSAMCLK,2365,55087700,0,9742712,4267279,550877000*4E,1746867658000
NMEA,$GPGGA,090100.000,,,,,0,,,,,,,,*70,1746867659000
NMEA,$PSAMSA,,,,,,0,,,,,,,,*2D,1746867659000
NMEA,$GPGLL,4503.6384,N,00741.7656,E,090100.000,V,N*42,1746867659000
NMEA,$GPVTG,228.0,T,,M,0.0,N,0.0,K,N*0A,1746867659000
NMEA,$GLGSV,1,1,01,73,75,270,14*52,1746867659000
NMEA,$BDGSV,1,1,01,229,00,000,13*62,1746867659000
NMEA,$GPRMC,090100.000,V,,,,,,,100525,,,N*46,1746867659000
NMEA,$PSAMCLK,2365,55087800,0,9742712,4329121,550878000*4B,1746867659000
NMEA,$PSAMCLK,2365,55087800,0,9742712,4329121,550878000*4B,1746867659000
NMEA,$GPGGA,090101.000,,,,,0,,,,,,,,*71,1746867660000
NMEA,$PSAMSA,,,,,,0,,,,,,,,*2D,1746867660000
NMEA,$GPGLL,4503.6409,N,00741.7618,E,090101.000,V,N*4B,1746867660000
NMEA,$GPVTG,224.5,T,,M,0.0,N,0.0,K,N*03,1746867660000
NMEA,$GLGSV,1,1,01,73,75,270,13*55,1746867660000
NMEA,$BDGSV,1,1,01,229,00,000,13*62,1746867660000
NMEA,$GPRMC,090101.000,V,,,,,,,100525,,,N*47,1746867660000
NMEA,$PSAMCLK,2365,55087900,0,9742712,4390963,550879000*47,1746867660000
NMEA,$PSAMCLK,2365,55087900,0,9742712,4390963,550879000*47,1746867660000
NMEA,$GPGGA,090102.000,,,,,0,,,,,,,,*72,1746867661000
NMEA,$PSAMSA,,,,,,0,,,,,,,,*2D,1746867661000
NMEA,$GPGLL,4503.6434,N,00741.7581,E,090102.000,V,N*45,1746867661000
NMEA,$GPVTG,221.0,T,,M,0.0,N,0.0,K,N*03,1746867661000
NMEA,$GLGSV,1,1,01,73,75,270,13*55,1746867661000
NMEA,$BDGSV,1,1,01,229,00,000,12*63,1746867661000
NMEA,$GPRMC,090102.000,V,,,,,,,100525,,,N*44,1746867661000
NMEA,$PSAMCLK,2365,55088000,0,9742712,4452805,550880000*4F,1746867661000
NMEA,$PSAMCLK,2365,55088000,0,9742712,4452805,550880000*4F,1746867661000
NMEA,$GPGGA,090103.000,,,,,0,,,,,,,,*73,1746867662000
NMEA,$PSAMSA,,,,,,0,,,,,,,,*2D,1746867662000
NMEA,$GPGLL,4503.6460,N,00741.7543,E,090103.000,V,N*4B,1746867662000
NMEA,$GPVTG,217.5,T,,M,0.0,N,0.0,K,N*03,1746867662000
NMEA,$GLGSV,1,1,01,73,75,270,12*54,1746867662000
NMEA,$GPRMC,090103.000,V,,,,,,,100525,,,N*45,1746867662000
NMEA,$PSAMCLK,2365,55088100,0,9742712,4514647,550881000*44,1746867662000
NMEA,$PSAMCLK,2365,55088100,0,9742712,4514647,550881000*44,1746867662000
NMEA,$GPGGA,090104.000,,,,,0,,,,,,,,*74,1746867663000
NMEA,$PSAMSA,,,,,,0,,,,,,,,*2D,1746867663000
NMEA,$GPGLL,4503.6485,N,00741.7506,E,090104.000,V,N*46,1746867663000
NMEA,$GPVTG,213.9,T,,M,0.0,N,0.0,K,N*0B,1746867663000
NMEA,$GPRMC,090104.000,V,,,,,,,100525,,,N*42,1746867663000
NMEA,$PSAMCLK,2365,55088200,0,9742712,4576489,550882000*40,1746867663000
NMEA,$PSAMCLK,2365,55088200,0,9742712,4576489,550882000*40,1746867663000
NMEA,$GPGGA,090105.000,,,,,0,,,,,,,,*75,1746867664000
NMEA,$PSAMSA,,,,,,0,,,,,,,,*2D,1746867664000
NMEA,$GPGLL,4503.6510,N,00741.7469,E,090105.000,V,N*42,1746867664000
NMEA,$GPVTG,210.4,T,,M,0.0,N,0.0,K,N*05,1746867664000
NMEA,$GPRMC,090105.000,V,,,,,,,100525,,,N*43,1746867664000
NMEA,$PSAMCLK,2365,55088300,0,9742712,4638331,550883000*4D,1746867664000
NMEA,$PSAMCLK,2365,55088300,0,9742712,4638331,550883000*4D,1746867664000
NMEA,$GPGGA,090106.000,,,,,0,,,,,,,,*76,1746867665000
NMEA,$PSAMSA,,,,,,0,,,,,,,,*2D,1746867665000
NMEA,$GPGLL,4503.6536,N,00741.7431,E,090106.000,V,N*48,1746867665000
NMEA,$GPVTG,206.9,T,,M,0.0,N,0.0,K,N*0F,1746867665000
NMEA,$GPRMC,090106.000,V,,,,,,,100525,,,N*40,1746867665000
NMEA,$PSAMCLK,2365,55088400,0,9742712,4700173,550884000*43,1746867665000
NMEA,$PSAMCLK,2365,55088400,0,9742712,4700173,550884000*43,1746867665000
NMEA,$GPGGA,090107.000,,,,,0,,,,,,,,*77,1746867666000
NMEA,$PSAMSA,,,,,,0,,,,,,,,*2D,1746867666000
NMEA,$GPGLL,4503.6561,N,00741.7394,E,090107.000,V,N*43,1746867666000
NMEA,$GPVTG,203.3,T,,M,0.0,N,0.0,K,N*00,1746867666000
NMEA,$GPRMC,090107.000,V,,,,,,,100525,,,N*41,1746867666000
NMEA,$PSAMCLK,2365,55088500,0,9742712,4762015,550885000*46,1746867666000
NMEA,$PSAMCLK,2365,55088500,0,9742712,4762015,550885000*46,1746867666000
NMEA,$GPGGA,090108.000,,,,,0,,,,,,,,*78,1746867667000
NMEA,$PSAMSA,,,,,,0,,,,,,,,*2D,1746867667000
NMEA,$GPGLL,4503.6586,N,00741.7356,E,090108.000,V,N*4B,1746867667000
NMEA,$GPVTG,199.8,T,,M,0.0,N,0.0,K,N*0B,1746867667000
NMEA,$GPRMC,090108.000,V,,,,,,,100525,,,N*4E,1746867667000
NMEA,$PSAMCLK,2365,55088600,0,9742712,4823857,550886000*42,1746867667000
NMEA,$PSAMCLK,2365,55088600,0,9742712,4823857,550886000*42,1746867667000
NMEA,$GPGGA,090109.000,,,,,0,,,,,,,,*79,1746867668000
NMEA,$PSAMSA,,,,,,0,,,,,,,,*2D,1746867668000
NMEA,$GPGLL,4503.6612,N,00741.7319,E,090109.000,V,N*4F,1746867668000
NMEA,$GPVTG,196.3,T,,M,0.0,N,0.0,K,N*0F,1746867668000
NMEA,$GLGSV,1,1,01,82,35,038,25*54,1746867668000
NMEA,$GPRMC,090109.000,V,,,,,,,100525,,,N*4F,1746867668000
NMEA,$PSAMCLK,2365,55088700,0,9742712,4885699,550887000*42,1746867668000
NMEA,$PSAMCLK,2365,55088700,0,9742712,4885699,550887000*42,1746867668000
NMEA,$GPGGA,090110.000,,,,,0,,,,,,,,*71,1746867669000
NMEA,$PSAMSA,,,,,,0,,,,,,,,*2D,1746867669000
NMEA,$GPGLL,4503.6637,N,00741.7281,E,090110.000,V,N*40,1746867669000
NMEA,$GPVTG,192.8,T,,M,0.0,N,0.0,K,N*00,1746867669000
NMEA,$GLGSV,1,1,02,73,75,270,20,82,35,038,24*67,1746867669000
NMEA,$GPRMC,090110.000,V,,,,,,,100525,,,N*47,1746867669000
NMEA,$PSAMCLK,2365,55088800,0,9742712,4947541,550888000*4B,1746867669000
NMEA,$PSAMCLK,2365,55088800,0,9742712,4947541,550888000*4B,1746867669000
NMEA,$GPGGA,090111.000,,,,,0,,,,,,,,*70,1746867670000
NMEA,$PSAMSA,,,,,,0,,,,,,,,*2D,1746867670000
NMEA,$GPGLL,4503.6662,N,00741.7244,E,090111.000,V,N*48,1746867670000
NMEA,$GPVTG,189.2,T,,M,0.0,N,0.0,K,N*00,1746867670000
NMEA,$GLGSV,1,1,02,73,75,270,18,82,35,038,24*6C,1746867670000
NMEA,$GPRMC,090111.000,V,,,,,,,100525,,,N*46,1746867670000
NMEA,$PSAMCLK,2365,55088900,0,9742712,5009383,550889000*41,1746867670000
NMEA,$PSAMCLK,2365,55088900,0,9742712,5009383,550889000*41,1746867670000
NMEA,$GPGGA,090112.000,,,,,0,,,,,,,,*73,1746867671000
NMEA,$PSAMSA,,,,,,0,,,,,,,,*2D,1746867671000
NMEA,$GPGLL,4503.6688,N,00741.7207,E,090112.000,V,N*48,1746867671000
NMEA,$GPVTG,185.7,T,,M,0.0,N,0.0,K,N*09,1746867671000
NMEA,$GLGSV,1,1,02,73,75,270,17,82,35,038,24*63,1746867671000
NMEA,$GPRMC,090112.000,V,,,,,,,100525,,,N*45,1746867671000
NMEA,$PSAMCLK,2365,55089000,0,9742712,5071225,550890000*43,1746867671000
NMEA,$PSAMCLK,2365,55089000,0,9742712,5071225,550890000*43,1746867671000
NMEA,$GPGGA,090113.000,,,,,0,,,,,,,,*72,1746867672000
NMEA,$PSAMSA,,,,,,0,,,,,,,,*2D,1746867672000
NMEA,$GPGLL,4503.6713,N,00741.7169,E,090113.000,V,N*41,1746867672000
NMEA,$GPVTG,182.2,T,,M,0.0,N,0.0,K,N*0B,1746867672000
NMEA,$GLGSV,1,1,02,73,75,270,15,82,35,038,22*67,1746867672000
NMEA,$GPRMC,090113.000,V,,,,,,,100525,,,N*44,1746867672000
NMEA,$PSAMCLK,2365,55089100,0,9742712,5133067,550891000*40,1746867672000
NMEA,$PSAMCLK,2365,55089100,0,9742712,5133067,550891000*40,1746867672000
NMEA,$GPGGA,090114.000,,,,,0,,,,,,,,*75,1746867673000
NMEA,$PSAMSA,,,,,,0,,,,,,,,*2D,1746867673000
NMEA,$GPGLL,4503.6738,N,00741.7132,E,090114.000,V,N*41,1746867673000
NMEA,$GPVTG,178.7,T,,M,0.0,N,0.0,K,N*0B,1746867673000
NMEA,$GLGSV,1,1,02,73,75,270,14,82,35,038,21*65,1746867673000
NMEA,$GPRMC,090114.000,V,,,,,,,100525,,,N*43,1746867673000
NMEA,$PSAMCLK,2365,55089200,0,9742712,5194909,550892000*4C,1746867673000
NMEA,$PSAMCLK,2365,55089200,0,9742712,5194909,550892000*4C,1746867673000
NMEA,$GPGGA,090115.000,,,,,0,,,,,,,,*74,1746867674000
NMEA,$PSAMSA,,,,,,0,,,,,,,,*2D,1746867674000
NMEA,$GPGLL,4503.6764,N,00741.7094,E,090115.000,V,N*44,1746867674000
NMEA,$GPVTG,175.1,T,,M,0.0,N,0.0,K,N*00,1746867674000
NMEA,$GLGSV,1,1,02,73,75,270,13,82,35,038,19*69,1746867674000
NMEA,$GPRMC,090115.000,V,,,,,,,100525,,,N*42,1746867674000
NMEA,$PSAMCLK,2365,55089300,0,9742712,5256751,550893000*42,1746867674000
NMEA,$PSAMCLK,2365,55089300,0,9742712,5256751,550893000*42,1746867674000
NMEA,$GPGGA,090116.000,,,,,0,,,,,,,,*77,1746867675000
NMEA,$PSAMSA,,,,,,0,,,,,,,,*2D,1746867675000
NMEA,$GPGLL,4503.6789,N,00741.7057,E,090116.000,V,N*4B,1746867675000
NMEA,$GPVTG,171.6,T,,M,0.0,N,0.0,K,N*03,1746867675000
NMEA,$GLGSV,1,1,02,73,75,270,13,82,35,038,18*68,1746867675000
NMEA,$GPRMC,090116.000,V,,,,,,,100525,,,N*41,1746867675000
NMEA,$PSAMCLK,2365,55089400,0,9742712,5318593,550894000*45,1746867675000
NMEA,$PSAMCLK,2365,55089400,0,9742712,5318593,550894000*45,1746867675000
NMEA,$GPGGA,090117.000,,,,,0,,,,,,,,*76,1746867676000
NMEA,$PSAMSA,,,,,,0,,,,,,,,*2D,1746867676000
NMEA,$GPGLL,4503.6814,N,00741.7020,E,090117.000,V,N*41,1746867676000
NMEA,$GPVTG,168.1,T,,M,0.0,N,0.0,K,N*0C,1746867676000
NMEA,$GLGSV,1,1,01,82,35,038,16*54,1746867676000
NMEA,$GPRMC,090117.000,V,,,,,,,100525,,,N*40,1746867676000
NMEA,$PSAMCLK,2365,55089500,0,9742712,5380435,550895000*49,1746867676000
NMEA,$PSAMCLK,2365,55089500,0,9742712,5380435,550895000*49,1746867676000
NMEA,$GPGGA,090118.000,,,,,0,,,,,,,,*79,1746867677000
NMEA,$PSAMSA,,,,,,0,,,,,,,,*2D,1746867677000
NMEA,$GPGLL,4503.6840,N,00741.6982,E,090118.000,V,N*4F,1746867677000
NMEA,$GPVTG,164.6,T,,M,0.0,N,0.0,K,N*07,1746867677000
NMEA,$GLGSV,1,1,01,82,35,038,15*57,1746867677000
NMEA,$GPRMC,090118.000,V,,,,,,,100525,,,N*4F,1746867677000
NMEA,$PSAMCLK,2365,55089600,0,9742712,5442277,550896000*40,1746867677000
NMEA,$PSAMCLK,2365,55089600,0,9742712,5442277,550896000*40,1746867677000
NMEA,$GPGGA,090119.000,,,,,0,,,,,,,,*78,1746867678000
NMEA,$PSAMSA,,,,,,0,,,,,,,,*2D,1746867678000
NMEA,$GPGLL,4503.6865,N,00741.6945,E,090119.000,V,N*42,1746867678000
NMEA,$GPVTG,161.0,T,,M,0.0,N,0.0,K,N*04,1746867678000
NMEA,$GLGSV,1,1,01,82,35,038,14*56,1746867678000
NMEA,$GPRMC,090119.000,V,,,,,,,100525,,,N*4E,1746867678000
NMEA,$PSAMCLK,2365,55089700,0,9742712,5504119,550897000*48,1746867678000
NMEA,$PSAMCLK,2365,55089700,0,9742712,5504119,550897000*48,1746867678000
NMEA,$GPGGA,090120.000,,,,,0,,,,,,,,*72,1746867679000
NMEA,$PSAMSA,,,,,,0,,,,,,,,*2D,1746867679000
NMEA,$GPGLL,4503.6000,N,00741.8215,E,090120.000,V,N*43,1746867679000
NMEA,$GPVTG,0.0,T,,M,0.0,N,0.0,K,N*02,1746867679000
NMEA,$GLGSV,1,1,01,82,35,038,13*51,1746867679000
NMEA,$GPRMC,090120.000,V,,,,,,,100525,,,N*44,1746867679000
NMEA,$PSAMCLK,2365,55089800,0,9742712,5565961,550898006*4E,1746867679000
NMEA,$PSAMCLK,2365,55089800,0,9742712,5565961,550898006*4E,1746867679000
NMEA,$GPGGA,090121.000,,,,,0,,,,,,,,*73,1746867680000
NMEA,$PSAMSA,,,,,,0,,,,,,,,*2D,1746867680000
NMEA,$GPGLL,4503.6000,N,00741.8215,E,090121.000,V,N*42,1746867680000
NMEA,$GPVTG,0.0,T,,M,0.0,N,0.0,K,N*02,1746867680000
NMEA,$GLGSV,1,1,01,82,35,038,12*50,1746867680000
NMEA,$GPRMC,090121.000,V,,,,,,,100525,,,N*45,1746867680000
NMEA,$PSAMCLK,2365,55089900,0,9742712,5627803,550899000*48,1746867680000
NMEA,$PSAMCLK,2365,55089900,0,9742712,5627803,550899000*48,1746867680000
NMEA,$GPGGA,090122.000,,,,,0,,,,,,,,*70,1746867681000
NMEA,$PSAMSA,,,,,,0,,,,,,,,*2D,1746867681000
NMEA,$GPGLL,4503.6000,N,00741.8215,E,090122.000,V,N*41,1746867681000
NMEA,$GPVTG,0.0,T,,M,0.0,N,0.0,K,N*02,1746867681000
NMEA,$GPRMC,090122.000,V,,,,,,,100525,,,N*46,1746867681000
NMEA,$PSAMCLK,2365,55090000,0,9742712,5689645,550900000*40,1746867681000
NMEA,$PSAMCLK,2365,55090000,0,9742712,5689645,550900000*40,1746867681000
NMEA,$GPGGA,090123.000,,,,,0,,,,,,,,*71,1746867682000
NMEA,$PSAMSA,,,,,,0,,,,,,,,*2D,1746867682000
NMEA,$GPGLL,4503.6000,N,00741.8215,E,090123.000,V,N*40,1746867682000
NMEA,$GPVTG,0.0,T,,M,0.0,N,0.0,K,N*02,1746867682000
NMEA,$GPRMC,090123.000,V,,,,,,,100525,,,N*47,1746867682000
NMEA,$PSAMCLK,2365,55090100,0,9742712,5751487,550901000*48,1746867682000
NMEA,$PSAMCLK,2365,55090100,0,9742712,5751487,550901000*48,1746867682000
NMEA,$GPGGA,090124.000,,,,,0,,,,,,,,*76,1746867683000
NMEA,$PSAMSA,,,,,,0,,,,,,,,*2D,1746867683000
NMEA,$GPGLL,4503.6000,N,00741.8215,E,090124.000,V,N*47,1746867683000
NMEA,$GPVTG,0.0,T,,M,0.0,N,0.0,K,N*02,1746867683000
NMEA,$GPRMC,090124.000,V,,,,,,,100525,,,N*40,1746867683000
NMEA,$PSAMCLK,2365,55090200,0,9742712,5813329,550902000*42,1746867683000
NMEA,$PSAMCLK,2365,55090200,0,9742712,5813329,550902000*42,1746867683000
NMEA,$GPGGA,090125.000,,,,,0,,,,,,,,*77,1746867684000
NMEA,$PSAMSA,,,,,,0,,,,,,,,*2D,1746867684000
NMEA,$GPGLL,4503.6000,N,00741.8215,E,090125.000,V,N*46,1746867684000
NMEA,$GPVTG,0.0,T,,M,0.0,N,0.0,K,N*02,1746867684000
NMEA,$GPRMC,090125.000,V,,,,,,,100525,,,N*41,1746867684000
NMEA,$PSAMCLK,2365,55090300,0,9742712,5875171,550903000*4D,1746867684000
NMEA,$PSAMCLK,2365,55090300,0,9742712,5875171,550903000*4D,1746867684000
NMEA,$GPGGA,090126.000,,,,,0,,,,,,,,*74,1746867685000
NMEA,$PSAMSA,,,,,,0,,,,,,,,*2D,1746867685000
NMEA,$GPGLL,4503.6000,N,00741.8215,E,090126.000,V,N*45,1746867685000
NMEA,$GPVTG,0.0,T,,M,0.0,N,0.0,K,N*02,1746867685000
NMEA,$GPRMC,090126.000,V,,,,,,,100525,,,N*42,1746867685000
NMEA,$PSAMCLK,2365,55090400,0,9742712,5937013,550904000*4F,1746867685000
NMEA,$PSAMCLK,2365,55090400,0,9742712,5937013,550904000*4F,1746867685000
NMEA,$GPGGA,090127.000,,,,,0,,,,,,,,*75,1746867686000
NMEA,$PSAMSA,,,,,,0,,,,,,,,*2D,1746867686000
NMEA,$GPGLL,4503.6000,N,00741.8215,E,090127.000,V,N*44,1746867686000
NMEA,$GPVTG,0.0,T,,M,0.0,N,0.0,K,N*02,1746867686000
NMEA,$GPRMC,090127.000,V,,,,,,,100525,,,N*43,1746867686000
NMEA,$PSAMCLK,2365,55090500,0,9742712,5998855,550905000*40,1746867686000
NMEA,$PSAMCLK,2365,55090500,0,9742712,5998855,550905000*40,1746867686000
NMEA,$GPGGA,090128.000,,,,,0,,,,,,,,*7A,1746867687000
NMEA,$PSAMSA,,,,,,0,,,,,,,,*2D,1746867687000
NMEA,$GPGLL,4503.6000,N,00741.8215,E,090128.000,V,N*4B,1746867687000
NMEA,$GPVTG,0.0,T,,M,0.0,N,0.0,K,N*02,1746867687000
NMEA,$GPRMC,090128.000,V,,,,,,,100525,,,N*4C,1746867687000
NMEA,$PSAMCLK,2365,55090600,0,9742712,6060697,550906000*4D,1746867687000
NMEA,$PSAMCLK,2365,55090600,0,9742712,6060697,550906000*4D,1746867687000
NMEA,$GPGGA,090129.000,,,,,0,,,,,,,,*7B,1746867688000
NMEA,$PSAMSA,,,,,,0,,,,,,,,*2D,1746867688000
NMEA,$GPGLL,4503.6000,N,00741.8215,E,090129.000,V,N*4A,1746867688000
NMEA,$GPVTG,0.0,T,,M,0.0,N,0.0,K,N*02,1746867688000
NMEA,$GLGSV,1,1,01,73,75,269,23*5E,1746867688000
NMEA,$GPRMC,090129.000,V,,,,,,,100525,,,N*4D,1746867688000
NMEA,$PSAMCLK,2365,55090700,0,9742712,6122539,550907000*4D,1746867688000
NMEA,$PSAMCLK,2365,55090700,0,9742712,6122539,550907000*4D,1746867688000
NMEA,$GPGGA,090130.000,,,,,0,,,,,,,,*73,1746867689000
NMEA,$PSAMSA,,,,,,0,,,,,,,,*2D,1746867689000
NMEA,$GPGLL,4503.6000,N,00741.8215,E,090130.000,V,N*42,1746867689000
NMEA,$GPVTG,0.0,T,,M,0.0,N,0.0,K,N*02,1746867689000
NMEA,$GLGSV,1,1,01,73,75,269,23*5E,1746867689000
NMEA,$GPRMC,090130.000,V,,,,,,,100525,,,N*45,1746867689000
NMEA,$PSAMCLK,2365,55090800,0,9742712,6184381,550908000*44,1746867689000
NMEA,$PSAMCLK,2365,55090800,0,9742712,6184381,550908000*44,1746867689000
NMEA,$GPGGA,090131.000,,,,,0,,,,,,,,*72,1746867690000
NMEA,$PSAMSA,,,,,,0,,,,,,,,*2D,1746867690000
NMEA,$GPGLL,4503.6000,N,00741.8215,E,090131.000,V,N*43,1746867690000
NMEA,$GPVTG,0.0,T,,M,0.0,N,0.0,K,N*02,1746867690000
NMEA,$GLGSV,1,1,01,73,75,269,22*5F,1746867690000
NMEA,$GPRMC,090131.000,V,,,,,,,100525,,,N*44,1746867690000
NMEA,$PSAMCLK,2365,55090900,0,9742712,6246223,550909000*40,1746867690000
NMEA,$PSAMCLK,2365,55090900,0,9742712,6246223,550909000*40,1746867690000
NMEA,$GPGGA,090132.000,,,,,0,,,,,,,,*71,1746867691000
NMEA,$PSAMSA,,,,,,0,,,,,,,,*2D,1746867691000
NMEA,$GPGLL,4503.6000,N,00741.8215,E,090132.000,V,N*40,1746867691000
NMEA,$GPVTG,0.0,T,,M,0.0,N,0.0,K,N*02,1746867691000
NMEA,$GLGSV,1,1,01,73,75,269,22*5F,1746867691000
NMEA,$GPRMC,090132.000,V,,,,,,,100525,,,N*47,1746867691000
NMEA,$PSAMCLK,2365,55091000,0,9742712,6308065,550910000*4B,1746867691000
NMEA,$PSAMCLK,2365,55091000,0,9742712,6308065,550910000*4B,1746867691000
NMEA,$GPGGA,090133.000,,,,,0,,,,,,,,*70,1746867692000
NMEA,$PSAMSA,,,,,,0,,,,,,,,*2D,1746867692000
NMEA,$GPGLL,4503.6000,N,00741.8215,E,090133.000,V,N*41,1746867692000
NMEA,$GPVTG,0.0,T,,M,0.0,N,0.0,K,N*02,1746867692000
NMEA,$GLGSV,1,1,01,73,75,269,22*5F,1746867692000
NMEA,$GPRMC,090133.000,V,,,,,,,100525,,,N*46,1746867692000
NMEA,$PSAMCLK,2365,55091100,0,9742712,6369907,550911000*41,1746867692000
NMEA,$PSAMCLK,2365,55091100,0,9742712,6369907,550911000*41,1746867692000
NMEA,$GPGGA,090134.000,,,,,0,,,,,,,,*77,1746867693000
NMEA,$PSAMSA,,,,,,0,,,,,,,,*2D,1746867693000
NMEA,$GPGLL,4503.6000,N,00741.8215,E,090134.000,V,N*46,1746867693000
NMEA,$GPVTG,0.0,T,,M,0.0,N,0.0,K,N*02,1746867693000
NMEA,$GLGSV,1,1,01,73,75,269,21*5C,1746867693000
NMEA,$GPRMC,090134.000,V,,,,,,,100525,,,N*41,1746867693000
NMEA,$PSAMCLK,2365,55091200,0,9742712,6431749,550912000*4F,1746867693000
NMEA,$PSAMCLK,2365,55091200,0,9742712,6431749,550912000*4F,1746867693000
NMEA,$GPGGA,090135.000,,,,,0,,,,,,,,*76,1746867694000
NMEA,$PSAMSA,,,,,,0,,,,,,,,*2D,1746867694000
NMEA,$GPGLL,4503.6000,N,00741.8215,E,090135.000,V,N*47,1746867694000
NMEA,$GPVTG,0.0,T,,M,0.0,N,0.0,K,N*02,1746867694000
NMEA,$GLGSV,1,1,01,73,75,269,19*57,1746867694000
NMEA,$GPRMC,090135.000,V,,,,,,,100525,,,N*40,1746867694000
NMEA,$PSAMCLK,2365,55091300,0,9742712,6493591,550913000*40,1746867694000
NMEA,$PSAMCLK,2365,55091300,0,9742712,6493591,550913000*40,1746867694000
NMEA,$GPGGA,090136.000,,,,,0,,,,,,,,*75,1746867695000
NMEA,$PSAMSA,,,,,,0,,,,,,,,*2D,1746867695000
NMEA,$GPGLL,4503.6000,N,00741.8215,E,090136.000,V,N*44,1746867695000
NMEA,$GPVTG,0.0,T,,M,0.0,N,0.0,K,N*02,1746867695000
NMEA,$GLGSV,1,1,01,73,75,269,18*56,1746867695000
NMEA,$GPRMC,090136.000,V,,,,,,,100525,,,N*43,1746867695000
NMEA,$PSAMCLK,2365,55091400,0,9742712,6555433,550914000*42,1746867695000
NMEA,$PSAMCLK,2365,55091400,0,9742712,6555433,550914000*42,1746867695000
NMEA,$GPGGA,090137.000,,,,,0,,,,,,,,*74,1746867696000
NMEA,$PSAMSA,,,,,,0,,,,,,,,*2D,1746867696000
NMEA,$GPGLL,4503.6000,N,00741.8215,E,090137.000,V,N*45,1746867696000
NMEA,$GPVTG,0.0,T,,M,0.0,N,0.0,K,N*02,1746867696000
NMEA,$GLGSV,1,1,01,73,75,269,16*58,1746867696000
NMEA,$GPRMC,090137.000,V,,,,,,,100525,,,N*42,1746867696000
NMEA,$PSAMCLK,2365,55091500,0,9742712,6617275,550915000*43,1746867696000
NMEA,$PSAMCLK,2365,55091500,0,9742712,6617275,550915000*43,1746867696000
NMEA,$GPGGA,090138.000,,,,,0,,,,,,,,*7B,1746867697000
NMEA,$PSAMSA,,,,,,0,,,,,,,,*2D,1746867697000
NMEA,$GPGLL,4503.6000,N,00741.8215,E,090138.000,V,N*4A,1746867697000
NMEA,$GPVTG,0.0,T,,M,0.0,N,0.0,K,N*02,1746867697000
NMEA,$GLGSV,1,1,01,73,75,269,15*5B,1746867697000
NMEA,$GPRMC,090138.000,V,,,,,,,100525,,,N*4D,1746867697000
NMEA,$PSAMCLK,2365,55091600,0,9742712,6679117,550916000*4C,1746867697000
NMEA,$PSAMCLK,2365,55091600,0,9742712,6679117,550916000*4C,1746867697000
NMEA,$GPGGA,090139.000,,,,,0,,,,,,,,*7A,1746867698000
NMEA,$PSAMSA,,,,,,0,,,,,,,,*2D,1746867698000
NMEA,$GPGLL,4503.6000,N,00741.8215,E,090139.000,V,N*4B,1746867698000
NMEA,$GPVTG,0.0,T,,M,0.0,N,0.0,K,N*02,1746867698000
NMEA,$GLGSV,1,1,01,73,75,269,14*5A,1746867698000
NMEA,$GPRMC,090139.000,V,,,,,,,100525,,,N*4C,1746867698000
NMEA,$PSAMCLK,2365,55091700,0,9742712,6740959,550917000*45,1746867698000
NMEA,$PSAMCLK,2365,55091700,0,9742712,6740959,550917000*45,1746867698000
NMEA,$GPGGA,090140.000,,,,,0,,,,,,,,*74,1746867699000
NMEA,$PSAMSA,,,,,,0,,,,,,,,*2D,1746867699000
NMEA,$GPGLL,4503.6000,N,00741.8215,E,090140.000,V,N*45,1746867699000
NMEA,$GPVTG,0.0,T,,M,0.0,N,0.0,K,N*02,1746867699000
NMEA,$GLGSV,1,1,01,73,75,269,13*5D,1746867699000
NMEA,$GPRMC,090140.000,V,,,,,,,100525,,,N*42,1746867699000
NMEA,$PSAMCLK,2365,55091800,0,9742712,6802801,550918000*40,1746867699000
NMEA,$PSAMCLK,2365,55091800,0,9742712,6802801,550918000*40,1746867699000
NMEA,$GPGGA,090141.000,,,,,0,,,,,,,,*75,1746867700000
NMEA,$PSAMSA,,,,,,0,,,,,,,,*2D,1746867700000
NMEA,$GPGLL,4503.6000,N,00741.8215,E,090141.000,V,N*44,1746867700000
NMEA,$GPVTG,0.0,T,,M,0.0,N,0.0,K,N*02,1746867700000
NMEA,$GLGSV,1,1,01,73,75,269,12*5C,1746867700000
NMEA,$GPRMC,090141.000,V,,,,,,,100525,,,N*43,1746867700000
NMEA,$PSAMCLK,2365,55091900,0,9742712,6864643,550919000*48,1746867700000
NMEA,$PSAMCLK,2365,55091900,0,9742712,6864643,550919000*48,1746867700000
NMEA,$GPGGA,090142.000,,,,,0,,,,,,,,*76,1746867701000
NMEA,$PSAMSA,,,,,,0,,,,,,,,*2D,1746867701000
NMEA,$GPGLL,4503.6000,N,00741.8215,E,090142.000,V,N*47,1746867701000
NMEA,$GPVTG,0.0,T,,M,0.0,N,0.0,K,N*02,1746867701000
NMEA,$GPRMC,090142.000,V,,,,,,,100525,,,N*40,1746867701000
NMEA,$PSAMCLK,2365,55092000,0,9742712,6926485,550920000*47,1746867701000
NMEA,$PSAMCLK,2365,55092000,0,9742712,6926485,550920000*47,1746867701000
NMEA,$GPGGA,090143.000,,,,,0,,,,,,,,*77,1746867702000
NMEA,$PSAMSA,,,,,,0,,,,,,,,*2D,1746867702000
NMEA,$GPGLL,4503.6000,N,00741.8215,E,090143.000,V,N*46,1746867702000
NMEA,$GPVTG,0.0,T,,M,0.0,N,0.0,K,N*02,1746867702000
NMEA,$GPRMC,090143.000,V,,,,,,,100525,,,N*41,1746867702000
NMEA,$PSAMCLK,2365,55092100,0,9742712,6988327,550921000*4C,1746867702000
NMEA,$PSAMCLK,2365,55092100,0,9742712,6988327,550921000*4C,1746867702000
NMEA,$GPGGA,090144.000,,,,,0,,,,,,,,*70,1746867703000
NMEA,$PSAMSA,,,,,,0,,,,,,,,*2D,1746867703000
NMEA,$GPGLL,4503.6000,N,00741.8215,E,090144.000,V,N*41,1746867703000
NMEA,$GPVTG,0.0,T,,M,0.0,N,0.0,K,N*02,1746867703000
NMEA,$GPRMC,090144.000,V,,,,,,,100525,,,N*46,1746867703000
NMEA,$PSAMCLK,2365,55092200,0,9742712,7050169,550922000*49,1746867703000
NMEA,$PSAMCLK,2365,55092200,0,9742712,7050169,550922000*49,1746867703000
NMEA,$GPGGA,090145.000,,,,,0,,,,,,,,*71,1746867704000
NMEA,$PSAMSA,,,,,,0,,,,,,,,*2D,1746867704000
NMEA,$GPGLL,4503.6000,N,00741.8215,E,090145.000,V,N*40,1746867704000
NMEA,$GPVTG,0.0,T,,M,0.0,N,0.0,K,N*02,1746867704000
NMEA,$GPRMC,090145.000,V,,,,,,,100525,,,N*47,1746867704000
NMEA,$PSAMCLK,2365,55092300,0,9742712,7112011,550923000*40,1746867704000
NMEA,$PSAMCLK,2365,55092300,0,9742712,7112011,550923000*40,1746867704000
NMEA,$GPGGA,090146.000,,,,,0,,,,,,,,*72,1746867705000
NMEA,$PSAMSA,,,,,,0,,,,,,,,*2D,1746867705000
NMEA,$GPGLL,4503.6000,N,00741.8215,E,090146.000,V,N*43,1746867705000
NMEA,$GPVTG,0.0,T,,M,0.0,N,0.0,K,N*02,1746867705000
NMEA,$GPRMC,090146.000,V,,,,,,,100525,,,N*44,1746867705000
NMEA,$PSAMCLK,2365,55092400,0,9742712,7173853,550924000*49,1746867705000
NMEA,$PSAMCLK,2365,55092400,0,9742712,7173853,550924000*49,1746867705000
NMEA,$GPGGA,090147.000,,,,,0,,,,,,,,*73,1746867706000
NMEA,$PSAMSA,,,,,,0,,,,,,,,*2D,1746867706000
NMEA,$GPGLL,4503.6000,N,00741.8215,E,090147.000,V,N*42,1746867706000
NMEA,$GPVTG,0.0,T,,M,0.0,N,0.0,K,N*02,1746867706000
NMEA,$GPRMC,090147.000,V,,,,,,,100525,,,N*45,1746867706000
NMEA,$PSAMCLK,2365,55092500,0,9742712,7235695,550925000*4C,1746867706000
NMEA,$PSAMCLK,2365,55092500,0,9742712,7235695,550925000*4C,1746867706000
NMEA,$GPGGA,090148.000,,,,,0,,,,,,,,*7C,1746867707000
NMEA,$PSAMSA,,,,,,0,,,,,,,,*2D,1746867707000
NMEA,$GPGLL,4503.6000,N,00741.8215,E,090148.000,V,N*4D,1746867707000
NMEA,$GPVTG,0.0,T,,M,0.0,N,0.0,K,N*02,1746867707000
NMEA,$GPRMC,090148.000,V,,,,,,,100525,,,N*4A,1746867707000
NMEA,$PSAMCLK,2365,55092600,0,9742712,7297537,550926000*4F,1746867707000
NMEA,$PSAMCLK,2365,55092600,0,9742712,7297537,550926000*4F,1746867707000
NMEA,$GPGGA,090149.000,,,,,0,,,,,,,,*7D,1746867708000
NMEA,$PSAMSA,,,,,,0,,,,,,,,*2D,1746867708000
NMEA,$GPGLL,4503.6000,N,00741.8215,E,090149.000,V,N*4C,1746867708000
NMEA,$GPVTG,0.0,T,,M,0.0,N,0.0,K,N*02,1746867708000
NMEA,$GPRMC,090149.000,V,,,,,,,100525,,,N*4B,1746867708000
NMEA,$PSAMCLK,2365,55092700,0,9742712,7359379,550927000*40,1746867708000
NMEA,$PSAMCLK,2365,55092700,0,9742712,7359379,550927000*40,1746867708000
NMEA,$GPGGA,090150.000,,,,,0,,,,,,,,*75,1746867709000
NMEA,$PSAMSA,,,,,,0,,,,,,,,*2D,1746867709000
NMEA,$GPGLL,4503.6000,N,00741.8215,E,090150.000,V,N*44,1746867709000
NMEA,$GPVTG,0.0,T,,M,0.0,N,0.0,K,N*02,1746867709000
NMEA,$GPRMC,090150.000,V,,,,,,,100525,,,N*43,1746867709000
NMEA,$PSAMCLK,2365,55092800,0,9742712,7421221,550928000*44,1746867709000
NMEA,$PSAMCLK,2365,55092800,0,9742712,7421221,550928000*44,1746867709000
NMEA,$GPGGA,090151.000,,,,,0,,,,,,,,*74,1746867710000
NMEA,$PSAMSA,,,,,,0,,,,,,,,*2D,1746867710000
NMEA,$GPGLL,4503.6000,N,00741.8215,E,090151.000,V,N*45,1746867710000
NMEA,$GPVTG,0.0,T,,M,0.0,N,0.0,K,N*02,1746867710000
NMEA,$GPRMC,090151.000,V,,,,,,,100525,,,N*42,1746867710000
NMEA,$PSAMCLK,2365,55092900,0,9742712,7483063,550929000*48,1746867710000
NMEA,$PSAMCLK,2365,55092900,0,9742712,7483063,550929000*48,1746867710000
NMEA,$GPGGA,090152.000,,,,,0,,,,,,,,*77,1746867711000
NMEA,$PSAMSA,,,,,,0,,,,,,,,*2D,1746867711000
NMEA,$GPGLL,4503.6000,N,00741.8215,E,090152.000,V,N*46,1746867711000
NMEA,$GPVTG,0.0,T,,M,0.0,N,0.0,K,N*02,1746867711000
NMEA,$GPRMC,090152.000,V,,,,,,,100525,,,N*41,1746867711000
NMEA,$PSAMCLK,2365,55093000,0,9742712,7544905,550930000*4B,1746867711000
NMEA,$PSAMCLK,2365,55093000,0,9742712,7544905,550930000*4B,1746867711000
NMEA,$GPGGA,090153.000,,,,,0,,,,,,,,*76,1746867712000
NMEA,$PSAMSA,,,,,,0,,,,,,,,*2D,1746867712000
NMEA,$GPGLL,4503.6000,N,00741.8215,E,090153.000,V,N*47,1746867712000
NMEA,$GPVTG,0.0,T,,M,0.0,N,0.0,K,N*02,1746867712000
NMEA,$GPRMC,090153.000,V,,,,,,,100525,,,N*40,1746867712000
NMEA,$PSAMCLK,2365,55093100,0,9742712,7606747,550931000*46,1746867712000
NMEA,$PSAMCLK,2365,55093100,0,9742712,7606747,550931000*46,1746867712000
NMEA,$GPGGA,090154.000,,,,,0,,,,,,,,*71,1746867713000
NMEA,$PSAMSA,,,,,,0,,,,,,,,*2D,1746867713000
NMEA,$GPGLL,4503.6000,N,00741.8215,E,090154.000,V,N*40,1746867713000
NMEA,$GPVTG,0.0,T,,M,0.0,N,0.0,K,N*02,1746867713000
NMEA,$GPRMC,090154.000,V,,,,,,,100525,,,N*47,1746867713000
NMEA,$PSAMCLK,2365,55093200,0,9742712,7668589,550932000*4E,1746867713000
NMEA,$PSAMCLK,2365,55093200,0,9742712,7668589,550932000*4E,1746867713000
NMEA,$GPGGA,090155.000,,,,,0,,,,,,,,*70,1746867714000
NMEA,$PSAMSA,,,,,,0,,,,,,,,*2D,1746867714000
NMEA,$GPGLL,4503.6000,N,00741.8215,E,090155.000,V,N*41,1746867714000
NMEA,$GPVTG,0.0,T,,M,0.0,N,0.0,K,N*02,1746867714000
NMEA,$GPRMC,090155.000,V,,,,,,,100525,,,N*46,1746867714000
NMEA,$PSAMCLK,2365,55093300,0,9742712,7730431,550933000*40,1746867714000
NMEA,$PSAMCLK,2365,55093300,0,9742712,7730431,550933000*40,1746867714000
NMEA,$GPGGA,090156.000,,,,,0,,,,,,,,*73,1746867715000
NMEA,$PSAMSA,,,,,,0,,,,,,,,*2D,1746867715000
NMEA,$GPGLL,4503.6000,N,00741.8215,E,090156.000,V,N*42,1746867715000
NMEA,$GPVTG,0.0,T,,M,0.0,N,0.0,K,N*02,1746867715000
NMEA,$GPRMC,090156.000,V,,,,,,,100525,,,N*45,1746867715000
NMEA,$PSAMCLK,2365,55093400,0,9742712,7792273,550934000*48,1746867715000
NMEA,$PSAMCLK,2365,55093400,0,9742712,7792273,550934000*48,1746867715000
NMEA,$GPGGA,090157.000,,,,,0,,,,,,,,*72,1746867716000
NMEA,$PSAMSA,,,,,,0,,,,,,,,*2D,1746867716000
NMEA,$GPGLL,4503.6000,N,00741.8215,E,090157.000,V,N*43,1746867716000
NMEA,$GPVTG,0.0,T,,M,0.0,N,0.0,K,N*02,1746867716000
NMEA,$GPRMC,090157.000,V,,,,,,,100525,,,N*44,1746867716000
NMEA,$PSAMCLK,2365,55093500,0,9742712,7854115,550935000*4E,1746867716000
NMEA,$PSAMCLK,2365,55093500,0,9742712,7854115,550935000*4E,1746867716000
NMEA,$GPGGA,090158.000,,,,,0,,,,,,,,*7D,1746867717000
NMEA,$PSAMSA,,,,,,0,,,,,,,,*2D,1746867717000
NMEA,$GPGLL,4503.6000,N,00741.8215,E,090158.000,V,N*4C,1746867717000
NMEA,$GPVTG,0.0,T,,M,0.0,N,0.0,K,N*02,1746867717000
NMEA,$GPRMC,090158.000,V,,,,,,,100525,,,N*4B,1746867717000
NMEA,$PSAMCLK,2365,55093600,0,9742712,7915957,550936000*44,1746867717000
NMEA,$PSAMCLK,2365,55093600,0,9742712,7915957,550936000*44,1746867717000
NMEA,$GPGGA,090159.000,,,,,0,,,,,,,,*7C,1746867718000
NMEA,$PSAMSA,,,,,,0,,,,,,,,*2D,1746867718000
NMEA,$GPGLL,4503.6000,N,00741.8215,E,090159.000,V,N*4D,1746867718000
NMEA,$GPVTG,0.0,T,,M,0.0,N,0.0,K,N*02,1746867718000
NMEA,$GPRMC,090159.000,V,,,,,,,100525,,,N*4A,1746867718000
NMEA,$PSAMCLK,2365,55093700,0,9742712,7977799,550937000*4C,1746867718000
NMEA,$PSAMCLK,2365,55093700,0,9742712,7977799,550937000*4C,1746867718000
NMEA,$GPGGA,090200.000,,,,,0,,,,,,,,*73,1746867719000
NMEA,$PSAMSA,,,,,,0,,,,,,,,*2D,1746867719000
NMEA,$GPGLL,4503.6000,N,00741.8215,E,090200.000,V,N*42,1746867719000
NMEA,$GPVTG,0.0,T,,M,0.0,N,0.0,K,N*02,1746867719000
NMEA,$GPRMC,090200.000,V,,,,,,,100525,,,N*45,1746867719000
NMEA,$PSAMCLK,2365,55093800,0,9742712,8039641,550938000*44,1746867719000
NMEA,$PSAMCLK,2365,55093800,0,9742712,8039641,550938000*44,1746867719000
NMEA,$GPGGA,090201.000,,,,,0,,,,,,,,*72,1746867720000
NMEA,$PSAMSA,,,,,,0,,,,,,,,*2D,1746867720000
NMEA,$GPGLL,4503.6000,N,00741.8215,E,090201.000,V,N*43,1746867720000
NMEA,$GPVTG,0.0,T,,M,0.0,N,0.0,K,N*02,1746867720000
NMEA,$GPRMC,090201.000,V,,,,,,,100525,,,N*44,1746867720000
NMEA,$PSAMCLK,2365,55093900,0,9742712,8101483,550939000*42,1746867720000
NMEA,$PSAMCLK,2365,55093900,0,9742712,8101483,550939000*42,1746867720000
NMEA,$GPGGA,090202.000,,,,,0,,,,,,,,*71,1746867721000
NMEA,$PSAMSA,,,,,,0,,,,,,,,*2D,1746867721000
NMEA,$GPGLL,4503.6000,N,00741.8215,E,090202.000,V,N*40,1746867721000
NMEA,$GPVTG,0.0,T,,M,0.0,N,0.0,K,N*02,1746867721000
NMEA,$GPRMC,090202.000,V,,,,,,,100525,,,N*47,1746867721000
NMEA,$PSAMCLK,2365,55094000,0,9742712,8163325,550940000*4D,1746867721000
NMEA,$PSAMCLK,2365,55094000,0,9742712,8163325,550940000*4D,1746867721000
NMEA,$GPGGA,090203.000,,,,,0,,,,,,,,*70,1746867722000
NMEA,$PSAMSA,,,,,,0,,,,,,,,*2D,1746867722000
NMEA,$GPGLL,4503.6000,N,00741.8215,E,090203.000,V,N*41,1746867722000
NMEA,$GPVTG,0.0,T,,M,0.0,N,0.0,K,N*02,1746867722000
NMEA,$GPRMC,090203.000,V,,,,,,,100525,,,N*46,1746867722000
NMEA,$PSAMCLK,2365,55094100,0,9742712,8225167,550941000*48,1746867722000
NMEA,$PSAMCLK,2365,55094100,0,9742712,8225167,550941000*48,1746867722000
NMEA,$GPGGA,090204.000,,,,,0,,,,,,,,*77,1746867723000
NMEA,$PSAMSA,,,,,,0,,,,,,,,*2D,1746867723000
NMEA,$GPGLL,4503.6000,N,00741.8215,E,090204.000,V,N*46,1746867723000
NMEA,$GPVTG,0.0,T,,M,0.0,N,0.0,K,N*02,1746867723000
NMEA,$GPRMC,090204.000,V,,,,,,,100525,,,N*41,1746867723000
NMEA,$PSAMCLK,2365,55094200,0,9742712,8287009,550942000*49,1746867723000
NMEA,$PSAMCLK,2365,55094200,0,9742712,8287009,550942000*49,1746867723000
NMEA,$GPGGA,090205.000,,,,,0,,,,,,,,*76,1746867724000
NMEA,$PSAMSA,,,,,,0,,,,,,,,*2D,1746867724000
NMEA,$GPGLL,4503.6000,N,00741.8215,E,090205.000,V,N*47,1746867724000
NMEA,$GPVTG,0.0,T,,M,0.0,N,0.0,K,N*02,1746867724000
NMEA,$GPRMC,090205.000,V,,,,,,,100525,,,N*40,1746867724000
NMEA,$PSAMCLK,2365,55094300,0,9742712,8348851,550943000*4E,1746867724000
NMEA,$PSAMCLK,2365,55094300,0,9742712,8348851,550943000*4E,1746867724000
NMEA,$GPGGA,090206.000,,,,,0,,,,,,,,*75,1746867725000
NMEA,$PSAMSA,,,,,,0,,,,,,,,*2D,1746867725000
NMEA,$GPGLL,4503.6000,N,00741.8215,E,090206.000,V,N*44,1746867725000
