NMEA,$GPGGA,095339.000,4503.5973,N,00741.8348,E,1,12,0.8,282.1,M,48.2,M,,*5A,1746870818000
NMEA,$PSAMSA,095339.000,4503.5973,N,00741.8348,E,0,M,,*63,1746870818000
NMEA,$GPGLL,4503.5973,N,00741.8348,E,095339.000,A,A*53,1746870818000
NMEA,$GPVTG,333.7,T,,M,0.2,N,0.4,K,A*0F,1746870818000
NMEA,$GPGSV,2,1,07,10,20,161,36,16,68,287,41,18,56,054,43,26,65,197,38*73,1746870818000
NMEA,$GPGSV,2,2,07,27,40,289,36,29,13,088,35,31,12,208,23*4C,1746870818000
NMEA,$GLGSV,1,1,02,70,11,314,37,73,55,203,38*6C,1746870818000
NMEA,$BDGSV,2,1,07,208,30,038,30,213,39,054,40,220,18,075,37,224,31,305,39*67,1746870818000
NMEA,$BDGSV,2,2,07,226,50,238,34,229,34,066,42,235,77,302,47*6C,1746870818000
NMEA,$GPGSA,A,3,16,18,27,29,31,,,,,,,,1.6,0.8,1.2*3C,1746870818000
NMEA,$GNGSA,A,3,73,,,,,,,,,,,,1.6,0.8,1.2*24,1746870818000
NMEA,$BDGSA,A,3,208,213,224,226,229,235,,,,,,,1.6,0.8,1.2*2A,1746870818000
NMEA,$GPRMC,095339.000,A,4503.5973,N,00741.8348,E,0.2,333.7,100525,,,A*61,1746870818000
NMEA,$PSAMCLK,2365,55403700,12,9743665,19976455,554037000*42,1746870818000
NMEA,$PSAMCLK,2365,55403700,12,9743665,19976455,554037000*42,1746870818000
NMEA,$GPGGA,095340.000,4503.5963,N,00741.8352,E,1,12,0.8,282.2,M,48.2,M,,*5D,1746870819000
NMEA,$PSAMSA,095340.000,4503.5963,N,00741.8352,E,0,M,,*67,1746870819000
NMEA,$GPGLL,4503.5963,N,00741.8352,E,095340.000,A,A*57,1746870819000
NMEA,$GPVTG,273.1,T,,M,0.7,N,1.4,K,A*08,1746870819000
NMEA,$GPGSV,2,1,07,10,20,161,36,16,68,287,41,18,56,054,42,26,65,197,38*72,1746870819000
NMEA,$GPGSV,2,2,07,27,40,289,36,29,13,088,35,31,12,208,22*4D,1746870819000
NMEA,$GLGSV,1,1,02,70,11,314,37,73,55,203,38*6C,1746870819000
NMEA,$BDGSV,2,1,07,208,30,038,30,213,39,054,40,220,18,075,36,224,31,305,39*66,1746870819000
NMEA,$BDGSV,2,2,07,226,50,238,34,229,34,066,42,235,77,302,46*6D,1746870819000
NMEA,$GPGSA,A,3,16,18,27,29,31,,,,,,,,1.6,0.8,1.2*3C,1746870819000
NMEA,$GNGSA,A,3,73,,,,,,,,,,,,1.6,0.8,1.2*24,1746870819000
NMEA,$BDGSA,A,3,208,213,224,226,229,235,,,,,,,1.6,0.8,1.2*2A,1746870819000
NMEA,$GPRMC,095340.000,A,4503.5963,N,00741.8352,E,0.7,273.1,100525,,,A*63,1746870819000
NMEA,$PSAMCLK,2365,55403800,12,9743623,20038303,554038000*4D,1746870819000
NMEA,$PSAMCLK,2365,55403800,12,9743623,20038303,554038000*4D,1746870819000
NMEA,$GPGGA,095341.000,4503.5961,N,00741.8354,E,1,13,0.8,282.0,M,48.2,M,,*5B,1746870820000
NMEA,$PSAMSA,095341.000,4503.5961,N,00741.8354,E,0,M,,*62,1746870820000
NMEA,$GPGLL,4503.5961,N,00741.8354,E,095341.000,A,A*52,1746870820000
NMEA,$GPVTG,273.1,T,,M,0.0,N,0.0,K,A*0A,1746870820000
NMEA,$GPGSV,2,1,07,10,20,161,36,16,68,287,40,18,56,054,42,26,65,197,37*7C,1746870820000
NMEA,$GPGSV,2,2,07,27,40,289,36,29,13,088,34,31,12,208,22*4C,1746870820000
NMEA,$GLGSV,1,1,02,70,11,314,36,73,55,203,37*62,1746870820000
NMEA,$BDGSV,2,1,07,208,30,038,30,213,39,054,40,220,18,075,36,224,31,305,39*66,1746870820000
NMEA,$BDGSV,2,2,07,226,50,238,34,229,34,066,41,235,77,302,44*6C,1746870820000
NMEA,$GPGSA,A,3,16,26,18,27,29,31,,,,,,,1.4,0.8,1.2*3A,1746870820000
NMEA,$GNGSA,A,3,73,,,,,,,,,,,,1.4,0.8,1.2*26,1746870820000
NMEA,$BDGSA,A,3,208,213,224,226,229,235,,,,,,,1.4,0.8,1.2*28,1746870820000
NMEA,$GPRMC,095341.000,A,4503.5961,N,00741.8354,E,0.0,273.1,100525,,,A*61,1746870820000
NMEA,$PSAMCLK,2365,55403900,13,9743715,20100152,554039000*44,1746870820000
NMEA,$PSAMCLK,2365,55403900,13,9743715,20100152,554039000*44,1746870820000
NMEA,$GPGGA,095342.000,4503.5960,N,00741.8353,E,1,13,0.8,281.6,M,48.2,M,,*5B,1746870821000
NMEA,$PSAMSA,095342.000,4503.5960,N,00741.8353,E,0,M,,*67,1746870821000
NMEA,$GPGLL,4503.5960,N,00741.8353,E,095342.000,A,A*57,1746870821000
NMEA,$GPVTG,333.5,T,,M,1.1,N,2.1,K,A*08,1746870821000
NMEA,$GPGSV,2,1,07,10,20,161,35,16,68,287,39,18,56,054,41,26,65,197,37*72,1746870821000
NMEA,$GPGSV,2,2,07,27,40,289,36,29,13,088,34,31,12,208,22*4C,1746870821000
NMEA,$GLGSV,1,1,02,70,11,314,35,73,55,203,37*61,1746870821000
NMEA,$BDGSV,2,1,07,208,30,038,30,213,39,054,39,220,18,075,35,224,31,305,38*6A,1746870821000
NMEA,$BDGSV,2,2,07,226,50,238,34,229,34,066,41,235,77,302,43*6B,1746870821000
NMEA,$GPGSA,A,3,16,26,18,27,29,31,,,,,,,1.4,0.8,1.2*3A,1746870821000
NMEA,$GNGSA,A,3,73,,,,,,,,,,,,1.4,0.8,1.2*26,1746870821000
NMEA,$BDGSA,A,3,208,213,224,226,229,235,,,,,,,1.4,0.8,1.2*28,1746870821000
NMEA,$GPRMC,095342.000,A,4503.5960,N,00741.8353,E,1.1,333.5,100525,,,A*65,1746870821000
NMEA,$PSAMCLK,2365,55404000,13,9743657,20161998,554040000*4A,1746870821000
NMEA,$PSAMCLK,2365,55404000,13,9743657,20161998,554040000*4A,1746870821000
NMEA,$GPGGA,095343.000,4503.5964,N,00741.8351,E,1,08,1.0,281.8,M,48.2,M,,*51,1746870822000
NMEA,$PSAMSA,095343.000,4503.5964,N,00741.8351,E,0,M,,*60,1746870822000
NMEA,$GPGLL,4503.5964,N,00741.8351,E,095343.000,A,A*50,1746870822000
NMEA,$GPVTG,334.1,T,,M,0.3,N,0.6,K,A*0D,1746870822000
NMEA,$GPGSV,2,1,07,10,20,161,35,16,68,287,39,18,56,054,40,26,65,197,36*72,1746870822000
NMEA,$GPGSV,2,2,07,27,40,289,35,29,13,088,33,31,12,208,22*48,1746870822000
NMEA,$GLGSV,1,1,02,70,11,314,34,73,55,203,36*61,1746870822000
NMEA,$BDGSV,2,1,07,208,30,038,29,213,39,054,37,220,18,075,34,224,31,305,38*6D,1746870822000
NMEA,$BDGSV,2,2,07,226,50,238,34,229,34,066,40,235,77,302,42*6B,1746870822000
NMEA,$GPGSA,A,3,16,26,27,29,31,,,,,,,,1.8,1.0,1.4*30,1746870822000
NMEA,$BDGSA,A,3,224,226,229,,,,,,,,,,1.8,1.0,1.4*15,1746870822000
NMEA,$GPRMC,095343.000,A,4503.5964,N,00741.8351,E,0.3,334.1,100525,,,A*62,1746870822000
NMEA,$PSAMCLK,2365,55404100,8,9743658,20223847,554041000*79,1746870822000
NMEA,$PSAMCLK,2365,55404100,8,9743658,20223847,554041000*79,1746870822000
NMEA,$GPGGA,095344.000,,,,,0,,,,,,,,*77,1746870823000
NMEA,$PSAMSA,,,,,,0,,,,,,,,*2D,1746870823000
NMEA,$GPGLL,4503.5967,N,00741.8346,E,095344.000,V,N*4A,1746870823000
NMEA,$GPVTG,334.8,T,,M,0.8,N,1.5,K,N*02,1746870823000
NMEA,$GPGSV,2,1,07,10,20,161,34,16,68,287,38,18,56,054,38,26,65,197,36*7D,1746870823000
NMEA,$GPGSV,2,2,07,27,40,289,34,29,13,088,32,31,12,208,21*4B,1746870823000
NMEA,$GLGSV,1,1,02,70,11,314,33,73,55,203,34*64,1746870823000
NMEA,$BDGSV,2,1,07,208,30,038,28,213,39,054,36,220,18,075,34,224,31,305,37*62,1746870823000
NMEA,$BDGSV,2,2,07,226,50,238,33,229,34,066,38,235,77,302,40*61,1746870823000
NMEA,$GPRMC,095344.000,V,,,,,,,100525,,,N*41,1746870823000
NMEA,$PSAMCLK,2365,55404200,3,9743614,20285694,554042000*76,1746870823000
NMEA,$PSAMCLK,2365,55404200,3,9743614,20285694,554042000*76,1746870823000
NMEA,$GPGGA,095345.000,4503.5968,N,00741.8348,E,1,07,1.0,282.4,M,48.2,M,,*53,1746870824000
NMEA,$PSAMSA,095345.000,4503.5968,N,00741.8348,E,0,M,,*62,1746870824000
NMEA,$GPGLL,4503.5968,N,00741.8348,E,095345.000,A,A*52,1746870824000
NMEA,$GPVTG,335.4,T,,M,0.5,N,0.9,K,A*00,1746870824000
NMEA,$GPGSV,2,1,07,10,20,161,33,16,68,287,37,18,56,054,37,26,65,197,35*79,1746870824000
NMEA,$GPGSV,2,2,07,27,40,289,33,29,13,088,31,31,12,208,21*4F,1746870824000
NMEA,$GLGSV,1,1,02,70,11,314,32,73,55,203,33*62,1746870824000
NMEA,$BDGSV,2,1,07,208,30,038,26,213,39,054,34,220,18,075,32,224,31,305,36*69,1746870824000
NMEA,$BDGSV,2,2,07,226,50,238,32,229,34,066,37,235,77,302,39*61,1746870824000
NMEA,$GPGSA,A,3,16,27,31,,,,,,,,,,2.0,1.0,1.6*36,1746870824000
NMEA,$GNGSA,A,3,73,,,,,,,,,,,,2.0,1.0,1.6*2C,1746870824000
NMEA,$BDGSA,A,3,224,226,229,,,,,,,,,,2.0,1.0,1.6*1C,1746870824000
NMEA,$GPRMC,095345.000,A,4503.5968,N,00741.8348,E,0.5,335.4,100525,,,A*62,1746870824000
NMEA,$PSAMCLK,2365,55404300,7,9743539,20347541,554043000*7A,1746870824000
NMEA,$PSAMCLK,2365,55404300,7,9743539,20347541,554043000*7A,1746870824000
NMEA,$GPGGA,095346.000,4503.5969,N,00741.8349,E,1,10,1.0,282.4,M,48.2,M,,*56,1746870825000
NMEA,$PSAMSA,095346.000,4503.5969,N,00741.8349,E,1,M,,*60,1746870825000
NMEA,$GPGLL,4503.5969,N,00741.8349,E,095346.000,A,A*51,1746870825000
NMEA,$GPVTG,335.4,T,,M,0.4,N,0.8,K,A*00,1746870825000
NMEA,$GPGSV,2,1,07,10,20,161,31,16,68,286,37,18,56,053,36,26,65,197,34*7D,1746870825000
NMEA,$GPGSV,2,2,07,27,40,289,33,29,13,088,29,31,11,208,21*45,1746870825000
NMEA,$GLGSV,1,1,02,70,11,314,31,73,55,203,32*60,1746870825000
NMEA,$BDGSV,2,1,07,208,30,038,26,213,39,054,33,220,18,075,31,224,31,305,36*6D,1746870825000
NMEA,$BDGSV,2,2,07,226,50,238,31,229,34,066,36,235,77,302,38*62,1746870825000
NMEA,$GPGSA,A,3,16,18,27,31,,,,,,,,,1.6,1.0,1.4*38,1746870825000
NMEA,$GNGSA,A,3,73,,,,,,,,,,,,1.6,1.0,1.4*2B,1746870825000
NMEA,$BDGSA,A,3,208,224,226,229,235,,,,,,,,1.6,1.0,1.4*15,1746870825000
NMEA,$GPRMC,095346.000,A,4503.5969,N,00741.8349,E,0.4,335.4,100525,,,A*60,1746870825000
NMEA,$PSAMCLK,2365,55404400,10,9743570,20409389,554044000*4E,1746870825000
NMEA,$PSAMCLK,2365,55404400,10,9743570,20409389,554044000*4E,1746870825000
NMEA,$GPGGA,095347.000,4503.5969,N,00741.8350,E,1,10,1.0,282.4,M,48.2,M,,*5F,1746870826000
NMEA,$PSAMSA,095347.000,4503.5969,N,00741.8350,E,1,M,,*69,1746870826000
NMEA,$GPGLL,4503.5969,N,00741.8350,E,095347.000,A,A*58,1746870826000
NMEA,$GPVTG,335.4,T,,M,0.0,N,0.0,K,A*0C,1746870826000
NMEA,$GPGSV,2,1,07,10,20,161,30,16,68,286,36,18,56,053,35,26,65,197,34*7E,1746870826000
NMEA,$GPGSV,2,2,07,27,40,289,34,29,13,088,28,31,11,208,21*43,1746870826000
NMEA,$GLGSV,1,1,02,70,11,314,31,73,55,203,32*60,1746870826000
NMEA,$BDGSV,2,1,07,208,30,038,25,213,39,054,32,220,18,075,30,224,31,305,36*6E,1746870826000
NMEA,$BDGSV,2,2,07,226,50,238,33,229,34,066,35,235,77,302,38*63,1746870826000
NMEA,$GPGSA,A,3,16,18,27,31,,,,,,,,,1.6,1.0,1.4*38,1746870826000
NMEA,$GNGSA,A,3,73,,,,,,,,,,,,1.6,1.0,1.4*2B,1746870826000
NMEA,$BDGSA,A,3,208,224,226,229,235,,,,,,,,1.6,1.0,1.4*15,1746870826000
NMEA,$GPRMC,095347.000,A,4503.5969,N,00741.8350,E,0.0,335.4,100525,,,A*6D,1746870826000
NMEA,$PSAMCLK,2365,55404500,10,9743636,20471237,554045000*44,1746870826000
NMEA,$PSAMCLK,2365,55404500,10,9743636,20471237,554045000*44,1746870826000
NMEA,$GPGGA,095348.000,4503.5969,N,00741.8350,E,1,10,1.0,282.4,M,48.2,M,,*50,1746870827000
NMEA,$PSAMSA,095348.000,4503.5969,N,00741.8350,E,0,M,,*67,1746870827000
NMEA,$GPGLL,4503.5969,N,00741.8350,E,095348.000,A,A*57,1746870827000
NMEA,$GPVTG,335.2,T,,M,0.0,N,0.0,K,A*0A,1746870827000
NMEA,$GPGSV,2,1,07,10,20,161,29,16,68,286,36,18,56,053,34,26,65,197,33*70,1746870827000
NMEA,$GPGSV,2,2,07,27,40,289,34,29,13,088,26,31,11,208,21*4D,1746870827000
NMEA,$GLGSV,1,1,02,70,11,314,30,73,55,203,32*61,1746870827000
NMEA,$BDGSV,2,1,07,208,30,038,25,213,39,054,32,220,18,075,29,224,31,305,35*65,1746870827000
NMEA,$BDGSV,2,2,07,226,50,238,33,229,34,066,34,235,77,302,37*6D,1746870827000
NMEA,$GPGSA,A,3,16,18,27,31,,,,,,,,,1.6,1.0,1.4*38,1746870827000
NMEA,$GNGSA,A,3,73,,,,,,,,,,,,1.6,1.0,1.4*2B,1746870827000
NMEA,$BDGSA,A,3,208,224,226,229,235,,,,,,,,1.6,1.0,1.4*15,1746870827000
NMEA,$GPRMC,095348.000,A,4503.5969,N,00741.8350,E,0.0,335.2,100525,,,A*64,1746870827000
NMEA,$PSAMCLK,2365,55404600,10,9743606,20533088,554046000*46,1746870827000
NMEA,$PSAMCLK,2365,55404600,10,9743606,20533088,554046000*46,1746870827000
NMEA,$GPGGA,095349.000,4503.5969,N,00741.8350,E,1,06,2.4,282.4,M,48.2,M,,*51,1746870828000
NMEA,$PSAMSA,095349.000,4503.5969,N,00741.8350,E,1,M,,*67,1746870828000
NMEA,$GPGLL,4503.5969,N,00741.8350,E,095349.000,A,A*56,1746870828000
NMEA,$GPVTG,335.1,T,,M,0.0,N,0.0,K,A*09,1746870828000
NMEA,$GPGSV,2,1,07,10,20,161,28,16,68,286,35,18,56,053,33,26,65,197,33*75,1746870828000
NMEA,$GPGSV,2,2,07,27,40,289,33,29,13,088,25,31,11,208,20*48,1746870828000
NMEA,$GLGSV,1,1,02,70,11,314,29,73,55,203,31*6A,1746870828000
NMEA,$BDGSV,2,1,07,208,30,038,24,213,39,054,31,220,18,075,28,224,31,305,34*67,1746870828000
NMEA,$BDGSV,2,2,07,226,50,238,32,229,34,066,33,235,77,302,36*6A,1746870828000
NMEA,$GPGSA,A,3,18,31,,,,,,,,,,,3.0,2.4,1.8*35,1746870828000
NMEA,$GNGSA,A,3,73,,,,,,,,,,,,3.0,2.4,1.8*24,1746870828000
NMEA,$BDGSA,A,3,208,226,229,,,,,,,,,,3.0,2.4,1.8*1A,1746870828000
NMEA,$GPRMC,095349.000,A,4503.5969,N,00741.8350,E,0.0,335.1,100525,,,A*66,1746870828000
NMEA,$PSAMCLK,2365,55404700,6,9743595,20594936,554047000*79,1746870828000
NMEA,$PSAMCLK,2365,55404700,6,9743595,20594936,554047000*79,1746870828000
NMEA,$GPGGA,095350.000,,,,,0,,,,,,,,*72,1746870829000
NMEA,$PSAMSA,,,,,,0,,,,,,,,*2D,1746870829000
NMEA,$GPGLL,4503.5969,N,00741.8350,E,095350.000,V,N*46,1746870829000
NMEA,$GPVTG,335.1,T,,M,0.0,N,0.0,K,N*06,1746870829000
NMEA,$GPGSV,2,1,07,10,20,161,27,16,68,286,33,18,56,053,32,26,65,197,32*7C,1746870829000
NMEA,$GPGSV,2,2,07,27,40,289,31,29,13,088,23,31,11,208,20*4C,1746870829000
NMEA,$GLGSV,1,1,02,70,11,314,29,73,55,203,30*6B,1746870829000
NMEA,$BDGSV,2,1,07,208,30,038,24,213,39,054,30,220,18,075,27,224,31,305,33*6E,1746870829000
NMEA,$BDGSV,2,2,07,226,50,238,32,229,34,066,32,235,77,302,35*68,1746870829000
NMEA,$GPRMC,095350.000,V,,,,,,,100525,,,N*44,1746870829000
NMEA,$PSAMCLK,2365,55404800,3,9743641,20656782,554048000*7A,1746870829000
NMEA,$PSAMCLK,2365,55404800,3,9743641,20656782,554048000*7A,1746870829000
NMEA,$GPGGA,095351.000,,,,,0,,,,,,,,*73,1746870830000
NMEA,$PSAMSA,,,,,,0,,,,,,,,*2D,1746870830000
NMEA,$GPGLL,4503.5969,N,00741.8350,E,095351.000,V,N*47,1746870830000
NMEA,$GPVTG,335.1,T,,M,0.0,N,0.0,K,N*06,1746870830000
NMEA,$GPGSV,2,1,07,10,20,161,27,16,68,286,32,18,56,053,32,26,65,197,31*7E,1746870830000
NMEA,$GPGSV,2,2,07,27,40,289,30,29,13,088,22,31,11,208,19*46,1746870830000
NMEA,$GLGSV,1,1,02,70,11,314,28,73,55,203,29*62,1746870830000
NMEA,$BDGSV,2,1,07,208,30,038,24,213,39,054,29,220,18,075,27,224,31,305,31*64,1746870830000
NMEA,$BDGSV,2,2,07,226,50,238,30,229,34,066,32,235,77,302,33*6C,1746870830000
NMEA,$GPRMC,095351.000,V,,,,,,,100525,,,N*45,1746870830000
NMEA,$PSAMCLK,2365,55404900,3,9743649,20718629,554049000*79,1746870830000
NMEA,$PSAMCLK,2365,55404900,3,9743649,20718629,554049000*79,1746870830000
NMEA,$GPGGA,095352.000,,,,,0,,,,,,,,*70,1746870831000
NMEA,$PSAMSA,,,,,,1,,,,,,,,*2C,1746870831000
NMEA,$GPGLL,4503.5970,N,00741.8367,E,095352.000,V,N*48,1746870831000
NMEA,$GPVTG,335.1,T,,M,1.1,N,2.1,K,N*05,1746870831000
NMEA,$GPGSV,2,1,07,10,20,161,26,16,68,286,31,18,56,053,31,26,65,197,30*7E,1746870831000
NMEA,$GPGSV,2,2,07,27,40,289,28,29,13,088,20,31,11,208,17*43,1746870831000
NMEA,$GLGSV,1,1,02,70,11,314,27,73,55,203,27*63,1746870831000
NMEA,$BDGSV,2,1,07,208,30,038,23,213,39,054,28,220,18,075,26,224,31,305,30*62,1746870831000
NMEA,$BDGSV,2,2,07,226,50,238,29,229,34,066,31,235,77,302,32*66,1746870831000
NMEA,$GPRMC,095352.000,V,,,,,,,100525,,,N*46,1746870831000
NMEA,$PSAMCLK,2365,55405000,3,9743650,20780477,554050000*79,1746870831000
NMEA,$PSAMCLK,2365,55405000,3,9743650,20780477,554050000*79,1746870831000
NMEA,$GPGGA,095353.000,,,,,0,,,,,,,,*71,1746870832000
NMEA,$PSAMSA,,,,,,1,,,,,,,,*2C,1746870832000
NMEA,$GPGLL,4503.5971,N,00741.8369,E,095353.000,V,N*46,1746870832000
NMEA,$GPVTG,335.1,T,,M,1.5,N,2.7,K,N*07,1746870832000
NMEA,$GPGSV,2,1,07,10,20,161,25,16,68,286,29,18,56,053,30,26,65,197,28*7C,1746870832000
NMEA,$GPGSV,2,2,07,27,40,289,27,29,13,088,19,31,11,208,16*47,1746870832000
NMEA,$GLGSV,1,1,02,70,11,314,27,73,55,203,26*62,1746870832000
NMEA,$BDGSV,2,1,07,208,30,038,23,213,39,054,28,220,18,075,25,224,31,305,29*69,1746870832000
NMEA,$BDGSV,2,2,07,226,50,238,27,229,34,066,30,235,77,302,30*6B,1746870832000
NMEA,$GPRMC,095353.000,V,,,,,,,100525,,,N*47,1746870832000
NMEA,$PSAMCLK,2365,55405100,3,9743650,20842325,554051000*78,1746870832000
NMEA,$PSAMCLK,2365,55405100,3,9743650,20842325,554051000*78,1746870832000
NMEA,$GPGGA,095354.000,,,,,0,,,,,,,,*76,1746870833000
NMEA,$PSAMSA,,,,,,1,,,,,,,,*2C,1746870833000
NMEA,$GPGLL,4503.5971,N,00741.8376,E,095354.000,V,N*4F,1746870833000
NMEA,$GPVTG,335.1,T,,M,2.3,N,4.2,K,N*01,1746870833000
NMEA,$GPGSV,2,1,07,10,20,161,24,16,68,286,28,18,56,053,29,26,65,197,27*7B,1746870833000
NMEA,$GPGSV,2,2,07,27,40,289,25,29,13,088,17,31,11,208,14*49,1746870833000
NMEA,$GLGSV,1,1,02,70,11,314,26,73,55,203,24*61,1746870833000
NMEA,$BDGSV,2,1,07,208,30,038,23,213,39,054,27,220,18,075,25,224,31,305,27*68,1746870833000
NMEA,$BDGSV,2,2,07,226,50,238,26,229,34,066,29,235,77,302,29*6A,1746870833000
NMEA,$GPRMC,095354.000,V,,,,,,,100525,,,N*40,1746870833000
NMEA,$PSAMCLK,2365,55405200,4,9743651,20904173,554052000*7C,1746870833000
NMEA,$PSAMCLK,2365,55405200,4,9743651,20904173,554052000*7C,1746870833000
NMEA,$GPGGA,095355.000,,,,,0,,,,,,,,*77,1746870834000
NMEA,$PSAMSA,,,,,,0,,,,,,,,*2D,1746870834000
NMEA,$GPGLL,4503.5978,N,00741.8404,E,095355.000,V,N*45,1746870834000
NMEA,$GPVTG,335.1,T,,M,2.1,N,3.8,K,N*0E,1746870834000
NMEA,$GPGSV,2,1,07,10,20,161,24,16,68,286,27,18,56,053,29,26,65,197,26*75,1746870834000
NMEA,$GPGSV,2,2,07,27,40,289,24,29,13,088,16,31,11,208,13*4E,1746870834000
NMEA,$GLGSV,1,1,02,70,11,314,26,73,55,203,23*66,1746870834000
NMEA,$BDGSV,2,1,07,208,30,038,23,213,39,054,26,220,18,075,24,224,31,305,26*69,1746870834000
NMEA,$BDGSV,2,2,07,226,50,238,24,229,34,066,29,235,77,302,27*66,1746870834000
NMEA,$GPRMC,095355.000,V,,,,,,,100525,,,N*41,1746870834000
NMEA,$PSAMCLK,2365,55405300,4,9743700,20966019,554053000*70,1746870834000
NMEA,$PSAMCLK,2365,55405300,4,9743700,20966019,554053000*70,1746870834000
NMEA,$GPGGA,095356.000,,,,,0,,,,,,,,*74,1746870835000
NMEA,$PSAMSA,,,,,,0,,,,,,,,*2D,1746870835000
NMEA,$GPGLL,4503.6048,N,00741.8369,E,095356.000,V,N*43,1746870835000
NMEA,$GPVTG,333.6,T,,M,8.6,N,15.9,K,N*34,1746870835000
NMEA,$GPGSV,2,1,07,10,20,161,22,16,68,286,26,18,56,053,28,26,65,197,25*70,1746870835000
NMEA,$GPGSV,2,2,07,27,40,289,22,29,13,088,14,31,11,208,13*4A,1746870835000
NMEA,$GLGSV,1,1,02,70,11,314,25,73,55,203,21*67,1746870835000
NMEA,$BDGSV,2,1,07,208,30,038,22,213,39,054,26,220,18,075,24,224,31,305,24*6A,1746870835000
NMEA,$BDGSV,2,2,07,226,50,238,23,229,34,066,28,235,77,302,26*61,1746870835000
NMEA,$GPRMC,095356.000,V,,,,,,,100525,,,N*42,1746870835000
NMEA,$PSAMCLK,2365,55405400,5,9743506,21027864,554054000*7A,1746870835000
NMEA,$PSAMCLK,2365,55405400,5,9743506,21027864,554054000*7A,1746870835000
NMEA,$GPGGA,095357.000,,,,,0,,,,,,,,*75,1746870837000
NMEA,$PSAMSA,,,,,,0,,,,,,,,*2D,1746870837000
NMEA,$GPGLL,4503.6129,N,00741.8359,E,095357.000,V,N*47,1746870837000
NMEA,$GPVTG,333.2,T,,M,12.3,N,22.9,K,N*0A,1746870837000
NMEA,$GPGSV,2,1,07,10,20,161,21,16,68,286,25,18,56,053,28,26,65,197,24*71,1746870837000
NMEA,$GPGSV,2,2,07,27,40,289,21,29,13,088,14,31,11,208,12*48,1746870837000
NMEA,$GLGSV,1,1,02,70,11,314,25,73,55,203,20*66,1746870837000
NMEA,$BDGSV,2,1,07,208,30,038,22,213,39,054,25,220,18,075,23,224,31,305,23*69,1746870837000
NMEA,$BDGSV,2,2,07,226,50,238,21,229,34,066,27,235,77,302,24*6E,1746870837000
NMEA,$GPRMC,095357.000,V,,,,,,,100525,,,N*43,1746870837000
NMEA,$PSAMCLK,2365,55405500,4,9743534,21089711,554055000*73,1746870837000
NMEA,$PSAMCLK,2365,55405500,4,9743534,21089711,554055000*73,1746870837000
NMEA,$GPGGA,095358.000,,,,,0,,,,,,,,*7A,1746870838000
NMEA,$PSAMSA,,,,,,0,,,,,,,,*2D,1746870838000
NMEA,$GPGLL,4503.6205,N,00741.8320,E,095358.000,V,N*4B,1746870838000
NMEA,$GPVTG,328.7,T,,M,17.2,N,31.8,K,N*02,1746870838000
NMEA,$GPGSV,2,1,06,10,20,161,19,16,68,286,25,18,56,053,27,26,65,197,23*73,1746870838000
NMEA,$GPGSV,2,2,06,27,40,289,19,29,13,088,13*7E,1746870838000
NMEA,$GLGSV,1,1,02,70,11,314,24,73,55,203,18*6C,1746870838000
NMEA,$BDGSV,2,1,07,208,30,038,22,213,39,054,24,220,18,075,23,224,31,305,21*6A,1746870838000
NMEA,$BDGSV,2,2,07,226,50,238,20,229,34,066,27,235,77,302,23*68,1746870838000
NMEA,$GPRMC,095358.000,V,,,,,,,100525,,,N*4C,1746870838000
NMEA,$PSAMCLK,2365,55405600,4,9743404,21151556,554056000*74,1746870838000
NMEA,$PSAMCLK,2365,55405600,4,9743404,21151556,554056000*74,1746870838000
NMEA,$GPGGA,095359.000,,,,,0,,,,,,,,*7B,1746870839000
NMEA,$PSAMSA,,,,,,0,,,,,,,,*2D,1746870839000
NMEA,$GPGLL,4503.6295,N,00741.8280,E,095359.000,V,N*48,1746870839000
NMEA,$GPVTG,328.2,T,,M,24.2,N,44.9,K,N*04,1746870839000
NMEA,$GPGSV,2,1,06,10,20,161,18,16,68,286,24,18,56,053,26,26,65,197,22*73,1746870839000
NMEA,$GPGSV,2,2,06,27,40,289,18,29,13,088,12*7E,1746870839000
NMEA,$GLGSV,1,1,02,70,11,314,24,73,55,203,17*63,1746870839000
NMEA,$BDGSV,2,1,07,208,30,038,21,213,39,054,23,220,18,075,22,224,31,305,20*6E,1746870839000
NMEA,$BDGSV,2,2,07,226,50,238,18,229,34,066,26,235,77,302,21*60,1746870839000
NMEA,$GPRMC,095359.000,V,,,,,,,100525,,,N*4D,1746870839000
NMEA,$PSAMCLK,2365,55405700,4,9743415,21213403,554057000*70,1746870839000
NMEA,$PSAMCLK,2365,55405700,4,9743415,21213403,554057000*70,1746870839000
NMEA,$GPGGA,095400.000,,,,,0,,,,,,,,*70,1746870840000
NMEA,$PSAMSA,,,,,,0,,,,,,,,*2D,1746870840000
NMEA,$GPGLL,4503.6353,N,00741.8232,E,095400.000,V,N*41,1746870840000
NMEA,$GPVTG,327.7,T,,M,24.2,N,44.9,K,N*0E,1746870840000
NMEA,$GPGSV,2,1,05,10,20,161,16,16,68,286,23,18,56,053,26,26,65,197,20*7B,1746870840000
NMEA,$GPGSV,2,2,05,27,40,289,16*49,1746870840000
NMEA,$GLGSV,1,1,02,70,11,314,23,73,55,203,15*66,1746870840000
NMEA,$BDGSV,2,1,07,208,30,038,21,213,39,054,21,220,18,075,21,224,31,305,18*64,1746870840000
NMEA,$BDGSV,2,2,07,226,50,238,17,229,34,066,25,235,77,302,20*6D,1746870840000
NMEA,$GPRMC,095400.000,V,,,,,,,100525,,,N*46,1746870840000
NMEA,$PSAMCLK,2365,55405800,0,9743343,21275250,554058000*70,1746870840000
NMEA,$PSAMCLK,2365,55405800,0,9743343,21275250,554058000*70,1746870840000
NMEA,$GPGGA,095401.000,,,,,0,,,,,,,,*71,1746870841000
NMEA,$PSAMSA,,,,,,0,,,,,,,,*2D,1746870841000
NMEA,$GPGLL,4503.6411,N,00741.8183,E,095401.000,V,N*48,1746870841000
NMEA,$GPVTG,327.2,T,,M,24.2,N,44.9,K,N*0B,1746870841000
NMEA,$GPGSV,2,1,05,10,20,161,15,16,68,286,23,18,56,053,25,26,65,197,19*71,1746870841000
NMEA,$GPGSV,2,2,05,27,40,289,15*4A,1746870841000
NMEA,$GLGSV,1,1,02,70,11,314,22,73,55,203,14*66,1746870841000
NMEA,$BDGSV,2,1,07,208,30,038,20,213,39,054,20,220,18,075,19,224,31,305,17*60,1746870841000
NMEA,$BDGSV,2,2,07,226,50,238,15,229,34,066,23,235,77,302,18*62,1746870841000
NMEA,$GPRMC,095401.000,V,,,,,,,100525,,,N*47,1746870841000
NMEA,$PSAMCLK,2365,55405900,0,9743343,21337096,554059000*7F,1746870841000
NMEA,$PSAMCLK,2365,55405900,0,9743343,21337096,554059000*7F,1746870841000
NMEA,$GPGGA,095402.000,,,,,0,,,,,,,,*72,1746870842000
NMEA,$PSAMSA,,,,,,0,,,,,,,,*2D,1746870842000
NMEA,$GPGLL,4503.6469,N,00741.8135,E,095402.000,V,N*49,1746870842000
NMEA,$GPVTG,326.7,T,,M,24.2,N,44.9,K,N*0F,1746870842000
NMEA,$GPGSV,2,1,05,10,20,161,14,16,68,286,22,18,56,053,25,26,65,197,17*7F,1746870842000
NMEA,$GPGSV,2,2,05,27,40,289,14*4B,1746870842000
NMEA,$GLGSV,1,1,02,70,11,314,20,73,55,203,13*63,1746870842000
NMEA,$BDGSV,2,1,07,208,30,038,18,213,39,054,18,220,18,075,18,224,31,305,15*63,1746870842000
NMEA,$BDGSV,2,2,07,226,50,238,14,229,34,066,22,235,77,302,17*6D,1746870842000
NMEA,$GPRMC,095402.000,V,,,,,,,100525,,,N*44,1746870842000
NMEA,$PSAMCLK,2365,55406000,0,9743343,21398942,554060000*7A,1746870842000
NMEA,$PSAMCLK,2365,55406000,0,9743343,21398942,554060000*7A,1746870842000
NMEA,$GPGGA,095403.000,,,,,0,,,,,,,,*73,1746870842000
NMEA,$PSAMSA,,,,,,0,,,,,,,,*2D,1746870842000
NMEA,$GPGLL,4503.6527,N,00741.8086,E,095403.000,V,N*4A,1746870842000
NMEA,$GPVTG,326.1,T,,M,24.2,N,44.9,K,N*09,1746870842000
NMEA,$GPGSV,2,1,05,10,20,161,13,16,68,286,22,18,56,053,25,26,65,197,16*79,1746870842000
NMEA,$GPGSV,2,2,05,27,40,289,13*4C,1746870842000
NMEA,$GLGSV,1,1,02,70,11,314,19,73,55,203,12*68,1746870842000
NMEA,$BDGSV,2,1,07,208,30,038,17,213,39,054,17,220,18,075,16,224,31,305,14*6C,1746870842000
NMEA,$BDGSV,2,2,07,226,50,238,13,229,34,066,20,235,77,302,15*6A,1746870842000
NMEA,$GPRMC,095403.000,V,,,,,,,100525,,,N*45,1746870842000
NMEA,$PSAMCLK,2365,55406100,0,9743343,21460788,554061000*72,1746870842000
NMEA,$PSAMCLK,2365,55406100,0,9743343,21460788,554061000*72,1746870842000
NMEA,$GPGGA,095404.000,,,,,0,,,,,,,,*74,1746870843000
NMEA,$PSAMSA,,,,,,0,,,,,,,,*2D,1746870843000
NMEA,$GPGLL,4503.6584,N,00741.8038,E,095404.000,V,N*41,1746870843000
NMEA,$GPVTG,325.6,T,,M,0.0,N,0.0,K,N*00,1746870843000
NMEA,$GPGSV,2,1,05,10,20,161,12,16,68,286,21,18,56,053,24,26,65,197,14*78,1746870843000
NMEA,$GPGSV,2,2,05,27,40,289,13*4C,1746870843000
NMEA,$GLGSV,1,1,01,70,11,314,17*53,1746870843000
NMEA,$BDGSV,2,1,07,208,30,038,15,213,39,054,15,220,18,075,15,224,31,305,13*68,1746870843000
NMEA,$BDGSV,2,2,07,226,50,238,13,229,34,066,19,235,77,302,14*61,1746870843000
NMEA,$GPRMC,095404.000,V,,,,,,,100525,,,N*42,1746870843000
NMEA,$PSAMCLK,2365,55406200,0,9743343,21522634,554062000*73,1746870843000
NMEA,$PSAMCLK,2365,55406200,0,9743343,21522634,554062000*73,1746870843000
NMEA,$GPGGA,095405.000,,,,,0,,,,,,,,*75,1746870844000
NMEA,$PSAMSA,,,,,,0,,,,,,,,*2D,1746870844000
NMEA,$GPGLL,4503.6642,N,00741.7989,E,095405.000,V,N*45,1746870844000
NMEA,$GPVTG,325.1,T,,M,0.0,N,0.0,K,N*07,1746870844000
NMEA,$GPGSV,1,1,04,16,68,286,20,18,56,053,24,26,65,197,14,27,40,289,12*7C,1746870844000
NMEA,$GLGSV,1,1,01,70,11,314,16*52,1746870844000
NMEA,$BDGSV,2,1,06,208,30,038,14,213,39,054,14,220,18,075,14,224,31,305,12*69,1746870844000
NMEA,$BDGSV,2,2,06,229,34,066,17,235,77,302,13*61,1746870844000
NMEA,$GPRMC,095405.000,V,,,,,,,100525,,,N*43,1746870844000
NMEA,$PSAMCLK,2365,55406300,0,9743343,21584480,554063000*72,1746870844000
NMEA,$PSAMCLK,2365,55406300,0,9743343,21584480,554063000*72,1746870844000
NMEA,$GPGGA,095406.000,,,,,0,,,,,,,,*76,1746870845000
NMEA,$PSAMSA,,,,,,0,,,,,,,,*2D,1746870845000
NMEA,$GPGLL,4503.6700,N,00741.7941,E,095406.000,V,N*45,1746870845000
NMEA,$GPVTG,324.5,T,,M,0.0,N,0.0,K,N*02,1746870845000
NMEA,$GPGSV,1,1,03,16,68,286,18,18,56,053,22,26,65,197,13*40,1746870845000
NMEA,$GLGSV,1,1,01,70,11,314,14*50,1746870845000
NMEA,$BDGSV,2,1,05,208,30,038,13,213,39,054,13,220,18,075,13,229,34,066,16*67,1746870845000
NMEA,$BDGSV,2,2,05,235,77,302,12*6B,1746870845000
NMEA,$GPRMC,095406.000,V,,,,,,,100525,,,N*40,1746870845000
NMEA,$PSAMCLK,2365,55406400,0,9743343,21646326,554064000*74,1746870845000
NMEA,$PSAMCLK,2365,55406400,0,9743343,21646326,554064000*74,1746870845000
NMEA,$GPGGA,095407.000,,,,,0,,,,,,,,*77,1746870847000
NMEA,$PSAMSA,,,,,,0,,,,,,,,*2D,1746870847000
NMEA,$GPGLL,4503.6758,N,00741.7892,E,095407.000,V,N*46,1746870847000
NMEA,$GPVTG,324.0,T,,M,0.0,N,0.0,K,N*07,1746870847000
NMEA,$GPGSV,1,1,03,16,68,286,17,18,56,053,21,26,65,197,12*4D,1746870847000
NMEA,$GLGSV,1,1,01,70,11,314,13*57,1746870847000
NMEA,$BDGSV,1,1,04,208,30,038,12,213,39,054,13,220,18,075,13,229,34,066,14*66,1746870847000
NMEA,$GPRMC,095407.000,V,,,,,,,100525,,,N*41,1746870847000
NMEA,$PSAMCLK,2365,55406500,0,9743343,21708172,554065000*7C,1746870847000
NMEA,$PSAMCLK,2365,55406500,0,9743343,21708172,554065000*7C,1746870847000
NMEA,$GPGGA,095408.000,,,,,0,,,,,,,,*78,1746870848000
NMEA,$PSAMSA,,,,,,0,,,,,,,,*2D,1746870848000
NMEA,$GPGLL,4503.6816,N,00741.7844,E,095408.000,V,N*47,1746870848000
NMEA,$GPVTG,323.5,T,,M,0.0,N,0.0,K,N*05,1746870848000
NMEA,$GPGSV,1,1,02,16,68,286,15,18,56,053,19*7E,1746870848000
NMEA,$GLGSV,1,1,01,70,11,314,13*57,1746870848000
NMEA,$BDGSV,1,1,01,229,34,066,13*65,1746870848000
NMEA,$GPRMC,095408.000,V,,,,,,,100525,,,N*4E,1746870848000
NMEA,$PSAMCLK,2365,55406600,0,9743343,21770018,554066000*7E,1746870848000
NMEA,$PSAMCLK,2365,55406600,0,9743343,21770018,554066000*7E,1746870848000
NMEA,$GPGGA,095409.000,,,,,0,,,,,,,,*79,1746870849000
NMEA,$PSAMSA,,,,,,0,,,,,,,,*2D,1746870849000
NMEA,$GPGLL,4503.6874,N,00741.7795,E,095409.000,V,N*41,1746870849000
NMEA,$GPVTG,322.9,T,,M,0.0,N,0.0,K,N*08,1746870849000
NMEA,$GPGSV,1,1,02,16,68,286,14,18,56,053,18*7E,1746870849000
NMEA,$GLGSV,1,1,01,70,11,314,12*56,1746870849000
NMEA,$BDGSV,1,1,01,229,34,066,13*65,1746870849000
NMEA,$GPRMC,095409.000,V,,,,,,,100525,,,N*4F,1746870849000
NMEA,$PSAMCLK,2365,55406700,0,9743343,21831864,554067000*77,1746870849000
NMEA,$PSAMCLK,2365,55406700,0,9743343,21831864,554067000*77,1746870849000
NMEA,$GPGGA,095410.000,,,,,0,,,,,,,,*71,1746870850000
NMEA,$PSAMSA,,,,,,0,,,,,,,,*2D,1746870850000
NMEA,$GPGLL,4503.6931,N,00741.7747,E,095410.000,V,N*46,1746870850000
NMEA,$GPVTG,322.4,T,,M,0.0,N,0.0,K,N*05,1746870850000
NMEA,$GPGSV,1,1,02,16,68,286,14,18,56,053,16*70,1746870850000
NMEA,$BDGSV,1,1,01,229,34,066,12*64,1746870850000
NMEA,$GPRMC,095410.000,V,,,,,,,100525,,,N*47,1746870850000
NMEA,$PSAMCLK,2365,55406800,0,9743343,21893710,554068000*73,1746870850000
NMEA,$PSAMCLK,2365,55406800,0,9743343,21893710,554068000*73,1746870850000
NMEA,$GPGGA,095411.000,,,,,0,,,,,,,,*70,1746870850000
NMEA,$PSAMSA,,,,,,0,,,,,,,,*2D,1746870850000
NMEA,$GPGLL,4503.6989,N,00741.7698,E,095411.000,V,N*47,1746870850000
NMEA,$GPVTG,321.9,T,,M,0.0,N,0.0,K,N*0B,1746870850000
NMEA,$GPGSV,1,1,02,16,68,286,13,18,56,053,15*74,1746870850000
NMEA,$GPRMC,095411.000,V,,,,,,,100525,,,N*46,1746870850000
NMEA,$PSAMCLK,2365,55406900,0,9743343,21955556,554069000*78,1746870850000
NMEA,$PSAMCLK,2365,55406900,0,9743343,21955556,554069000*78,1746870850000
NMEA,$GPGGA,095412.000,,,,,0,,,,,,,,*73,1746870851000
NMEA,$PSAMSA,,,,,,0,,,,,,,,*2D,1746870851000
NMEA,$GPGLL,4503.7047,N,00741.7650,E,095412.000,V,N*4A,1746870851000
NMEA,$GPVTG,321.4,T,,M,0.0,N,0.0,K,N*06,1746870851000
NMEA,$GPGSV,1,1,02,16,68,286,12,18,56,053,14*74,1746870851000
NMEA,$GPRMC,095412.000,V,,,,,,,100525,,,N*45,1746870851000
NMEA,$PSAMCLK,2365,55407000,0,9743343,22017402,554070000*74,1746870851000
NMEA,$PSAMCLK,2365,55407000,0,9743343,22017402,554070000*74,1746870851000
NMEA,$GPGGA,095413.000,,,,,0,,,,,,,,*72,1746870852000
NMEA,$PSAMSA,,,,,,0,,,,,,,,*2D,1746870852000
NMEA,$GPGLL,4503.7105,N,00741.7601,E,095413.000,V,N*48,1746870852000
NMEA,$GPVTG,320.8,T,,M,0.0,N,0.0,K,N*0B,1746870852000
NMEA,$GPGSV,1,1,01,18,56,053,13*46,1746870852000
NMEA,$GPRMC,095413.000,V,,,,,,,100525,,,N*44,1746870852000
NMEA,$PSAMCLK,2365,55407100,0,9743343,22079248,554071000*74,1746870852000
NMEA,$PSAMCLK,2365,55407100,0,9743343,22079248,554071000*74,1746870852000
NMEA,$GPGGA,095414.000,,,,,0,,,,,,,,*75,1746870853000
NMEA,$PSAMSA,,,,,,0,,,,,,,,*2D,1746870853000
NMEA,$GPGLL,4503.7163,N,00741.7553,E,095414.000,V,N*4B,1746870853000
NMEA,$GPVTG,320.3,T,,M,0.0,N,0.0,K,N*00,1746870853000
NMEA,$GPGSV,1,1,01,18,56,053,12*47,1746870853000
NMEA,$GPRMC,095414.000,V,,,,,,,100525,,,N*43,1746870853000
NMEA,$PSAMCLK,2365,55407200,0,9743343,22141094,554072000*7D,1746870853000
NMEA,$PSAMCLK,2365,55407200,0,9743343,22141094,554072000*7D,1746870853000
NMEA,$GPGGA,095415.000,,,,,0,,,,,,,,*74,1746870855000
NMEA,$PSAMSA,,,,,,0,,,,,,,,*2D,1746870855000
NMEA,$GPGLL,4503.7221,N,00741.7504,E,095415.000,V,N*4D,1746870855000
NMEA,$GPVTG,319.8,T,,M,0.0,N,0.0,K,N*01,1746870855000
NMEA,$GPRMC,095415.000,V,,,,,,,100525,,,N*42,1746870855000
NMEA,$PSAMCLK,2365,55407300,0,9743343,22202940,554073000*79,1746870855000
NMEA,$PSAMCLK,2365,55407300,0,9743343,22202940,554073000*79,1746870855000
NMEA,$GPGGA,095416.000,,,,,0,,,,,,,,*77,1746870856000
NMEA,$PSAMSA,,,,,,0,,,,,,,,*2D,1746870856000
NMEA,$GPGLL,4503.7278,N,00741.7456,E,095416.000,V,N*44,1746870856000
NMEA,$GPVTG,319.2,T,,M,0.0,N,0.0,K,N*0B,1746870856000
NMEA,$GPRMC,095416.000,V,,,,,,,100525,,,N*41,1746870856000
NMEA,$PSAMCLK,2365,55407400,0,9743343,22264786,554074000*7D,1746870856000
NMEA,$PSAMCLK,2365,55407400,0,9743343,22264786,554074000*7D,1746870856000
NMEA,$GPGGA,095417.000,,,,,0,,,,,,,,*76,1746870857000
NMEA,$PSAMSA,,,,,,0,,,,,,,,*2D,1746870857000
NMEA,$GPGLL,4503.7336,N,00741.7407,E,095417.000,V,N*4A,1746870857000
NMEA,$GPVTG,318.7,T,,M,0.0,N,0.0,K,N*0F,1746870857000
NMEA,$GPRMC,095417.000,V,,,,,,,100525,,,N*40,1746870857000
NMEA,$PSAMCLK,2365,55407500,0,9743343,22326632,554075000*74,1746870857000
NMEA,$PSAMCLK,2365,55407500,0,9743343,22326632,554075000*74,1746870857000
NMEA,$GPGGA,095418.000,,,,,0,,,,,,,,*79,1746870858000
NMEA,$PSAMSA,,,,,,0,,,,,,,,*2D,1746870858000
NMEA,$GPGLL,4503.7394,N,00741.7359,E,095418.000,V,N*41,1746870858000
NMEA,$GPVTG,318.2,T,,M,0.0,N,0.0,K,N*0A,1746870858000
NMEA,$GPRMC,095418.000,V,,,,,,,100525,,,N*4F,1746870858000
NMEA,$PSAMCLK,2365,55407600,0,9743343,22388478,554076000*7C,1746870858000
NMEA,$PSAMCLK,2365,55407600,0,9743343,22388478,554076000*7C,1746870858000
NMEA,$GPGGA,095419.000,,,,,0,,,,,,,,*78,1746870858000
NMEA,$PSAMSA,,,,,,0,,,,,,,,*2D,1746870858000
NMEA,$GPGLL,4503.7452,N,00741.7310,E,095419.000,V,N*40,1746870858000
NMEA,$GPVTG,317.7,T,,M,0.0,N,0.0,K,N*00,1746870858000
NMEA,$GPRMC,095419.000,V,,,,,,,100525,,,N*4E,1746870858000
NMEA,$PSAMCLK,2365,55407700,0,9743343,22450324,554077000*70,1746870858000
NMEA,$PSAMCLK,2365,55407700,0,9743343,22450324,554077000*70,1746870858000
NMEA,$GPGGA,095420.000,,,,,0,,,,,,,,*72,1746870859000
NMEA,$PSAMSA,,,,,,0,,,,,,,,*2D,1746870859000
NMEA,$GPGLL,4503.7510,N,00741.7261,E,095420.000,V,N*4A,1746870859000
NMEA,$GPVTG,317.1,T,,M,0.0,N,0.0,K,N*06,1746870859000
NMEA,$GPRMC,095420.000,V,,,,,,,100525,,,N*44,1746870859000
NMEA,$PSAMCLK,2365,55407800,0,9743343,22512170,554078000*74,1746870859000
NMEA,$PSAMCLK,2365,55407800,0,9743343,22512170,554078000*74,1746870859000
NMEA,$GPGGA,095421.000,,,,,0,,,,,,,,*73,1746870860000
NMEA,$PSAMSA,,,,,,0,,,,,,,,*2D,1746870860000
NMEA,$GPGLL,4503.7568,N,00741.7213,E,095421.000,V,N*41,1746870860000
NMEA,$GPVTG,316.6,T,,M,0.0,N,0.0,K,N*00,1746870860000
NMEA,$GPRMC,095421.000,V,,,,,,,100525,,,N*45,1746870860000
NMEA,$PSAMCLK,2365,55407900,0,9743343,22574016,554079000*75,1746870860000
NMEA,$PSAMCLK,2365,55407900,0,9743343,22574016,554079000*75,1746870860000
NMEA,$GPGGA,095422.000,,,,,0,,,,,,,,*70,1746870862000
NMEA,$PSAMSA,,,,,,0,,,,,,,,*2D,1746870862000
NMEA,$GPGLL,4503.7625,N,00741.7164,E,095422.000,V,N*4B,1746870862000
NMEA,$GPVTG,316.1,T,,M,0.0,N,0.0,K,N*07,1746870862000
NMEA,$GPRMC,095422.000,V,,,,,,,100525,,,N*46,1746870862000
NMEA,$PSAMCLK,2365,55408000,0,9743343,22635862,554080000*78,1746870862000
NMEA,$PSAMCLK,2365,55408000,0,9743343,22635862,554080000*78,1746870862000
NMEA,$GPGGA,095423.000,,,,,0,,,,,,,,*71,1746870863000
NMEA,$PSAMSA,,,,,,0,,,,,,,,*2D,1746870863000
NMEA,$GPGLL,4503.7683,N,00741.7116,E,095423.000,V,N*43,1746870863000
NMEA,$GPVTG,315.5,T,,M,0.0,N,0.0,K,N*00,1746870863000
NMEA,$GPRMC,095423.000,V,,,,,,,100525,,,N*47,1746870863000
NMEA,$PSAMCLK,2365,55408100,0,9743343,22697708,554081000*73,1746870863000
NMEA,$PSAMCLK,2365,55408100,0,9743343,22697708,554081000*73,1746870863000
NMEA,$GPGGA,095424.000,,,,,0,,,,,,,,*76,1746870863000
NMEA,$PSAMSA,,,,,,0,,,,,,,,*2D,1746870863000
NMEA,$GPGLL,4503.7741,N,00741.7067,E,095424.000,V,N*4C,1746870863000
NMEA,$GPVTG,315.0,T,,M,0.0,N,0.0,K,N*05,1746870863000
NMEA,$GPRMC,095424.000,V,,,,,,,100525,,,N*40,1746870863000
NMEA,$PSAMCLK,2365,55408200,0,9743343,22759554,554082000*7B,1746870863000
NMEA,$PSAMCLK,2365,55408200,0,9743343,22759554,554082000*7B,1746870863000
NMEA,$GPGGA,095425.000,,,,,0,,,,,,,,*77,1746870864000
NMEA,$PSAMSA,,,,,,0,,,,,,,,*2D,1746870864000
NMEA,$GPGLL,4503.7799,N,00741.7019,E,095425.000,V,N*41,1746870864000
NMEA,$GPVTG,314.5,T,,M,0.0,N,0.0,K,N*01,1746870864000
NMEA,$GPRMC,095425.000,V,,,,,,,100525,,,N*41,1746870864000
NMEA,$PSAMCLK,2365,55408300,0,9743343,22821400,554083000*7B,1746870864000
NMEA,$PSAMCLK,2365,55408300,0,9743343,22821400,554083000*7B,1746870864000
NMEA,$GPGGA,095426.000,,,,,0,,,,,,,,*74,1746870865000
NMEA,$PSAMSA,,,,,,0,,,,,,,,*2D,1746870865000
NMEA,$GPGLL,4503.7857,N,00741.6970,E,095426.000,V,N*48,1746870865000
NMEA,$GPVTG,313.9,T,,M,0.0,N,0.0,K,N*0A,1746870865000
NMEA,$GPRMC,095426.000,V,,,,,,,100525,,,N*42,1746870865000
NMEA,$PSAMCLK,2365,55408400,0,9743343,22883246,554084000*77,1746870865000
NMEA,$PSAMCLK,2365,55408400,0,9743343,22883246,554084000*77,1746870865000
NMEA,$GPGGA,095427.000,,,,,0,,,,,,,,*75,1746870866000
NMEA,$PSAMSA,,,,,,0,,,,,,,,*2D,1746870866000
NMEA,$GPGLL,4503.7915,N,00741.6922,E,095427.000,V,N*49,1746870866000
NMEA,$GPVTG,313.4,T,,M,0.0,N,0.0,K,N*07,1746870866000
NMEA,$GPRMC,095427.000,V,,,,,,,100525,,,N*43,1746870866000
NMEA,$PSAMCLK,2365,55408500,0,9743343,22945092,554085000*77,1746870866000
NMEA,$PSAMCLK,2365,55408500,0,9743343,22945092,554085000*77,1746870866000
NMEA,$GPGGA,095428.000,,,,,0,,,,,,,,*7A,1746870867000
NMEA,$PSAMSA,,,,,,0,,,,,,,,*2D,1746870867000
NMEA,$GPGLL,4503.7972,N,00741.6873,E,095428.000,V,N*42,1746870867000
NMEA,$GPVTG,312.9,T,,M,0.0,N,0.0,K,N*0B,1746870867000
NMEA,$GPRMC,095428.000,V,,,,,,,100525,,,N*4C,1746870867000
NMEA,$PSAMCLK,2365,55408600,0,9743343,23006938,554086000*71,1746870867000
NMEA,$PSAMCLK,2365,55408600,0,9743343,23006938,554086000*71,1746870867000
NMEA,$GPGGA,095429.000,,,,,0,,,,,,,,*7B,1746870868000
NMEA,$PSAMSA,,,,,,0,,,,,,,,*2D,1746870868000
NMEA,$GPGLL,4503.8030,N,00741.6825,E,095429.000,V,N*40,1746870868000
NMEA,$GPVTG,312.4,T,,M,0.0,N,0.0,K,N*06,1746870868000
NMEA,$GPRMC,095429.000,V,,,,,,,100525,,,N*4D,1746870868000
NMEA,$PSAMCLK,2365,55408700,0,9743343,23068784,554087000*70,1746870868000
NMEA,$PSAMCLK,2365,55408700,0,9743343,23068784,554087000*70,1746870868000
NMEA,$GPGGA,095430.000,,,,,0,,,,,,,,*73,1746870869000
NMEA,$PSAMSA,,,,,,0,,,,,,,,*2D,1746870869000
NMEA,$GPGLL,4503.8088,N,00741.6776,E,095430.000,V,N*42,1746870869000
NMEA,$GPVTG,311.8,T,,M,0.0,N,0.0,K,N*09,1746870869000
NMEA,$GPRMC,095430.000,V,,,,,,,100525,,,N*45,1746870869000
NMEA,$PSAMCLK,2365,55408800,0,9743343,23130630,554088000*72,1746870869000
NMEA,$PSAMCLK,2365,55408800,0,9743343,23130630,554088000*72,1746870870000
NMEA,$GPGGA,095431.000,,,,,0,,,,,,,,*72,1746870870000
NMEA,$PSAMSA,,,,,,0,,,,,,,,*2D,1746870870000
NMEA,$GPGLL,4503.8146,N,00741.6728,E,095431.000,V,N*4B,1746870870000
NMEA,$GPVTG,311.3,T,,M,0.0,N,0.0,K,N*02,1746870870000
NMEA,$GPRMC,095431.000,V,,,,,,,100525,,,N*44,1746870870000
NMEA,$PSAMCLK,2365,55408900,0,9743343,23192476,554089000*7A,1746870870000
NMEA,$PSAMCLK,2365,55408900,0,9743343,23192476,554089000*7A,1746870870000
NMEA,$GPGGA,095432.000,,,,,0,,,,,,,,*71,1746870872000
NMEA,$PSAMSA,,,,,,0,,,,,,,,*2D,1746870872000
NMEA,$GPGLL,4503.8204,N,00741.6679,E,095432.000,V,N*48,1746870872000
NMEA,$GPVTG,310.8,T,,M,0.0,N,0.0,K,N*08,1746870872000
NMEA,$GPRMC,095432.000,V,,,,,,,100525,,,N*47,1746870872000
NMEA,$PSAMCLK,2365,55409000,0,9743343,23254322,554090000*75,1746870872000
NMEA,$PSAMCLK,2365,55409000,0,9743343,23254322,554090000*75,1746870872000
NMEA,$GPGGA,095433.000,,,,,0,,,,,,,,*70,1746870873000
NMEA,$PSAMSA,,,,,,0,,,,,,,,*2D,1746870873000
NMEA,$GPGLL,4503.8262,N,00741.6631,E,095433.000,V,N*45,1746870873000
NMEA,$GPVTG,310.2,T,,M,0.0,N,0.0,K,N*02,1746870873000
NMEA,$GPRMC,095433.000,V,,,,,,,100525,,,N*46,1746870873000
NMEA,$PSAMCLK,2365,55409100,0,9743343,23316168,554091000*7E,1746870873000
NMEA,$PSAMCLK,2365,55409100,0,9743343,23316168,554091000*7E,1746870873000
NMEA,$GPGGA,095434.000,,,,,0,,,,,,,,*77,1746870873000
NMEA,$PSAMSA,,,,,,0,,,,,,,,*2D,1746870873000
NMEA,$GPGLL,4503.8319,N,00741.6582,E,095434.000,V,N*44,1746870873000
NMEA,$GPVTG,309.7,T,,M,0.0,N,0.0,K,N*0F,1746870873000
NMEA,$GPRMC,095434.000,V,,,,,,,100525,,,N*41,1746870873000
NMEA,$PSAMCLK,2365,55409200,0,9743343,23378014,554092000*7C,1746870873000
NMEA,$PSAMCLK,2365,55409200,0,9743343,23378014,554092000*7C,1746870873000
NMEA,$GPGGA,095435.000,,,,,0,,,,,,,,*76,1746870874000
NMEA,$PSAMSA,,,,,,0,,,,,,,,*2D,1746870874000
NMEA,$GPGLL,4503.8377,N,00741.6534,E,095435.000,V,N*40,1746870874000
NMEA,$GPVTG,309.2,T,,M,0.0,N,0.0,K,N*0A,1746870874000
NMEA,$GPRMC,095435.000,V,,,,,,,100525,,,N*40,1746870874000
NMEA,$PSAMCLK,2365,55409300,0,9743343,23439860,554093000*75,1746870874000
NMEA,$PSAMCLK,2365,55409300,0,9743343,23439860,554093000*75,1746870874000
NMEA,$GPGGA,095436.000,,,,,0,,,,,,,,*75,1746870875000
NMEA,$PSAMSA,,,,,,0,,,,,,,,*2D,1746870875000
NMEA,$GPGLL,4503.8435,N,00741.6485,E,095436.000,V,N*49,1746870875000
NMEA,$GPVTG,308.6,T,,M,0.0,N,0.0,K,N*0F,1746870875000
NMEA,$GPRMC,095436.000,V,,,,,,,100525,,,N*43,1746870875000
NMEA,$PSAMCLK,2365,55409400,0,9743343,23501706,554094000*70,1746870875000
NMEA,$PSAMCLK,2365,55409400,0,9743343,23501706,554094000*70,1746870875000
NMEA,$GPGGA,095437.000,,,,,0,,,,,,,,*74,1746870876000
NMEA,$PSAMSA,,,,,,0,,,,,,,,*2D,1746870876000
NMEA,$GPGLL,4503.8493,N,00741.6437,E,095437.000,V,N*4D,1746870876000
NMEA,$GPVTG,308.1,T,,M,0.0,N,0.0,K,N*08,1746870876000
NMEA,$GPRMC,095437.000,V,,,,,,,100525,,,N*42,1746870876000
NMEA,$PSAMCLK,2365,55409500,0,9743343,23563552,554095000*77,1746870876000
NMEA,$PSAMCLK,2365,55409500,0,9743343,23563552,554095000*77,1746870877000
NMEA,$GPGGA,095438.000,,,,,0,,,,,,,,*7B,1746870877000
NMEA,$PSAMSA,,,,,,0,,,,,,,,*2D,1746870877000
NMEA,$GPGLL,4503.8551,N,00741.6388,E,095438.000,V,N*4E,1746870877000
NMEA,$GPVTG,307.6,T,,M,0.0,N,0.0,K,N*00,1746870877000
NMEA,$GPRMC,095438.000,V,,,,,,,100525,,,N*4D,1746870877000
NMEA,$PSAMCLK,2365,55409600,0,9743343,23625398,554096000*76,1746870877000
NMEA,$PSAMCLK,2365,55409600,0,9743343,23625398,554096000*76,1746870877000
NMEA,$GPGGA,095439.000,,,,,0,,,,,,,,*7A,1746870879000
NMEA,$PSAMSA,,,,,,0,,,,,,,,*2D,1746870879000
NMEA,$GPGLL,4503.8608,N,00741.6340,E,095439.000,V,N*44,1746870879000
NMEA,$GPVTG,307.1,T,,M,0.0,N,0.0,K,N*07,1746870879000
NMEA,$GPRMC,095439.000,V,,,,,,,100525,,,N*4C,1746870879000
NMEA,$PSAMCLK,2365,55409700,0,9743343,23687244,554097000*7E,1746870879000
NMEA,$PSAMCLK,2365,55409700,0,9743343,23687244,554097000*7E,1746870879000
NMEA,$GPGGA,095440.000,,,,,0,,,,,,,,*74,1746870880000
NMEA,$PSAMSA,,,,,,0,,,,,,,,*2D,1746870880000
NMEA,$GPGLL,4503.6048,N,00741.8369,E,095440.000,V,N*43,1746870880000
NMEA,$GPVTG,0.0,T,,M,0.0,N,0.0,K,N*02,1746870880000
NMEA,$GPRMC,095440.000,V,,,,,,,100525,,,N*42,1746870880000
NMEA,$PSAMCLK,2365,55409800,0,9743343,23749090,554098024*70,1746870880000
NMEA,$PSAMCLK,2365,55409800,0,9743343,23749090,554098024*70,1746870880000
NMEA,$GPGGA,095441.000,,,,,0,,,,,,,,*75,1746870880000
NMEA,$PSAMSA,,,,,,0,,,,,,,,*2D,1746870880000
NMEA,$GPGLL,4503.6048,N,00741.8369,E,095441.000,V,N*42,1746870880000
NMEA,$GPVTG,0.0,T,,M,0.0,N,0.0,K,N*02,1746870880000
NMEA,$GPRMC,095441.000,V,,,,,,,100525,,,N*43,1746870880000
NMEA,$PSAMCLK,2365,55409900,0,9743343,23810936,554099000*70,1746870880000
NMEA,$PSAMCLK,2365,55409900,0,9743343,23810936,554099000*70,1746870880000
NMEA,$GPGGA,095442.000,,,,,0,,,,,,,,*76,1746870881000
NMEA,$PSAMSA,,,,,,0,,,,,,,,*2D,1746870881000
NMEA,$GPGLL,4503.6048,N,00741.8369,E,095442.000,V,N*41,1746870881000
NMEA,$GPVTG,0.0,T,,M,0.0,N,0.0,K,N*02,1746870881000
NMEA,$GPRMC,095442.000,V,,,,,,,100525,,,N*40,1746870881000
NMEA,$PSAMCLK,2365,55410000,0,9743343,23872782,554100000*75,1746870881000
NMEA,$PSAMCLK,2365,55410000,0,9743343,23872782,554100000*75,1746870881000
NMEA,$GPGGA,095443.000,,,,,0,,,,,,,,*77,1746870882000
NMEA,$PSAMSA,,,,,,0,,,,,,,,*2D,1746870882000
NMEA,$GPGLL,4503.6048,N,00741.8369,E,095443.000,V,N*40,1746870882000
NMEA,$GPVTG,0.0,T,,M,0.0,N,0.0,K,N*02,1746870882000
NMEA,$GPRMC,095443.000,V,,,,,,,100525,,,N*41,1746870882000
NMEA,$PSAMCLK,2365,55410100,0,9743343,23934628,554101000*77,1746870882000
NMEA,$PSAMCLK,2365,55410100,0,9743343,23934628,554101000*77,1746870882000
NMEA,$GPGGA,095444.000,,,,,0,,,,,,,,*70,1746870883000
NMEA,$PSAMSA,,,,,,0,,,,,,,,*2D,1746870883000
NMEA,$GPGLL,4503.6048,N,00741.8369,E,095444.000,V,N*47,1746870883000
NMEA,$GPVTG,0.0,T,,M,0.0,N,0.0,K,N*02,1746870883000
NMEA,$GPRMC,095444.000,V,,,,,,,100525,,,N*46,1746870883000
NMEA,$PSAMCLK,2365,55410200,0,9743343,23996474,554102000*74,1746870883000
NMEA,$PSAMCLK,2365,55410200,0,9743343,23996474,554102000*74,1746870883000
NMEA,$GPGGA,095445.000,,,,,0,,,,,,,,*71,1746870884000
NMEA,$PSAMSA,,,,,,0,,,,,,,,*2D,1746870884000
NMEA,$GPGLL,4503.6048,N,00741.8369,E,095445.000,V,N*46,1746870884000
NMEA,$GPVTG,0.0,T,,M,0.0,N,0.0,K,N*02,1746870884000
NMEA,$GPRMC,095445.000,V,,,,,,,100525,,,N*47,1746870884000
NMEA,$PSAMCLK,2365,55410300,0,9743343,24058320,554103000*7E,1746870884000
NMEA,$PSAMCLK,2365,55410300,0,9743343,24058320,554103000*7E,1746870884000
NMEA,$GPGGA,095446.000,,,,,0,,,,,,,,*72,1746870885000
NMEA,$PSAMSA,,,,,,0,,,,,,,,*2D,1746870885000
NMEA,$GPGLL,4503.6048,N,00741.8369,E,095446.000,V,N*45,1746870885000
NMEA,$GPVTG,0.0,T,,M,0.0,N,0.0,K,N*02,1746870885000
NMEA,$GPRMC,095446.000,V,,,,,,,100525,,,N*44,1746870885000
NMEA,$PSAMCLK,2365,55410400,0,9743343,24120166,554104000*70,1746870885000
NMEA,$PSAMCLK,2365,55410400,0,9743343,24120166,554104000*70,1746870885000
NMEA,$GPGGA,095447.000,,,,,0,,,,,,,,*73,1746870887000
NMEA,$PSAMSA,,,,,,0,,,,,,,,*2D,1746870887000
NMEA,$GPGLL,4503.6048,N,00741.8369,E,095447.000,V,N*44,1746870887000
NMEA,$GPVTG,0.0,T,,M,0.0,N,0.0,K,N*02,1746870887000
NMEA,$GPRMC,095447.000,V,,,,,,,100525,,,N*45,1746870887000
NMEA,$PSAMCLK,2365,55410500,0,9743343,24182012,554105000*7A,1746870887000
NMEA,$PSAMCLK,2365,55410500,0,9743343,24182012,554105000*7A,1746870887000
NMEA,$GPGGA,095448.000,,,,,0,,,,,,,,*7C,1746870888000
NMEA,$PSAMSA,,,,,,0,,,,,,,,*2D,1746870888000
NMEA,$GPGLL,4503.6048,N,00741.8369,E,095448.000,V,N*4B,1746870888000
NMEA,$GPVTG,0.0,T,,M,0.0,N,0.0,K,N*02,1746870888000
NMEA,$GPRMC,095448.000,V,,,,,,,100525,,,N*4A,1746870888000
NMEA,$PSAMCLK,2365,55410600,0,9743343,24243858,554106000*72,1746870888000
NMEA,$PSAMCLK,2365,55410600,0,9743343,24243858,554106000*72,1746870888000
NMEA,$GPGGA,095449.000,,,,,0,,,,,,,,*7D,1746870889000
NMEA,$PSAMSA,,,,,,0,,,,,,,,*2D,1746870889000
NMEA,$GPGLL,4503.6048,N,00741.8369,E,095449.000,V,N*4A,1746870889000
NMEA,$GPVTG,0.0,T,,M,0.0,N,0.0,K,N*02,1746870889000
NMEA,$GPRMC,095449.000,V,,,,,,,100525,,,N*4B,1746870889000
NMEA,$PSAMCLK,2365,55410700,0,9743343,24305704,554107000*77,1746870889000
NMEA,$PSAMCLK,2365,55410700,0,9743343,24305704,554107000*77,1746870889000
NMEA,$GPGGA,095450.000,,,,,0,,,,,,,,*75,1746870890000
NMEA,$PSAMSA,,,,,,0,,,,,,,,*2D,1746870890000
NMEA,$GPGLL,4503.6048,N,00741.8369,E,095450.000,V,N*42,1746870890000
NMEA,$GPVTG,0.0,T,,M,0.0,N,0.0,K,N*02,1746870890000
NMEA,$GPRMC,095450.000,V,,,,,,,100525,,,N*43,1746870890000
NMEA,$PSAMCLK,2365,55410800,0,9743343,24367550,554108000*70,1746870890000
NMEA,$PSAMCLK,2365,55410800,0,9743343,24367550,554108000*70,1746870890000
NMEA,$GPGGA,095451.000,,,,,0,,,,,,,,*74,1746870890000
NMEA,$PSAMSA,,,,,,0,,,,,,,,*2D,1746870890000
NMEA,$GPGLL,4503.6048,N,00741.8369,E,095451.000,V,N*43,1746870890000
NMEA,$GPVTG,0.0,T,,M,0.0,N,0.0,K,N*02,1746870890000
NMEA,$GPRMC,095451.000,V,,,,,,,100525,,,N*42,1746870890000
NMEA,$PSAMCLK,2365,55410900,0,9743343,24429396,554109000*71,1746870890000
NMEA,$PSAMCLK,2365,55410900,0,9743343,24429396,554109000*71,1746870890000
NMEA,$GPGGA,095452.000,,,,,0,,,,,,,,*77,1746870891000
NMEA,$PSAMSA,,,,,,0,,,,,,,,*2D,1746870891000
NMEA,$GPGLL,4503.6048,N,00741.8369,E,095452.000,V,N*40,1746870891000
NMEA,$GPVTG,0.0,T,,M,0.0,N,0.0,K,N*02,1746870891000
NMEA,$GPRMC,095452.000,V,,,,,,,100525,,,N*41,1746870891000
NMEA,$PSAMCLK,2365,55411000,0,9743343,24491242,554110000*7A,1746870891000
NMEA,$PSAMCLK,2365,55411000,0,9743343,24491242,554110000*7A,1746870891000
NMEA,$GPGGA,095453.000,,,,,0,,,,,,,,*76,1746870892000
NMEA,$PSAMSA,,,,,,0,,,,,,,,*2D,1746870892000
NMEA,$GPGLL,4503.6048,N,00741.8369,E,095453.000,V,N*41,1746870892000
NMEA,$GPVTG,0.0,T,,M,0.0,N,0.0,K,N*02,1746870892000
NMEA,$GPRMC,095453.000,V,,,,,,,100525,,,N*40,1746870892000
NMEA,$PSAMCLK,2365,55411100,0,9743343,24553088,554111000*71,1746870892000
NMEA,$PSAMCLK,2365,55411100,0,9743343,24553088,554111000*71,1746870892000
NMEA,$GPGGA,095454.000,,,,,0,,,,,,,,*71,1746870893000
NMEA,$PSAMSA,,,,,,0,,,,,,,,*2D,1746870893000
NMEA,$GPGLL,4503.6048,N,00741.8369,E,095454.000,V,N*46,1746870893000
NMEA,$GPVTG,0.0,T,,M,0.0,N,0.0,K,N*02,1746870893000
NMEA,$GPRMC,095454.000,V,,,,,,,100525,,,N*47,1746870893000
NMEA,$PSAMCLK,2365,55411200,0,9743343,24614934,554112000*7F,1746870893000
NMEA,$PSAMCLK,2365,55411200,0,9743343,24614934,554112000*7F,1746870893000
NMEA,$GPGGA,095455.000,,,,,0,,,,,,,,*70,1746870895000
NMEA,$PSAMSA,,,,,,0,,,,,,,,*2D,1746870895000
NMEA,$GPGLL,4503.6048,N,00741.8369,E,095455.000,V,N*47,1746870895000
NMEA,$GPVTG,0.0,T,,M,0.0,N,0.0,K,N*02,1746870895000
NMEA,$GPRMC,095455.000,V,,,,,,,100525,,,N*46,1746870895000
NMEA,$PSAMCLK,2365,55411300,0,9743343,24676780,554113000*7A,1746870895000
NMEA,$PSAMCLK,2365,55411300,0,9743343,24676780,554113000*7A,1746870895000
NMEA,$GPGGA,095456.000,,,,,0,,,,,,,,*73,1746870896000
NMEA,$PSAMSA,,,,,,0,,,,,,,,*2D,1746870896000
NMEA,$GPGLL,4503.6048,N,00741.8369,E,095456.000,V,N*44,1746870896000
NMEA,$GPVTG,0.0,T,,M,0.0,N,0.0,K,N*02,1746870896000
NMEA,$GPRMC,095456.000,V,,,,,,,100525,,,N*45,1746870896000
NMEA,$PSAMCLK,2365,55411400,0,9743343,24738626,554114000*7C,1746870896000
NMEA,$PSAMCLK,2365,55411400,0,9743343,24738626,554114000*7C,1746870896000
NMEA,$GPGGA,095457.000,,,,,0,,,,,,,,*72,1746870897000
NMEA,$PSAMSA,,,,,,0,,,,,,,,*2D,1746870897000
NMEA,$GPGLL,4503.6048,N,00741.8369,E,095457.000,V,N*45,1746870897000
NMEA,$GPVTG,0.0,T,,M,0.0,N,0.0,K,N*02,1746870897000
NMEA,$GPRMC,095457.000,V,,,,,,,100525,,,N*44,1746870897000
NMEA,$PSAMCLK,2365,55411500,0,9743343,24800472,554115000*7B,1746870897000
NMEA,$PSAMCLK,2365,55411500,0,9743343,24800472,554115000*7B,1746870897000
NMEA,$GPGGA,095458.000,,,,,0,,,,,,,,*7D,1746870897000
NMEA,$PSAMSA,,,,,,0,,,,,,,,*2D,1746870897000
NMEA,$GPGLL,4503.6048,N,00741.8369,E,095458.000,V,N*4A,1746870897000
NMEA,$GPVTG,0.0,T,,M,0.0,N,0.0,K,N*02,1746870897000
NMEA,$GPRMC,095458.000,V,,,,,,,100525,,,N*4B,1746870897000
NMEA,$PSAMCLK,2365,55411600,0,9743343,24862318,554116000*74,1746870897000
NMEA,$PSAMCLK,2365,55411600,0,9743343,24862318,554116000*74,1746870897000
NMEA,$GPGGA,095459.000,,,,,0,,,,,,,,*7C,1746870898000
NMEA,$PSAMSA,,,,,,0,,,,,,,,*2D,1746870898000
NMEA,$GPGLL,4503.6048,N,00741.8369,E,095459.000,V,N*4B,1746870898000
NMEA,$GPVTG,0.0,T,,M,0.0,N,0.0,K,N*02,1746870898000
NMEA,$GPRMC,095459.000,V,,,,,,,100525,,,N*4A,1746870898000
NMEA,$PSAMCLK,2365,55411700,0,9743343,24924164,554117000*7E,1746870898000
NMEA,$PSAMCLK,2365,55411700,0,9743343,24924164,554117000*7E,1746870898000
NMEA,$GPGGA,095500.000,,,,,0,,,,,,,,*71,1746870899000
NMEA,$PSAMSA,,,,,,0,,,,,,,,*2D,1746870899000
NMEA,$GPGLL,4503.6048,N,00741.8369,E,095500.000,V,N*46,1746870899000
NMEA,$GPVTG,0.0,T,,M,0.0,N,0.0,K,N*02,1746870899000
NMEA,$GPRMC,095500.000,V,,,,,,,100525,,,N*47,1746870899000
NMEA,$PSAMCLK,2365,55411800,0,9743343,24986010,554118000*74,1746870899000
NMEA,$PSAMCLK,2365,55411800,0,9743343,24986010,554118000*74,1746870899000
NMEA,$GPGGA,095501.000,,,,,0,,,,,,,,*70,1746870901000
NMEA,$PSAMSA,,,,,,0,,,,,,,,*2D,1746870901000
NMEA,$GPGLL,4503.6048,N,00741.8369,E,095501.000,V,N*47,1746870901000
NMEA,$GPVTG,0.0,T,,M,0.0,N,0.0,K,N*02,1746870901000
NMEA,$GPRMC,095501.000,V,,,,,,,100525,,,N*46,1746870901000
NMEA,$PSAMCLK,2365,55411900,0,9743343,25047856,554119000*7B,1746870901000
NMEA,$PSAMCLK,2365,55411900,0,9743343,25047856,554119000*7B,1746870901000
NMEA,$GPGGA,095502.000,,,,,0,,,,,,,,*73,1746870901000
NMEA,$PSAMSA,,,,,,0,,,,,,,,*2D,1746870901000
NMEA,$GPGLL,4503.6048,N,00741.8369,E,095502.000,V,N*44,1746870901000
NMEA,$GPVTG,0.0,T,,M,0.0,N,0.0,K,N*02,1746870901000
NMEA,$GPRMC,095502.000,V,,,,,,,100525,,,N*45,1746870901000
NMEA,$PSAMCLK,2365,55412000,0,9743343,25109702,554120000*7E,1746870901000
NMEA,$PSAMCLK,2365,55412000,0,9743343,25109702,554120000*7E,1746870901000
NMEA,$GPGGA,095503.000,,,,,0,,,,,,,,*72,1746870902000
NMEA,$PSAMSA,,,,,,0,,,,,,,,*2D,1746870902000
NMEA,$GPGLL,4503.6048,N,00741.8369,E,095503.000,V,N*45,1746870902000
NMEA,$GPVTG,0.0,T,,M,0.0,N,0.0,K,N*02,1746870902000
NMEA,$GPRMC,095503.000,V,,,,,,,100525,,,N*44,1746870902000
NMEA,$PSAMCLK,2365,55412100,0,9743343,25171548,554121000*7D,1746870902000
NMEA,$PSAMCLK,2365,55412100,0,9743343,25171548,554121000*7D,1746870902000
NMEA,$GPGGA,095504.000,,,,,0,,,,,,,,*75,1746870903000
NMEA,$PSAMSA,,,,,,0,,,,,,,,*2D,1746870903000
NMEA,$GPGLL,4503.6048,N,00741.8369,E,095504.000,V,N*42,1746870903000
NMEA,$GPVTG,0.0,T,,M,0.0,N,0.0,K,N*02,1746870903000
NMEA,$GPRMC,095504.000,V,,,,,,,100525,,,N*43,1746870903000
NMEA,$PSAMCLK,2365,55412200,0,9743343,25233394,554122000*7F,1746870904000
NMEA,$PSAMCLK,2365,55412200,0,9743343,25233394,554122000*7F,1746870904000
NMEA,$GPGGA,095505.000,,,,,0,,,,,,,,*74,1746870905000
NMEA,$PSAMSA,,,,,,0,,,,,,,,*2D,1746870905000
NMEA,$GPGLL,4503.6048,N,00741.8369,E,095505.000,V,N*43,1746870905000
NMEA,$GPVTG,0.0,T,,M,0.0,N,0.0,K,N*02,1746870905000
NMEA,$GPRMC,095505.000,V,,,,,,,100525,,,N*42,1746870905000
NMEA,$PSAMCLK,2365,55412300,0,9743343,25295240,554123000*7B,1746870905000
NMEA,$PSAMCLK,2365,55412300,0,9743343,25295240,554123000*7B,1746870905000
NMEA,$GPGGA,095506.000,,,,,0,,,,,,,,*77,1746870906000
NMEA,$PSAMSA,,,,,,0,,,,,,,,*2D,1746870906000
NMEA,$GPGLL,4503.6048,N,00741.8369,E,095506.000,V,N*40,1746870906000
NMEA,$GPVTG,0.0,T,,M,0.0,N,0.0,K,N*02,1746870906000
NMEA,$GPRMC,095506.000,V,,,,,,,100525,,,N*41,1746870906000
NMEA,$PSAMCLK,2365,55412400,0,9743343,25357086,554124000*7C,1746870906000
NMEA,$PSAMCLK,2365,55412400,0,9743343,25357086,554124000*7C,1746870906000
NMEA,$GPGGA,095507.000,,,,,0,,,,,,,,*76,1746870907000
NMEA,$PSAMSA,,,,,,0,,,,,,,,*2D,1746870907000
NMEA,$GPGLL,4503.6048,N,00741.8369,E,095507.000,V,N*41,1746870907000
NMEA,$GPVTG,0.0,T,,M,0.0,N,0.0,K,N*02,1746870907000
NMEA,$GPRMC,095507.000,V,,,,,,,100525,,,N*40,1746870907000
NMEA,$PSAMCLK,2365,55412500,0,9743343,25418932,554125000*76,1746870907000
NMEA,$PSAMCLK,2365,55412500,0,9743343,25418932,554125000*76,1746870907000
NMEA,$GPGGA,095508.000,,,,,0,,,,,,,,*79,1746870908000
NMEA,$PSAMSA,,,,,,0,,,,,,,,*2D,1746870908000
NMEA,$GPGLL,4503.6048,N,00741.8369,E,095508.000,V,N*4E,1746870908000
NMEA,$GPVTG,0.0,T,,M,0.0,N,0.0,K,N*02,1746870908000
NMEA,$GPRMC,095508.000,V,,,,,,,100525,,,N*4F,1746870908000
NMEA,$PSAMCLK,2365,55412600,0,9743343,25480778,554126000*77,1746870908000
NMEA,$PSAMCLK,2365,55412600,0,9743343,25480778,554126000*77,1746870908000
NMEA,$GPGGA,095509.000,,,,,0,,,,,,,,*78,1746870908000
NMEA,$PSAMSA,,,,,,0,,,,,,,,*2D,1746870908000
NMEA,$GPGLL,4503.6048,N,00741.8369,E,095509.000,V,N*4F,1746870908000
NMEA,$GPVTG,0.0,T,,M,0.0,N,0.0,K,N*02,1746870908000
NMEA,$GPRMC,095509.000,V,,,,,,,100525,,,N*4E,1746870908000
NMEA,$PSAMCLK,2365,55412700,0,9743343,25542624,554127000*70,1746870908000
NMEA,$PSAMCLK,2365,55412700,0,9743343,25542624,554127000*70,1746870908000
NMEA,$GPGGA,095510.000,,,,,0,,,,,,,,*70,1746870909000
NMEA,$PSAMSA,,,,,,0,,,,,,,,*2D,1746870909000
NMEA,$GPGLL,4503.6048,N,00741.8369,E,095510.000,V,N*47,1746870909000
NMEA,$GPVTG,0.0,T,,M,0.0,N,0.0,K,N*02,1746870909000
NMEA,$GPRMC,095510.000,V,,,,,,,100525,,,N*46,1746870909000
NMEA,$PSAMCLK,2365,55412800,0,9743343,25604470,554128000*72,1746870909000
NMEA,$PSAMCLK,2365,55412800,0,9743343,25604470,554128000*72,1746870909000
NMEA,$GPGGA,095511.000,,,,,0,,,,,,,,*71,1746870910000
NMEA,$PSAMSA,,,,,,0,,,,,,,,*2D,1746870910000
NMEA,$GPGLL,4503.6048,N,00741.8369,E,095511.000,V,N*46,1746870910000
NMEA,$GPVTG,0.0,T,,M,0.0,N,0.0,K,N*02,1746870910000
NMEA,$GPRMC,095511.000,V,,,,,,,100525,,,N*47,1746870910000
NMEA,$PSAMCLK,2365,55412900,0,9743343,25666316,554129000*71,1746870910000
NMEA,$PSAMCLK,2365,55412900,0,9743343,25666316,554129000*71,1746870910000
NMEA,$GPGGA,095512.000,,,,,0,,,,,,,,*72,1746870911000
NMEA,$PSAMSA,,,,,,0,,,,,,,,*2D,1746870911000
NMEA,$GPGLL,4503.6048,N,00741.8369,E,095512.000,V,N*45,1746870911000
NMEA,$GPVTG,0.0,T,,M,0.0,N,0.0,K,N*02,1746870911000
NMEA,$GPRMC,095512.000,V,,,,,,,100525,,,N*44,1746870911000
NMEA,$PSAMCLK,2365,55413000,0,9743343,25728162,554130000*7B,1746870911000
NMEA,$PSAMCLK,2365,55413000,0,9743343,25728162,554130000*7B,1746870911000
NMEA,$GPGGA,095513.000,,,,,0,,,,,,,,*73,1746870913000
NMEA,$PSAMSA,,,,,,0,,,,,,,,*2D,1746870913000
NMEA,$GPGLL,4503.6048,N,00741.8369,E,095513.000,V,N*44,1746870913000
NMEA,$GPVTG,0.0,T,,M,0.0,N,0.0,K,N*02,1746870913000
NMEA,$GPRMC,095513.000,V,,,,,,,100525,,,N*45,1746870913000
NMEA,$PSAMCLK,2365,55413100,0,9743343,25790008,554131000*75,1746870913000
NMEA,$PSAMCLK,2365,55413100,0,9743343,25790008,554131000*75,1746870913000
NMEA,$GPGGA,095514.000,,,,,0,,,,,,,,*74,1746870914000
NMEA,$PSAMSA,,,,,,0,,,,,,,,*2D,1746870914000
NMEA,$GPGLL,4503.6048,N,00741.8369,E,095514.000,V,N*43,1746870914000
NMEA,$GPVTG,0.0,T,,M,0.0,N,0.0,K,N*02,1746870914000
NMEA,$GPRMC,095514.000,V,,,,,,,100525,,,N*42,1746870914000
NMEA,$PSAMCLK,2365,55413200,0,9743343,25851854,554132000*76,1746870914000
NMEA,$PSAMCLK,2365,55413200,0,9743343,25851854,554132000*76,1746870914000
NMEA,$GPGGA,095515.000,,,,,0,,,,,,,,*75,1746870915000
NMEA,$PSAMSA,,,,,,0,,,,,,,,*2D,1746870915000
NMEA,$GPGLL,4503.6048,N,00741.8369,E,095515.000,V,N*42,1746870915000
NMEA,$GPVTG,0.0,T,,M,0.0,N,0.0,K,N*02,1746870915000
NMEA,$GPRMC,095515.000,V,,,,,,,100525,,,N*43,1746870915000
NMEA,$PSAMCLK,2365,55413300,0,9743343,25913700,554133000*7F,1746870915000
NMEA,$PSAMCLK,2365,55413300,0,9743343,25913700,554133000*7F,1746870915000
NMEA,$GPGGA,095516.000,,,,,0,,,,,,,,*76,1746870915000
NMEA,$PSAMSA,,,,,,0,,,,,,,,*2D,1746870915000
NMEA,$GPGLL,4503.6048,N,00741.8369,E,095516.000,V,N*41,1746870915000
NMEA,$GPVTG,0.0,T,,M,0.0,N,0.0,K,N*02,1746870915000
NMEA,$GPRMC,095516.000,V,,,,,,,100525,,,N*40,1746870915000
NMEA,$PSAMCLK,2365,55413400,0,9743343,25975546,554134000*7F,1746870915000
NMEA,$PSAMCLK,2365,55413400,0,9743343,25975546,554134000*7F,1746870915000
NMEA,$GPGGA,095517.000,,,,,0,,,,,,,,*77,1746870916000
NMEA,$PSAMSA,,,,,,0,,,,,,,,*2D,1746870916000
NMEA,$GPGLL,4503.6048,N,00741.8369,E,095517.000,V,N*40,1746870916000
NMEA,$GPVTG,0.0,T,,M,0.0,N,0.0,K,N*02,1746870916000
NMEA,$GPRMC,095517.000,V,,,,,,,100525,,,N*41,1746870916000
NMEA,$PSAMCLK,2365,55413500,0,9743343,26037392,554135000*7C,1746870916000
NMEA,$PSAMCLK,2365,55413500,0,9743343,26037392,554135000*7C,1746870916000
NMEA,$GPGGA,095518.000,,,,,0,,,,,,,,*78,1746870917000
NMEA,$PSAMSA,,,,,,0,,,,,,,,*2D,1746870917000
NMEA,$GPGLL,4503.6048,N,00741.8369,E,095518.000,V,N*4F,1746870917000
NMEA,$GPVTG,0.0,T,,M,0.0,N,0.0,K,N*02,1746870917000
NMEA,$GPRMC,095518.000,V,,,,,,,100525,,,N*4E,1746870917000
NMEA,$PSAMCLK,2365,55413600,0,9743343,26099238,554136000*79,1746870917000
NMEA,$PSAMCLK,2365,55413600,0,9743343,26099238,554136000*79,1746870917000
NMEA,$GPGGA,095519.000,,,,,0,,,,,,,,*79,1746870918000
NMEA,$PSAMSA,,,,,,0,,,,,,,,*2D,1746870918000
NMEA,$GPGLL,4503.6048,N,00741.8369,E,095519.000,V,N*4E,1746870918000
NMEA,$GPVTG,0.0,T,,M,0.0,N,0.0,K,N*02,1746870918000
NMEA,$GPRMC,095519.000,V,,,,,,,100525,,,N*4F,1746870918000
NMEA,$PSAMCLK,2365,55413700,0,9743343,26161084,554137000*7A,1746870918000
NMEA,$PSAMCLK,2365,55413700,0,9743343,26161084,554137000*7A,1746870918000
NMEA,$GPGGA,095520.000,,,,,0,,,,,,,,*73,1746870919000
NMEA,$PSAMSA,,,,,,0,,,,,,,,*2D,1746870919000
NMEA,$GPGLL,4503.6048,N,00741.8369,E,095520.000,V,N*44,1746870919000
NMEA,$GPVTG,0.0,T,,M,0.0,N,0.0,K,N*02,1746870919000
NMEA,$GPRMC,095520.000,V,,,,,,,100525,,,N*45,1746870919000
NMEA,$PSAMCLK,2365,55413800,0,9743343,26222930,554138000*78,1746870919000
NMEA,$PSAMCLK,2365,55413800,0,9743343,26222930,554138000*78,1746870919000
NMEA,$GPGGA,095521.000,,,,,0,,,,,,,,*72,1746870920000
NMEA,$PSAMSA,,,,,,0,,,,,,,,*2D,1746870920000
NMEA,$GPGLL,4503.6048,N,00741.8369,E,095521.000,V,N*45,1746870920000
NMEA,$GPVTG,0.0,T,,M,0.0,N,0.0,K,N*02,1746870920000
NMEA,$GPRMC,095521.000,V,,,,,,,100525,,,N*44,1746870920000
NMEA,$PSAMCLK,2365,55413900,0,9743343,26284776,554139000*78,1746870920000
NMEA,$PSAMCLK,2365,55413900,0,9743343,26284776,554139000*78,1746870920000
NMEA,$GPGGA,095522.000,,,,,0,,,,,,,,*71,1746870921000
NMEA,$PSAMSA,,,,,,0,,,,,,,,*2D,1746870921000
NMEA,$GPGLL,4503.6048,N,00741.8369,E,095522.000,V,N*46,1746870921000
NMEA,$GPVTG,0.0,T,,M,0.0,N,0.0,K,N*02,1746870921000
NMEA,$GPRMC,095522.000,V,,,,,,,100525,,,N*47,1746870921000
NMEA,$PSAMCLK,2365,55414000,0,9743343,26346622,554140000*77,1746870921000
NMEA,$PSAMCLK,2365,55414000,0,9743343,26346622,554140000*77,1746870921000
NMEA,$GPGGA,095523.000,,,,,0,,,,,,,,*70,1746870922000
NMEA,$PSAMSA,,,,,,0,,,,,,,,*2D,1746870922000
NMEA,$GPGLL,4503.6048,N,00741.8369,E,095523.000,V,N*47,1746870922000
NMEA,$GPVTG,0.0,T,,M,0.0,N,0.0,K,N*02,1746870922000
NMEA,$GPRMC,095523.000,V,,,,,,,100525,,,N*46,1746870922000
NMEA,$PSAMCLK,2365,55414100,0,9743343,26408468,554141000*76,1746870922000
NMEA,$PSAMCLK,2365,55414100,0,9743343,26408468,554141000*76,1746870922000
NMEA,$GPGGA,095524.000,,,,,0,,,,,,,,*77,1746870923000
NMEA,$PSAMSA,,,,,,0,,,,,,,,*2D,1746870923000
NMEA,$GPGLL,4503.6048,N,00741.8369,E,095524.000,V,N*40,1746870923000
NMEA,$GPVTG,0.0,T,,M,0.0,N,0.0,K,N*02,1746870923000
NMEA,$GPRMC,095524.000,V,,,,,,,100525,,,N*41,1746870923000
NMEA,$PSAMCLK,2365,55414200,0,9743343,26470314,554142000*75,1746870923000
NMEA,$PSAMCLK,2365,55414200,0,9743343,26470314,554142000*75,1746870923000
NMEA,$GPGGA,095525.000,,,,,0,,,,,,,,*76,1746870924000
NMEA,$PSAMSA,,,,,,0,,,,,,,,*2D,1746870924000
NMEA,$GPGLL,4503.6048,N,00741.8369,E,095525.000,V,N*41,1746870924000
NMEA,$GPVTG,0.0,T,,M,0.0,N,0.0,K,N*02,1746870924000
