     4.01           OBSERVATION DATA    M                   RINEX VERSION / TYPE
GnssLogger          samsung 13          20250503 083538 UTC PGM / RUN BY / DATE
Google GnssLogger                                           MARKER NAME
Unknown                                                     MARKER NUMBER
Unknown             Unknown                                 OBSERVER / AGENCY
Unknown             GnssLogger          v3.1.0.4            REC # / TYPE / VERS
Unknown             Unknown                                 ANT # / TYPE
        0.0000        0.0000        0.0000                  ANTENNA: DELTA H/E/N
G    4 C1C L1C D1C S1C                                      SYS / # / OBS TYPES
R    4 C1C L1C D1C S1C                                      SYS / # / OBS TYPES
C    4 C2C L2C D2C S2C                                      SYS / # / OBS TYPES
  2025    05    03    08    35   38.0000000     GPS         TIME OF FIRST OBS
 5 R02 -4 R09 -2 R10 -7 R16 -1 R23  3                       GLONASS SLOT / FRQ #
samsung SM-A515F (Android 13) HW Year: 2016 HW Model:       COMMENT
S.LSI,K102                                                  COMMENT
                                                            END OF HEADER
> 2025 05 03 08 35 38.9999999  0 12                      
G31  21446102.57226    -33222.08526     -2570.79126        39.20026
G28  22239857.96725    -51608.21225     -3983.68625        32.70025
G26  21195143.60725      9921.10225       749.11425        32.10025
G18  21136949.39414      7268.26814       544.31314        28.60014
G29  21272585.99515    -40608.16715     -3140.67315        30.30015
G05  23519848.84714     -6397.32614      -507.99614        28.20014
G16  23016813.29214     25552.12414      1961.77214        26.70014
G20  24646492.88813    -31429.88913     -2893.28513        18.40013
C29  21561315.81215    -25961.96115     -2008.04415        30.50015
R10  19898378.73914     10245.20514       784.67714        27.20014
R09  19365554.30614     -8409.86814     -2809.70714        27.00014
C30  24976780.23514    -49710.81714     -4153.03814        25.70014
> 2025 05 03 08 35 39.9999999  0 12                      
G31  21446352.29926    -35787.37326     -2571.74826        39.20026
G28  22240372.41125    -55586.23825     -3984.32525        32.70025
G26  21194764.37015     10675.07115       747.26215        32.10015
G29  21272939.15115    -43740.76515     -3139.96115        30.00015
G18  21136607.03114      7817.09514       541.70114        28.60014
G05  23519704.64714     -6901.79614      -512.41514        28.10014
G16  23016207.11114     27515.12314      1955.25814        25.90014
G20  24646807.07113    -34316.94913     -2893.19913        18.20013
C29  21561466.30715    -27969.78615     -2016.18415        30.40015
R10  19897985.71114     11076.59414       784.34914        27.40014
R09  19365849.30214    -11251.36214     -2810.62814        26.80014
C30  24977338.74814    -53856.36214     -4150.83414        25.60014
> 2025 05 03 08 35 41.0000000  0 13                      
G31  21446636.80226    -38353.69626     -2572.70226        39.20026
G18  21136297.04615      8367.82215       545.81215        30.90015
G28  22240928.52625    -59565.57025     -3985.84625        32.60025
G26  21194416.61115     11426.28915       743.97915        32.00015
G29  21273333.97715    -46874.06815     -3139.51715        30.60015
G05  23519579.03414     -7402.76514      -505.08214        27.90014
G16  23015627.31314     29471.50514      1947.20914        25.60014
G20  24647144.03713    -37198.73213     -2885.00513        18.00013
R09  19366161.98515    -14026.38215     -2815.33815        31.10015
C29  21561643.78515    -29977.29115     -2013.64415        30.70015
R10  19897656.83914     11725.69414       785.84614        27.50014
C30  24977917.64714    -58003.98914     -4154.47514        25.60014
C36  24884128.77613     -8955.32213     -4485.58813        20.70013
> 2025 05 03 08 35 42.0000000  0 13                      
G31  21446887.12926    -40921.27926     -2574.07526        39.20026
G18  21135960.97916      8916.72516       542.12816        38.60016
G28  22241449.86525    -63545.43525     -3985.99125        32.70025
G26  21194025.68115     12179.90215       748.94715        31.90015
G29  21273695.82715    -50009.54815     -3142.42915        31.00015
G05  23519458.51814     -7903.78114      -506.90214        27.80014
G16  23015026.52914     31428.69514      1951.72914        25.50014
G20  24647453.12313    -40064.22113     -2863.20413        18.20013
R09  19366464.47616    -16907.60616     -2816.59316        36.20016
C29  21561790.98315    -31984.90615     -2013.93715        31.90015
R10  19897256.31614     12596.74214       779.70614        27.50014
C30  24978475.86114    -62151.69414     -4153.55114        25.70014
C36  24884752.04514    -13434.41714     -4484.90214        23.50014
> 2025 05 03 08 35 43.0000000  0 13                      
G31  21447142.55226    -43489.98326     -2575.12426        39.10026
G18  21135622.21326      9464.41726       541.22326        38.60026
G28  22241970.30425    -67526.37125     -3987.33125        32.80025
G29  21274051.98015    -53144.58715     -3140.68015        31.90015
G26  21193647.64315     12932.72315       746.56015        31.70015
G05  23519304.72414     -8409.70614      -514.24314        27.70014
G16  23014422.14714     33385.95014      1951.42314        25.60014
G20  24647753.21613    -42920.28413     -2857.21013        18.30013
R09  19366752.57626    -19712.42426     -2817.60126        36.30026
C29  21561939.68015    -33993.81915     -2015.93115        33.00015
R10  19896877.37814     13353.39114       790.21814        27.50014
C30  24979044.26714    -66300.76814     -4155.56414        25.70014
C36  24885373.21514    -17912.74514     -4483.75114        24.10014
> 2025 05 03 08 35 44.0000000  0 13                      
G31  21447394.07826    -46059.58126     -2575.90726        39.00026
G18  21135281.04926     10011.23526       540.51626        38.50026
G28  22242489.54525    -71507.98825     -3987.81825        32.90025
G29  21274414.13015    -56279.84215     -3141.22315        32.50015
G26  21193277.69915     13683.31415       743.61215        31.50015
G05  23519170.41714     -8917.38314      -514.41614        27.60014
G16  23013828.25814     35344.36814      1953.13414        25.70014
G20  24648059.30413    -45770.81713     -2853.62813        18.70013
R09  19367043.07526    -22529.46726     -2818.67526        36.30026
C36  24885991.98614    -22391.67314     -4485.03414        26.30014
C29  21562088.37715    -36003.26615     -2014.74115        33.50015
R10  19896478.35514     14216.04414       782.72114        27.40014
C30  24979594.08714    -70452.35014     -4158.64414        25.60014
> 2025 05 03 08 35 45.0000001  0 13                      
G18  21134969.86526     10557.13926       539.58526        39.00026
G31  21447678.58126    -48630.13426     -2576.89226        39.00026
G28  22243045.36025    -75490.48325     -3988.79425        33.00025
G29  21274802.66125    -59415.71725     -3142.04725        32.80025
G26  21192927.84115     14431.36115       740.91215        31.40015
G05  23519068.18814     -9424.85614      -513.23414        27.50014
G16  23013256.55414     37301.88414      1951.20114        25.70014
G20  24648382.78013    -48620.12913     -2854.56313        19.60013
R09  19367359.05626    -25322.05926     -2819.56126        36.20026
C29  21562266.75315    -38013.57115     -2017.14015        33.90015
C36  24886638.93815    -26871.93415     -4486.73415        32.60015
R10  19896131.49514     14960.48814       782.41114        27.30014
C30  24980183.47914    -74606.94314     -4161.90514        25.50014
> 2025 05 03 08 35 45.9999998  0 14                      
G18  21134540.86226     11102.40526       539.08326        39.10026
G31  21447840.16926    -51201.36026     -2577.42326        38.90026
G28  22243478.56025    -79473.36925     -3988.94125        33.10025
G29  21275070.67525    -62551.90725     -3142.20725        32.90025
G26  21192470.05815     15180.03815       743.12815        31.20015
G05  23518841.54514     -9932.34214      -513.35614        27.40014
G16  23012576.02514     39257.76514      1949.19814        25.60014
G20  24648607.62413    -51468.39913     -2853.61113        19.80013
C35  23284068.97416     17128.48416      1130.39316        37.50016
R09  19367554.52126    -28111.59726     -2820.43126        36.20026
C29  21562325.21315    -40024.20515     -2016.27915        34.20015
C36  24887174.96725    -31352.56125     -4486.61725        33.20025
R10  19895650.02814     15785.01014       783.29214        27.20014
C30  24980655.95214    -78762.39914     -4161.69514        25.30014
> 2025 05 03 08 35 46.9999999  0 13                      
G18  21134229.37726     11647.04126       538.45726        39.30026
G31  21448122.27426    -53773.40126     -2578.31026        38.90026
G28  22244026.88125    -83456.84425     -3989.63125        33.20025
G29  21275464.60225    -65688.61125     -3142.82325        33.00025
G26  21192109.70815     15931.28615       746.67015        31.00015
G05  23518737.51714    -10440.84814      -514.87814        27.20014
G16  23011981.23714     41216.22814      1953.88914        25.50014
G20  24648937.39613    -54314.20913     -2850.44013        19.80013
C35  23283645.96726     18264.38126      1130.08626        37.20026
R09  19367877.99726    -30945.44826     -2821.25726        36.10026
C29  21562505.38825    -42035.43825     -2017.04225        34.40025
C36  24887831.21325    -35833.56425     -4486.99725        33.20025
R10  19895294.77414     16574.44814       781.23714        27.00014
> 2025 05 03 08 35 47.9999999  0 14                      
G18  21133888.81326     12190.69926       537.30626        39.50026
G31  21448374.99926    -56346.35826     -2579.27626        38.80026
G28  22244544.92225    -87441.08325     -3990.48125        33.30025
G29  21275827.35125    -68825.85525     -3143.37525        33.10025
G26  21191740.36315     16677.66815       738.08515        30.80015
G05  23518590.31914    -10949.27314      -514.24814        27.10014
G16  23011357.36914     43174.00514      1951.57014        25.40014
G20  24649245.28313    -57156.20913     -2845.95713        19.80013
C35  23283191.18226     19399.67526      1129.18226        36.90026
R09  19368168.79626    -33763.25426     -2822.16826        36.00026
C29  21562653.78525    -44047.34625     -2018.05425        34.60025
C36  24888458.67925    -40315.25525     -4487.84225        33.10025
R10  19894912.23914     17349.39114       770.63914        26.90014
C30  24981814.94913    -87061.41013     -4150.27113        23.20013
> 2025 05 03 08 35 48.9999999  0 14                      
G18  21133549.74826     12733.61326       536.67826        39.70026
G31  21448626.52526    -58920.13426     -2580.04726        38.70026
G28  22245070.75825    -91425.87725     -3990.93125        33.50025
G29  21276191.59925    -71964.06125     -3143.79625        33.20025
G26  21191345.53715     17425.89815       743.29015        30.60015
G05  23518436.52514    -11460.98114      -519.21214        27.00014
G16  23010746.09214     45128.96114      1947.68014        25.20014
G20  24649540.27813    -60008.48813     -2863.27813        19.80013
R09  19368456.89626    -36568.07326     -2823.47726        35.90026
C35  23282735.79726     20534.50426      1128.78626        36.70026
C29  21562802.48225    -46059.83325     -2018.58525        34.90025
C36  24889081.64725    -44797.13325     -4487.77825        33.00025
R10  19894511.11714     18224.25814       773.79614        26.80014
C30  24982378.25913    -91210.59213     -4156.08813        22.50013
> 2025 05 03 08 35 49.9999999  0 14                      
G18  21133209.18426     13276.01926       536.28826        39.90026
G31  21448880.14926    -61494.54026     -2580.58326        38.70026
G28  22245596.29425    -95411.05525     -3991.23025        33.80025
G29  21276554.04815    -75101.22615     -3143.50615        33.20015
G26  21190976.49215     18173.73915       741.78315        30.50015
G05  23518307.61414    -11972.00014      -516.53814        26.90014
G16  23010146.80714     47083.51414      1948.48714        25.00014
G20  24649865.25313    -62869.45313     -2871.16913        20.00013
R09  19368749.79426    -39398.10526     -2823.72226        36.00026
C35  23282281.31226     21669.14226      1128.73126        36.50026
C29  21562955.37725    -48072.65025     -2018.79025        34.90025
C36  24889703.41715    -49278.74615     -4487.28615        32.90015
R10  19894121.38614     19038.10414       773.04214        26.60014
C30  24982933.17513    -95359.12013     -4154.00613        21.90013
> 2025 05 03 08 35 51.0000000  0 14                      
G18  21132898.29926     13817.81126       535.62226        39.90026
G31  21449165.85126    -64069.61926     -2581.27726        38.60026
G28  22246146.41325    -99396.83125     -3991.93725        34.00025
G29  21276941.38015    -78240.05515     -3145.27215        33.20015
G26  21190622.13815     18922.74115       743.71915        30.40015
G05  23518195.79214    -12482.45214      -516.03214        27.20014
G16  23009555.31614     49035.94114      1945.49914        25.00014
G20  24650209.41513    -65737.67413     -2877.71113        20.10013
C35  23281855.90726     22803.34626      1128.17726        36.40026
R09  19369064.57626    -42184.58526     -2824.85826        36.00026
C29  21563132.85415    -50086.26115     -2019.81615        34.90015
C36  24890353.36715    -53761.10015     -4488.53315        31.90015
R10  19893785.31914     19726.10614       777.80214        26.40014
C30  24983525.26513    -99504.56013     -4149.70513        21.60013
> 2025 05 03 08 35 52.0000000  0 14                      
G18  21132558.03426     14359.06226       535.11626        39.80026
G31  21449416.47826    -66645.30826     -2581.85426        38.50026
G28  22246665.05425   -103382.93925     -3992.13225        34.10025
G29  21277301.43115    -81384.27715     -3152.77915        33.10015
G26  21190243.79915     19669.31815       739.50015        30.40015
G05  23518061.18514    -12996.14614      -521.17814        27.30014
G16  23008935.94514     50986.93114      1944.40714        25.00014
G20  24650508.30813    -68613.74613     -2885.85813        20.10013
C35  23281401.72126     23937.21926      1127.89526        36.30026
R09  19369362.27026    -45040.59426     -2825.49126        35.90026
C29  21563278.55315    -52099.82715     -2019.35315        34.80015
C36  24890978.13415    -58248.07915     -4495.09715        30.70015
R10  19893417.77314     20420.97314       786.43114        26.20014
C30  24984078.98213   -103650.05213     -4151.32313        21.30013
> 2025 05 03 08 35 53.0000000  0 12                      
G18  21132220.46826     14899.57526       534.28026        39.70026
G31  21449667.10426    -69221.84526     -2582.82326        38.40026
G28  22247182.79625   -107369.79725     -3993.09425        34.20025
G26  21189862.76315     20417.12815       742.56415        30.40015
G05  23517931.37514    -13507.71714      -516.37214        27.30014
G16  23008341.45714     52939.07614      1946.85714        25.40014
G20  24650816.79513    -71496.48513     -2891.93313        20.00013
C35  23280946.93626     25070.72326      1127.50926        36.10026
R09  19369647.67215    -47832.42215     -2825.46215        35.10015
C36  24891598.40515    -62733.68915     -4490.73115        29.70015
R10  19893049.02914     21121.93414       779.84514        26.00014
C30  24984631.79913   -107795.07713     -4150.59913        21.00013
> 2025 05 03 08 35 54.0000000  0 14                      
G31  21449923.12726    -71799.23126     -2583.67026        38.40026
G28  22247705.93425   -111357.10125     -3993.38725        34.40025
G26  21189488.92215     21164.20515       740.84715        30.60015
G05  23517794.67014    -14017.86014      -515.29314        27.20014
G16  23007725.08314     54891.49014      1946.68414        25.50014
G18  21131879.60416     15438.84016       532.77816        37.80016
G29  21278014.03714    -87671.20714     -3146.23314        28.60014
G20  24651122.58313    -74385.82113     -2898.49613        19.90013
C35  23280493.94926     26203.60126      1126.75426        36.10026
R09  19369937.57115    -50646.41015     -2825.82715        33.30015
R10  19892648.80614     21991.45614       772.31414        25.80014
C36  24892213.27914    -67216.36614     -4487.01814        28.70014
C29  21563579.54515    -56134.56215     -2026.20715        31.10015
C30  24985184.01713   -111941.25313     -4152.55813        20.80013
> 2025 05 03 08 35 55.0000001  0 13                      
G31  21450204.93226    -74377.37926     -2584.39226        38.30026
G28  22248263.24825   -115345.18125     -3994.32925        34.60025
G26  21189142.96215     21910.08015       739.41015        30.70015
G18  21131567.22016     15975.97116       530.20016        35.60016
G05  23517679.24914    -14532.77614      -523.16514        27.20014
G16  23007144.68514     56846.09014      1949.82914        25.50014
G29  21278396.87214    -90809.50614     -3142.35114        27.00014
G20  24651463.74713    -77280.02013     -2902.49113        19.70013
C35  23280067.34526     27336.02626      1126.38826        36.30026
R10  19892294.75114     22774.03414       773.33414        25.70014
C36  24892855.13514    -71696.77614     -4485.08314        27.80014
C29  21563768.41414    -58156.78614     -2029.70414        29.10014
C30  24985780.30413   -116091.53913     -4158.14913        20.60013
> 2025 05 03 08 35 55.9999998  0 14                      
G31  21450368.01926    -76956.30426     -2585.17326        38.50026
G28  22248692.55125   -119333.75825     -3994.68525        34.90025
G26  21188672.88715     22653.42115       736.21015        31.00015
G18  21131133.72115     16514.84615       533.88315        33.90015
G05  23517442.41314    -15051.47514      -526.45414        27.30014
G16  23006440.47314     58800.39414      1948.29014        25.70014
G29  21278675.38014    -93943.51914     -3137.72914        25.80014
G20  24651692.78813    -80170.74913     -2894.85613        19.50013
C35  23279523.82126     28468.06726      1126.03826        36.70026
R09  19370449.61724                     -2830.60524        28.80024
R10  19891806.68914     23632.87514       772.92014        25.60014
C36  24893412.74914    -76179.23414     -4489.28814        27.00014
C29  21563823.87514    -60180.72214     -2030.60014        27.40014
C30  24986262.97013   -120245.68713     -4161.88413        20.50013
> 2025 05 03 08 35 56.9999999  0 14                      
G31  21450651.02326    -79536.12826     -2586.13626        38.60026
G28  22249245.96825   -123322.99425     -3995.42625        35.20025
G26  21188319.43215     23397.92815       739.22515        31.10015
G18  21130824.03515     17053.91115       533.29615        32.70015
G05  23517336.28714    -15567.27114      -520.20714        27.50014
G16  23005871.46714     60752.15014      1944.61814        26.30014
G29  21279065.11014    -97079.64614     -3143.04614        24.90014
G20  24652044.44513    -83053.31513     -2884.34513        19.50013
C35  23279097.81626     29599.57826      1125.43526        37.00026
R09  19370803.67214     -2995.83014     -2829.50814        28.70014
R10  19891460.72814     24373.50214       766.36314        25.60014
C36  24894059.70114    -80664.40514     -4492.33514        26.30014
C29  21564000.15314    -62201.32614     -2024.74614        26.20014
C30  24986860.15713   -124401.08913     -4161.83613        20.50013
> 2025 05 03 08 35 57.9999999  0 14                      
G31  21450903.14926    -82116.51326     -2586.52726        38.80026
G28  22249766.40726   -127312.85926     -3996.04026        35.50026
G26  21187945.29115     24143.05115       739.56815        31.20015
G18  21130494.86315     17594.99015       536.22215        31.70015
G05  23517199.58214    -16083.71514      -522.63114        27.60014
G16  23005254.79414     62706.19614      1949.32714        27.00014
G29  21279429.35814   -100219.44014     -3147.48714        24.50014
G20  24652344.23713    -85929.45213     -2878.78413        19.40013
C35  23278644.83026     30730.73226      1125.16426        37.30026
R09  19371094.47014     -5815.16614     -2828.55114        28.60014
R10  19891085.38814     25111.07814       771.38214        25.60014
C36  24894698.25914    -85149.52914     -4490.90714        25.60014
C29  21564158.44414    -64222.38614     -2027.09714        25.50014
C30  24987421.96813   -128557.24413     -4162.33813        20.50013
> 2025 05 03 08 35 59.0000000  0 14                      
G31  21451169.06526    -84698.19426     -2588.13426        38.90026
G28  22250299.13826   -131303.48726     -3996.81326        35.50026
G26  21187575.34715     24886.42215       736.68615        31.30015
G18  21130160.59415     18131.55715       528.50215        31.20015
G05  23517074.86814    -16604.13314      -528.21314        27.60014
G16  23004666.00114     64660.19714      1948.16814        27.20014
G29  21279797.50314   -103360.41914     -3147.37814        24.10014
G20  24652656.62113    -88801.99613     -2876.55313        19.60013
C35  23278204.73426     31861.16826      1124.32126        37.50026
R09  19371391.56514     -8604.74014     -2832.59814        28.50014
R10  19890698.95614     25969.88814       771.73114        25.70014
C29  21564315.83514    -66242.08314     -2024.76914        25.00014
C36  24895341.31414    -89628.82214     -4482.12914        25.10014
C30  24987982.58013   -132716.57813     -4166.67613        20.50013
> 2025 05 03 08 36 00.0000000  0 14                      
G31  21451426.58626    -87280.43726     -2588.40426        38.90026
G18  21129824.22715     18667.06115       529.09115        33.60015
G28  22250821.97626   -135294.66926     -3997.33726        35.50026
G26  21187198.80715     25628.07015       734.90415        31.30015
G05  23516931.56714    -17126.74514      -529.59014        27.60014
G16  23004066.71614     66608.11314      1938.99014        27.30014
G29  21280155.45514   -106501.40114     -3146.86114        24.00014
G20  24652953.11613    -91669.60013     -2871.01313        19.60013
C35  23277749.64926     32991.07526      1123.81426        37.50026
C29  21564462.43314    -68258.09814     -2019.99914        25.50014
R09  19371679.96515    -11411.08615     -2832.86915        29.50015
R10  19890341.30314     26612.12314       769.22914        25.70014
C36  24895959.78614    -94108.15914     -4485.18414        24.60014
C30  24988535.99713   -136878.39513     -4168.88213        20.50013
> 2025 05 03 08 36 01.0000000  0 13                      
G31  21451681.71026    -89863.68326     -2589.60926        38.90026
G18  21129488.46026     19201.38826       527.87426        36.70026
G28  22251344.51525   -139286.49725     -3998.01225        35.40025
G05  23516792.46314    -17648.83914      -527.69714        27.50014
G16  23003459.63614     68553.78614      1938.68714        27.20014
G29  21280514.30714   -109642.93614     -3147.67314        24.00014
G20  24653251.70913    -94535.00813     -2870.17013        19.50013
C35  23277292.46626     34120.55626      1123.45726        37.40026
C29  21564618.92515    -70276.66515     -2025.65215        30.90015
R09  19371970.76415    -14229.65715     -2835.00015        30.30015
R10  19889930.88714     27536.56214       768.00914        25.60014
C36  24896579.75614    -98590.75114     -4490.02614        24.20014
C30  24989112.19813   -141044.91413     -4174.67713        20.40013
> 2025 05 03 08 36 02.0000000  0 14                      
G31  21451937.43326    -92447.79426     -2590.40426        38.90026
G18  21129144.59826     19734.83026       527.13526        36.70026
G28  22251868.55225   -143279.00625     -3998.70925        35.40025
G05  23516659.05614    -18170.81914      -527.78714        27.40014
G26  21186437.93415     27107.45315       736.93515        29.50015
G16  23002861.85014     70500.25514      1941.00114        27.10014
G29  21280875.25714   -112787.10314     -3151.34314        24.00014
G20  24653562.59413    -97395.45213     -2863.82413        19.50013
C35  23276841.87826     35249.42526      1122.75326        37.30026
C29  21564771.22015    -72296.59715     -2026.42215        31.30015
R09  19372264.26115    -17063.50915     -2835.43815        30.60015
R10  19889502.48414     28556.34314       771.49814        25.40014
C36  24897205.12414   -103074.80114     -4490.58614        24.00014
C30  24989677.30613   -145213.52413     -4175.46313        20.20013
> 2025 05 03 08 36 03.0000001  0 14                      
G31  21452221.33626    -95032.68326     -2591.13926        38.90026
G18  21128844.50526     20267.52526       526.45926        36.50026
G28  22252419.87025   -147272.20125     -3999.39925        35.30025
G05  23516548.73214    -18692.40114      -527.24514        27.40014
G16  23002280.85214     72443.09514      1935.16114        26.90014
G26  21186100.66814     27851.51914       738.20214        28.40014
G29  21281262.28914   -115928.81414     -3146.34414        24.00014
G20  24653891.16613   -100257.39313     -2868.55013        19.50013
C35  23276419.17026     36377.82726      1122.35826        37.20026
R09  19372589.83515    -19908.05815     -2836.80715        30.70015
C29  21564952.29415    -74316.44415     -2025.61415        31.20015
R10  19889197.29514     29079.59414       767.14814        25.30014
C36  24897853.87414   -107557.71414     -4488.15114        23.70014
C30  24990258.30413   -149382.47113     -4174.92213        20.00013
> 2025 05 03 08 36 03.9999998  0 14                      
G31  21452388.62026    -97618.30726     -2591.85326        38.90026
G18  21128412.80426     20799.61026       525.91526        36.30026
G28  22252853.37025   -151265.85725     -3999.74625        35.30025
G05  23516312.19614    -19216.41114      -531.08714        27.40014
G16  23001586.23314     74378.78114      1926.24514        26.70014
G26  21185635.69014     28599.09014       743.46014        27.80014
G29  21281531.80214   -119071.76414     -3149.43014        24.20014
G20  24654112.11313   -103117.17613     -2864.56413        19.40013
C35  23275873.24826     37505.85026      1122.02326        37.30026
R09  19372786.19915    -22702.94415     -2839.00615        30.90015
C29  21565013.75215    -76338.20915     -2028.53115        31.00015
R10  19888708.03414     29944.54314       765.89514        25.20014
C36  24898389.00413   -112041.19513     -4489.57013        23.40013
C30  24990731.07713   -153548.96913     -4171.07913        19.90013
> 2025 05 03 08 36 04.9999999  0 13                      
G31  21452673.12326   -100204.69926     -2592.63726        38.90026
G18  21128102.51926     21330.97726       525.14526        36.20026
G28  22253408.58625   -155260.09225     -4000.38525        35.20025
G05  23516196.77614    -19743.90814      -535.10514        27.30014
G26  21185298.72314     29342.46414       735.41214        27.20014
G29  21281933.22414   -122215.23514     -3149.59314        24.50014
G20  24654459.27313   -105975.23813     -2863.06413        19.40013
C35  23275448.74226     38633.44626      1121.57126        37.40026
R09  19373118.96915    -25585.69415     -2837.42515        31.10015
C29  21565185.83315    -78357.48615     -2023.84315        30.90015
R10  19888382.75914     30573.81214       764.32414        25.20014
C36  24899032.05913   -116530.26313     -4497.67013        23.20013
C30  24991316.27213   -157702.89513     -4153.44813        19.90013
> 2025 05 03 08 36 05.9999999  0 13                      
G31  21452927.34726   -102791.71726     -2593.19226        38.90026
G18  21127765.55226     21861.84226       524.75126        36.00026
G28  22253927.52725   -159254.76925     -4000.75725        35.20025
G05  23516051.97614    -20269.36814      -530.30314        27.30014
G29  21282292.67514   -125359.31614     -3150.24714        24.70014
G26  21184925.18114     30082.41814       732.37914        26.70014
G20  24654777.95213   -108835.29713     -2866.91713        19.40013
C35  23274997.25526     39760.78326      1121.39726        37.60026
R09  19373401.37315    -28359.18615     -2840.18115        31.20015
C29  21565344.42315    -80379.02715     -2028.48115        30.70015
R10  19888010.71714     31293.84314       764.79814        25.10014
C36  24899657.72613   -121019.72613     -4495.46513        22.90013
C30  24991872.38713   -161852.62213     -4153.43313        20.30013
> 2025 05 03 08 36 06.9999999  0 14                      
G31  21453184.56926   -105379.27526     -2593.68926        38.90026
G18  21127425.58826     22391.69126       524.22626        35.80026
G28  22254446.46725   -163249.68625     -4000.89825        35.10025
G05  23515911.67314    -20790.76414      -525.22714        27.30014
G29  21282654.52514   -128504.68914     -3151.87914        25.20014
G26  21184539.64814     30819.07314       729.14214        26.20014
G20  24655073.54813   -111699.21813     -2871.71313        19.30013
G16  22999802.16813     80175.09413      1927.65913        20.50013
C35  23274542.17026     40887.88926      1121.18026        37.60026
R09  19373695.77015    -31198.38515     -2836.75815        31.40015
C29  21565496.11815    -82400.51415     -2027.26815        30.60015
R10  19887629.38114     32061.16714       766.11314        25.00014
C36  24900277.69613   -125510.02613     -4496.52413        22.70013
C30  24992435.99713   -165998.64913     -4149.98313        20.40013
> 2025 05 03 08 36 08.0000000  0 14                      
G31  21453470.87126   -107967.67826     -2594.68826        38.90026
G18  21127118.00126     22921.26326       523.32126        35.70026
G28  22254998.08525   -167245.44925     -4002.04725        35.00025
G29  21283046.35414   -131649.85114     -3150.91914        27.80014
G05  23515811.84214    -21315.46114      -532.21114        27.40014
G26  21184190.09014     31555.30414       730.15614        25.60014
G16  22999209.77813     82116.64613      1940.11413        20.20013
G20  24655417.11013   -114561.80313     -2867.77913        19.20013
C35  23274120.06226     42014.42726      1120.44226        37.60026
R09  19374018.04615    -34024.59715     -2840.45615        31.50015
C29  21565673.89515    -84423.99315     -2030.28415        30.60015
R10  19887277.72414     32830.77314       762.18614        24.90014
C36  24900945.93413   -129998.67813     -4493.63613        22.50013
C30  24993028.08713   -170140.66513     -4145.81813        20.40013
> 2025 05 03 08 36 09.0000000  0 14                      
G31  21453725.09526   -110556.69626     -2595.18626        38.90026
G18  21126782.23326     23450.29326       522.89426        35.70026
G28  22255522.72225   -171241.55925     -4002.14325        34.90025
G29  21283407.60414   -134796.24514     -3152.87014        29.20014
G05  23515680.23314    -21840.69514      -531.36514        27.40014
G26  21183812.35214     32291.85214       730.84214        25.20014
G16  22998602.39913     84062.04013      1941.45213        20.30013
G20  24655715.70313   -117428.32813     -2874.35613        19.30013
C35  23273668.27526     43140.70226      1120.33326        37.50026
R09  19374313.04215    -36866.85415     -2842.44615        31.50015
C29  21565823.79115    -86447.73515     -2029.68115        30.60015
R10  19886919.77214     33475.29514       758.85114        24.80014
C36  24901582.09313   -134484.72013     -4490.54313        22.40013
C30  24993589.29813   -174286.85313     -4154.08113        20.60013
> 2025 05 03 08 36 10.0000000  0 14                      
G31  21453976.02126   -113146.41026     -2595.92226        38.90026
G18  21126442.26826     23978.51726       521.95926        35.60026
G28  22256047.95925   -175238.09025     -4002.60125        34.80025
G29  21283766.45514   -137944.04914     -3154.37014        29.10014
G05  23515541.42914    -22367.38914      -533.28714        27.40014
G26  21183433.71414     33031.57614       735.44814        24.90014
G16  22997994.12013     86012.50813      1947.13813        20.30013
G20  24656028.68713   -120301.82613     -2882.84513        20.00013
C35  23273213.49026     44266.66026      1119.99026        37.40026
R09  19374615.23315    -39746.54915     -2840.56515        31.50015
C29  21565981.18215    -88473.51215     -2032.60315        30.60015
R10  19886520.44814     34341.00714       759.45514        24.70014
C36  24902199.36613   -138970.26813     -4491.10713        22.40013
C30  24994156.20613   -178439.72413     -4162.02013        20.70013
> 2025 05 03 08 36 11.0000000  0 14                      
G31  21454235.94226   -115736.79626     -2596.58426        38.80026
G18  21126105.90126     24506.43326       521.89726        35.60026
G28  22256577.09225   -179235.11425     -4003.13125        34.70025
G29  21284127.70514   -141093.85014     -3156.66014        28.90014
G05  23515397.82914    -22894.38114      -533.00314        27.30014
G26  21183057.17514     33769.98514       731.88714        24.70014
G20  24656347.96513   -123176.54813     -2881.19413        20.60013
G16  22997377.44713     87968.74213      1953.25413        20.70013
C35  23272761.10326     45392.29526      1119.66226        37.40026
R09  19374899.43615    -42529.20815     -2838.95715        31.50015
C29  21566130.77815    -90500.27015     -2033.05815        30.50015
R10  19886138.51314     35112.90714       760.03414        24.60014
C36  24902832.82813   -143455.15313     -4490.36013        22.50013
C30  24994712.32113   -182596.84413     -4165.04913        20.90013
> 2025 05 03 08 36 12.0000001  0 14                      
G31  21454518.34626   -118327.78126     -2597.14626        38.70026
G18  21125796.21626     25033.61226       520.94826        35.60026
G28  22257130.80925   -183232.62725     -4003.61725        34.50025
G29  21284538.72014   -144243.99014     -3156.16914        28.80014
G05  23515299.19714    -23423.20914      -535.60914        27.30014
G26  21182714.21214     34505.93514       728.85714        24.60014
G20  24656685.83213   -126055.56213     -2887.02213        21.10013
G16  22996796.74913     89927.48013      1954.12413        20.70013
C35  23272337.19626     46517.54326      1119.24326        37.40026
R09  19375223.81215    -45367.64615     -2842.99615        31.40015
C29  21566311.55315    -92528.06115     -2034.11615        30.50015
R10  19885799.14814     35817.68614       766.83814        24.60014
C36  24903485.47613   -147939.13613     -4489.33913        22.50013
C30  24995308.60813   -186759.67013     -4171.48813        20.90013
> 2025 05 03 08 36 12.9999998  0 14                      
G31  21454685.93026   -120919.44926     -2597.87126        38.70026
G18  21125375.90726     25560.22726       520.46826        35.50026
G28  22257565.80825   -187230.50525     -4003.92125        34.40025
G29  21284800.13914   -147392.78614     -3153.98614        28.60014
G05  23515081.84814    -23949.54114      -530.94714        27.10014
G26  21182238.14214     35242.33514       730.76214        24.70014
G20  24656918.17113   -128934.79613     -2885.20413        21.30013
G16  22996093.13613     91886.50713      1953.30613        20.80013
C35  23271794.87226     47642.53826      1119.05826        37.40026
R09  19375417.17815    -48146.48415     -2843.57615        31.30015
C29  21566368.51415    -94552.44215     -2028.48315        30.40015
R10  19885315.88214     36651.36014       758.11614        24.60014
C36  24904019.40613   -152421.64213     -4487.57313        22.50013
C30  24995772.08713   -190928.27613     -4177.30113        20.90013
> 2025 05 03 08 36 13.9999999  0 14                      
G31  21454976.42926   -123512.03226     -2598.90226        38.60026
G18  21125067.12026     26086.05826       519.57626        35.50026
G28  22258118.62525   -191229.03825     -4004.72125        34.30025
G29  21285197.06514   -150542.84914     -3156.55714        28.50014
G05  23514969.42514    -24474.26114      -529.77714        27.00014
G26  21181888.28414     35977.36414       728.47914        24.90014
G20  24657255.43713   -131814.31613     -2885.52513        21.40013
G16  22995509.74013     93847.27713      1955.77813        20.80013
C35  23271369.46626     48767.06026      1118.47626        37.40026
R09  19375748.44815    -51021.59615     -2846.44915        31.10015
C29  21566553.48615    -96578.20415     -2032.26215        30.20015
R10  19884926.75214     37622.32214       755.12914        24.60014
C36  24904674.75213   -156907.22013     -4492.92113        22.50013
C30  24996371.67213   -195094.09613     -4170.23413        20.90013
> 2025 05 03 08 36 14.9999999  0 14                      
G31  21455229.45426   -126105.21326     -2599.34126        38.60026
G18  21124726.55626     26611.29926       519.08226        35.50026
G28  22258634.86825   -195228.13625     -4005.24125        34.20025
G29  21285552.01914   -153691.21914     -3153.38414        28.40014
G05  23514827.62414    -25005.53614      -540.41514        26.90014
G26  21181509.64614     36712.58214       729.44914        24.90014
G20  24657563.62413   -134695.56913     -2887.98013        21.40013
G16  22994908.35613     95805.26213      1950.72613        20.80013
C35  23270920.97726     49891.14826      1118.05926        37.40026
R09  19376051.53915    -53905.87415     -2841.17515        31.00015
C29  21566706.08015    -98603.12115     -2030.30315        30.10015
R10  19884558.00714     38324.05014       749.80314        24.60014
C36  24905296.22213   -161397.53913     -4498.49513        22.40013
C30  24996946.37413   -199251.87013     -4159.55913        21.10013
> 2025 05 03 08 36 15.9999999  0 14                      
G31  21455482.17926   -128699.03926     -2600.00926        38.50026
G18  21124389.29026     27135.92226       518.45026        35.50026
G28  22259161.60325   -199227.58825     -4005.49025        34.10025
G29  21285916.86614   -156839.81014     -3154.56214        28.60014
G05  23514687.32114    -25540.77414      -543.08214        26.90014
G26  21181121.71514     37445.29914       725.60414        25.10014
G20  24657878.70613   -137574.14013     -2883.09013        21.40013
G16  22994301.87613     97757.09813      1942.89813        20.90013
C35  23270467.69026     51014.98626      1117.90226        37.40026
R09  19376350.13215    -56765.70415     -2845.80815        30.90015
C29  21566860.77315   -100627.81715     -2030.39215        30.00015
R10  19884170.97514     39122.64514       757.71414        24.50014
C36  24905915.89313   -165891.56213     -4501.68213        22.40013
C30  24997501.29013   -203403.83413     -4154.86513        21.20013
> 2025 05 03 08 36 17.0000000  0 14                      
G31  21455751.39216   -131293.55716     -2600.67116        38.40016
G18  21124067.91226     27659.97026       517.95126        36.00026
G29  21286294.30515   -159989.10515     -3155.45315        34.40015
G28  22259701.52925   -203227.50025     -4005.94725        34.10025
G05  23514570.40214    -26072.69014      -536.06414        27.00014
G26  21180763.76214     38176.86514       725.18114        26.00014
G16  22993716.98113     99701.87313      1935.43313        21.30013
G20  24658193.78813   -140456.36713     -2889.86213        21.40013
C35  23270024.29726     52138.45426      1117.52726        37.50026
R09  19376662.21615    -59635.50415     -2848.33415        31.70015
C29  21567024.16015   -102654.67915     -2033.70015        30.20015
R10  19883801.33114     39892.21814       761.15614        24.70014
C36  24906557.14913   -170389.64413     -4505.86313        22.40013
C30  24998071.49513   -207554.79513     -4156.21213        21.40013
> 2025 05 03 08 36 18.0000000  0 13                      
G31  21456006.81616   -133888.58916     -2601.16816        38.30016
G18  21123731.84526     28183.43926       517.29826        36.60026
G29  21286655.25526   -163138.29026     -3155.00826        35.80026
G28  22260231.86225   -207227.80925     -4006.38625        34.10025
G05  23514434.89514    -26602.12214      -534.07114        27.30014
G26  21180395.61714     38912.88914       732.37114        26.50014
G16  22993117.69613    101642.00113      1931.92213        21.50013
G20  24658508.87013   -143339.44413     -2889.38113        21.30013
R09  19376944.02116    -62405.94116     -2847.70016        38.10016
C35  23269574.00926     53261.65126      1117.23426        37.70026
C29  21567180.05215   -104680.73215     -2031.47515        30.40015
R10  19883438.58214     40562.67214       755.49914        25.00014
C30  24998627.61013   -211709.05613     -4161.73513        22.00013
> 2025 05 03 08 36 19.0000000  0 14                      
G31  21456267.63526   -136484.67726     -2602.47726        38.10026
G18  21123397.87626     28706.04726       516.31426        37.00026
G29  21287015.60626   -166288.17826     -3156.10126        35.80026
G28  22260750.80325   -211228.99625     -4007.48525        34.30025
G05  23514299.98914    -27135.47914      -541.18314        27.50014
G26  21180019.37814     39645.44114       724.95214        27.10014
G16  22992516.31213    103579.26213      1929.96413        21.70013
G20  24658828.14813   -146223.48513     -2890.38313        21.10013
C35  23269121.02326     54384.22826      1116.45526        38.00026
R09  19377239.01726    -65248.19626     -2849.01726        38.00026
C29  21567330.84815   -106707.92415     -2033.56915        30.90015
C36  24907801.58824                     -4490.92024        25.20024
R10  19883071.03614     41257.53714       758.48114        25.40014
C30  24999194.81813   -215867.45113     -4166.26913        22.10013
> 2025 05 03 08 36 20.0000001  0 14                      
G18  21123089.68926     29228.08326       515.88626        37.30026
G31  21456560.83226   -139081.34426     -2602.81826        38.00026
G29  21287408.33426   -169438.25926     -3156.03726        35.80026
G28  22261306.61825   -215230.46825     -4007.47625        34.50025
G26  21179669.52014     40376.49314       724.43814        27.60014
G05  23514198.95914    -27666.45214      -535.64314        27.60014
G16  22991951.20313    105516.19313      1930.90113        21.70013
G20  24659144.72913   -149106.16913     -2887.86813        21.00013
C35  23268698.01626     55506.53926      1116.36826        38.10026
R09  19377568.48826    -68113.37526     -2849.67726        37.90026
C29  21567507.72515   -108737.09215     -2035.96615        31.20015
C36  24908460.83114     -4487.27414     -4493.08114        26.90014
R10  19882719.68014     42027.14614       757.55614        25.80014
C30  24999776.41513   -220031.91413     -4173.30513        22.10013
> 2025 05 03 08 36 20.9999998  0 14                      
G18  21122662.18526     29749.51426       515.26526        37.70026
G31  21456726.31726   -141678.73926     -2603.62126        37.80026
G29  21287684.44326   -172588.73726     -3156.53826        35.70026
G28  22261742.81625   -219232.47425     -4008.13225        34.70025
G26  21179194.94814     41107.99514       725.86214        27.90014
G05  23513977.71214    -28206.00614      -549.70814        27.60014
G16  22991262.88013    107450.49013      1927.11513        21.50013
G20  24659369.27413   -151983.21713     -2880.09013        20.90013
C35  23268157.79026     56628.51026      1115.98926        38.20026
R09  19377773.54726    -70956.39526     -2850.44826        37.90026
C29  21567572.78015   -110765.36515     -2033.63315        31.30015
C36  24909002.25714     -8976.67614     -4496.27214        26.90014
R10  19882243.01014     42822.68314       752.38014        26.10014
C30  25000262.97813   -224198.76213     -4173.84713        22.00013
> 2025 05 03 08 36 21.9999999  0 14                      
G18  21122356.69726     30270.36226       514.69326        38.00026
G31  21457013.81826   -144276.67926     -2604.07426        37.60026
G29  21288075.07226   -175739.55426     -3156.84826        35.60026
G28  22262299.83125   -223234.86825     -4008.44925        35.00025
G26  21178845.69014     41841.09314       728.03314        28.20014
G05  23513876.38214    -28747.84714      -548.84714        27.50014
G16  22990675.58613    109385.26613      1929.15013        21.40013
G20  24659709.83813   -154855.21413     -2875.33313        20.90013
C35  23267733.58326     57750.12526      1115.62726        38.30026
R09  19378100.92026    -73809.34826     -2851.12926        37.80026
C29  21567758.05215   -112793.84915     -2034.39815        31.30015
R10  19881905.44314     43519.07414       751.75514        26.40014
C36  24909647.71014    -13470.83914     -4502.35014        26.80014
C30  25000845.77513   -228363.67213     -4169.74713        21.90013
> 2025 05 03 08 36 22.9999999  0 14                      
G18  21122020.33026     30790.56326       514.01426        38.30026
G31  21457267.14326   -146875.40626     -2604.98026        37.40026
G28  22262821.17025   -227237.85825     -4009.14825        35.10025
G29  21288439.62026   -178890.68826     -3157.15226        35.50026
G26  21178477.54514     42572.78914       725.12914        28.30014
G05  23513756.76514    -29285.74014      -541.78214        27.50014
G16  22990059.21313    111323.59813      1934.24513        21.40013
G20  24660004.23413   -157724.97413     -2874.50213        20.80013
C35  23267280.59726     58871.48026      1115.41426        38.40026
R09  19378402.21126    -76685.22226     -2852.07926        37.70026
C29  21567911.54615   -114821.78015     -2033.46215        31.30015
R10  19881542.99414     44187.24314       755.16614        26.60014
C36  24910283.86914    -17961.89114     -4495.30214        26.70014
C30  25001408.78513   -232525.82113     -4166.57613        21.80013
> 2025 05 03 08 36 23.9999999  0 14                      
G18  21121681.86426     31310.12726       513.38226        38.50026
G31  21457521.06726   -149474.89426     -2605.73126        37.20026
G28  22263347.90525   -231241.33225     -4009.57625        35.10025
G29  21288803.56825   -182042.28925     -3157.69525        35.30025
G26  21178102.50514     43303.19114       723.89314        28.60014
G05  23513620.06014    -29818.09714      -535.45314        27.40014
G16  22989452.43313    113267.52413      1940.85813        21.40013
G20  24660318.11713   -160592.78713     -2872.70013        20.60013
C35  23266827.61026     59992.28326      1114.71626        38.50026
R09  19378691.21126    -79493.09826     -2853.12926        37.70026
C29  21568065.93915   -116851.99915     -2037.17215        31.30015
R10  19881151.16514     45011.76414       749.84114        26.70014
C36  24910902.04114    -22454.48614     -4499.17414        26.50014
C30  25001968.49713   -236681.50013     -4158.25013        21.60013
> 2025 05 03 08 36 24.9999999  0 14                      
G18  21121349.69426     31828.95526       512.59626        38.80026
G31  21457779.48826   -152075.08126     -2606.39726        37.10026
G28  22263874.64025   -235245.34425     -4010.14225        35.30025
G29  21289165.71725   -185194.30925     -3158.09025        35.20025
G26  21177729.86314     44031.48614       721.37714        28.80014
G05  23513470.46314    -30354.74914      -544.66214        27.30014
G16  22988845.65313    115218.78513      1949.06413        21.40013
G20  24660630.50113   -163457.76813     -2869.42613        20.40013
C35  23266375.82326     61112.70526      1114.42126        38.50026
R09  19378987.70626    -82342.23026     -2853.67526        37.60026
C29  21568216.73415   -118883.15815     -2037.43715        31.30015
R10  19880750.94314     45882.05414       753.70214        26.80014
C36  24911526.20914    -26947.99914     -4499.77814        26.30014
C30  25002519.21613   -240834.44913     -4157.39013        21.50013
> 2025 05 03 08 36 26.0000000  0 14                      
G18  21121041.20726     32347.18326       512.06626        39.00026
G31  21458064.29126   -154675.88526     -2606.97526        36.90026
G28  22264425.95925   -239249.84125     -4010.60025        35.40025
G29  21289556.64725   -188346.55325     -3158.21725        35.10025
G26  21177370.71114     44758.95314       721.19014        28.90014
G05  23513377.52714    -30894.91114      -547.77914        27.40014
G16  22988266.75413    117171.88813      1948.15913        21.40013
G20  24660949.18013   -166322.68113     -2870.74113        20.20013
C35  23265954.01526     62232.92126      1114.30226        38.50026
R09  19379323.77326    -85243.31826     -2854.50426        37.50026
C29  21568392.71215   -120915.58315     -2038.86815        31.30015
R10  19880407.68014     46606.65914       747.53414        26.80014
C36  24912183.95414    -31442.88814     -4501.38414        26.10014
C30  25003104.11113   -244981.41513     -4149.78213        21.30013
> 2025 05 03 08 36 27.0000000  0 14                      
G18  21120707.23926     32865.04726       511.81726        39.10026
G31  21458323.31226   -157277.32826     -2607.62326        36.70026
G28  22264951.79526   -243254.60626     -4010.75926        35.60026
G29  21289921.49425   -191499.07025     -3158.51425        35.00025
G26  21176990.27514     45488.57114       724.82914        29.00014
G05  23513236.62514    -31433.35514      -543.44914        28.00014
G16  22987657.57613    119122.78013      1943.92313        21.30013
G20  24661261.56413   -169187.62413     -2870.81913        20.10013
C35  23265501.32926     63352.74726      1113.82026        38.50026
R09  19379610.37526    -88039.73226     -2855.10826        37.50026
C29  21568550.70315   -122947.72815     -2037.81215        31.20015
R10  19880042.53314     47290.84914       750.71514        26.80014
C36  24912812.31914    -35940.19614     -4504.32414        25.90014
C30  25003670.41913   -249126.17113     -4149.45713        21.20013
> 2025 05 03 08 36 28.0000000  0 14                      
G18  21120367.87426     33382.05726       510.71926        39.10026
G31  21458582.03326   -159879.52026     -2608.42826        36.50026
G28  22265476.13226   -247260.05626     -4011.65226        35.60026
G29  21290286.04225   -194651.94425     -3158.91425        35.00025
G26  21176616.13414     46218.42714       724.11014        29.00014
G05  23513108.61414    -31971.07614      -543.22214        28.20014
G16  22987044.20013    121071.77313      1942.17713        21.50013
G20  24661576.04613   -172054.46813     -2873.65413        19.80013
C35  23265050.14126     64472.31426      1113.62726        38.40026
R09  19379908.36926    -90897.26926     -2855.92626        37.40026
C29  21568707.49515   -124981.61415     -2040.56415        31.10015
R10  19879652.80314     48103.16814       753.48514        26.80014
C36  24913428.69214    -40440.04714     -4506.92914        25.70014
C30  25004235.82813   -253269.57013     -4148.52613        21.10013
> 2025 05 03 08 36 29.0000000  0 14                      
G18  21120034.50426     33898.43526       510.19926        39.00026
G28  22266002.26726   -251265.77926     -4011.72026        35.70026
G31  21458842.85226   -162482.35126     -2609.01226        36.40026
G29  21290646.39225   -197805.26025     -3159.39725        34.90025
G26  21176244.69114     46947.51314       722.83814        29.00014
G05  23512976.70514    -32509.89014      -545.22214        28.40014
G16  22986440.71813    123019.61513      1941.40213        21.50013
G20  24661888.43013   -174923.72213     -2876.32113        19.60013
C35  23264597.15526     65591.47126      1113.14126        38.40026
C29  21568857.99015   -127013.79415     -2037.13615        31.10015
R09  19380208.46116    -93765.50416     -2858.02516        36.70016
R10  19879268.76914     48887.26614       747.16114        26.80014
C36  24914063.95214    -44940.06314     -4505.90614        25.50014
C30  25004795.84013   -257411.46513     -4146.95013        21.00013
> 2025 05 03 08 36 30.0000001  0 14                      
G31  21459135.74926   -165086.10626     -2610.07926        36.20026
G28  22266558.08326   -255272.31326     -4012.80026        35.70026
G29  21291034.02425   -200958.91125     -3159.67925        34.80025
G26  21175895.73214     47675.67514       721.83614        29.00014
G05  23512865.18214    -33051.95914      -549.56014        28.50014
G18  21119728.11616     34414.21316       508.86516        37.00016
G16  22985858.52113    124964.56513      1937.64013        22.20013
G20  24662230.79313   -177798.03213     -2882.69813        19.50013
C35  23264178.64426     66710.08126      1112.52526        38.40026
C29  21569039.66515   -129045.87115     -2037.83415        31.50015
R09  19380536.43415    -96621.51315     -2861.66115        35.10015
R10  19878917.41214     49656.88114       749.30614        26.80014
C36  24914712.10414    -49436.06914     -4499.80714        25.30014
C30  25005395.72513   -261565.47413     -4165.87413        21.20013
> 2025 05 03 08 36 30.9999998  0 13                      
G31  21459301.53526   -167690.33526     -2610.32626        36.10026
G28  22266995.48026   -259279.17126     -4012.87926        35.60026
G29  21291306.23525   -204113.00325     -3160.17325        34.70025
G26  21175436.15114     48403.22514       721.37914        29.10014
G05  23512632.54314    -33595.66614      -550.38914        28.90014
G16  22985162.40313    126905.33513      1932.81413        22.90013
G20  24662467.92913   -180678.95213     -2890.08613        19.90013
C35  23263637.21926     67828.48926      1112.49726        38.50026
C29  21569108.31715   -131078.19315     -2038.25315        31.50015
R09  19380745.98915    -99486.69215     -2859.87515        33.50015
R10  19878457.53014     50363.94514       750.71614        27.00014
C36  24915254.72814    -53929.29014     -4497.63514        25.20014
C30  25005872.69513   -265730.71713     -4176.66613        22.10013
> 2025 05 03 08 36 31.9999999  0 14                      
G28  22267549.49626   -263286.70126     -4013.72726        35.50026
G31  21459590.83426   -170295.43626     -2611.39926        35.90026
G29  21291701.36225   -207267.31625     -3160.28525        34.50025
G18  21118998.72115     35433.85315       506.59015        32.60015
G26  21175094.38714     49128.06414       717.62114        29.20014
G05  23512535.11114    -34140.92614      -551.90114        28.90014
G16  22984576.30913    128846.62213      1935.68213        23.40013
G20  24662807.59413   -183563.50613     -2892.23313        19.90013
C35  23263211.81426     68946.33926      1111.75926        38.50026
C29  21569290.59115   -133111.74015     -2039.96815        31.90015
R09  19381083.25515   -102394.65715     -2861.77215        32.10015
R10  19878128.95814     51011.52214       749.80714        27.00014
C36  24915907.97614    -58418.27714     -4492.67614        25.10014
C30  25006456.69013   -269904.29113     -4183.54713        22.10013
> 2025 05 03 08 36 33.0000000  0 14                      
G28  22268084.62626   -267294.62026     -4013.91826        35.50026
G31  21459864.54526   -172901.09326     -2611.74126        35.70026
G18  21118677.94315     35947.71515       508.03515        33.00015
G29  21292079.40025   -210422.20725     -3160.98525        34.40025
G26  21174728.04114     49855.99814       723.67114        29.40014
G05  23512419.39114    -34687.12814      -552.48014        28.90014
G16  22983978.52313    130792.42513      1942.25013        23.40013
G20  24663132.56913   -186449.92413     -2893.15613        19.90013
C35  23262772.61826     70063.94126      1111.72226        38.50026
C29  21569456.37615   -135145.53215     -2039.66915        32.00015
R09  19381377.65115   -105170.47715     -2859.84415        31.20015
R10  19877756.01614     51798.63214       749.52714        27.00014
C36  24916550.43114    -62909.09314     -4497.48214        25.40014
C30  25007031.99213   -274084.43413     -4189.17813        22.00013
> 2025 05 03 08 36 34.0000000  0 14                      
G28  22268607.46426   -271303.13126     -4014.68626        35.50026
G18  21118341.27715     36460.81515       506.83715        34.80015
G31  21460114.87216   -175507.59916     -2612.81016        35.50016
G29  21292442.74925   -213577.38325     -3161.19725        34.30025
G26  21174356.89815     50581.27715       718.07015        29.60015
G05  23512291.08014    -35230.04514      -547.15614        28.90014
G16  22983369.94413    132740.87313      1943.88713        23.40013
G20  24663459.34213   -189339.24513     -2896.65113        20.10013
C35  23262321.13026     71181.14826      1111.18026        38.50026
C29  21569614.06715   -137179.74615     -2040.25115        32.10015
R09  19381675.64515   -108027.25215     -2860.31815        30.70015
R10  19877374.38014     52569.00414       741.67814        27.00014
C36  24917171.30114    -67403.15314     -4501.50714        26.10014
C30  25007601.29813   -278266.22013     -4188.43413        21.90013
> 2025 05 03 08 36 35.0000000  0 13                      
G28  22269140.79526   -275312.20526     -4015.21526        35.50026
G31  21460377.79025   -178114.92825     -2613.60225        35.40025
G18  21118004.31015     36973.41615       506.48715        34.80015
G29  21292802.50025   -216733.06825     -3161.80025        34.20025
G26  21173984.55615     51309.05315       723.16015        29.80015
G05  23512157.97214    -35773.12414      -549.02314        29.10014
G16  22982772.15813    134686.77213      1938.76013        23.40013
G20  24663770.82713   -192229.02113     -2895.86413        20.10013
C35  23261869.64326     72297.69526      1110.40826        38.50026
C29  21569764.26315   -139214.41015     -2040.69715        32.10015
R09  19381961.94715   -110822.90515     -2878.46515        30.30015
C36  24917800.26614    -71895.57314     -4497.40614        26.10014
C30  25008166.40713   -282444.30013     -4182.03213        21.80013
> 2025 05 03 08 36 36.0000000  0 13                      
G28  22269659.13625   -279321.33825     -4015.02325        35.40025
G31  21460637.71025   -180723.26625     -2614.70325        35.20025
G18  21117674.23815     37487.37015       508.76915        34.60015
G29  21293167.04715   -219890.20915     -3163.73115        34.00015
G26  21173610.11515     52035.77815       720.33615        29.80015
G05  23512026.36314    -36318.68614      -552.66614        29.10014
G16  22982160.58114    136629.79114      1935.71414        23.80014
G20  24664079.31313   -195121.98113     -2900.41413        20.10013
C35  23261417.55626     73414.32226      1110.85526        38.40026
C29  21569915.35815   -141248.95715     -2040.29715        32.10015
R09  19382265.93715   -113713.29615     -2881.78715        29.90015
C36  24918433.72714    -76392.24314     -4504.60114        26.30014
C30  25008727.01913   -286617.91313     -4177.18713        21.60013
> 2025 05 03 08 36 37.0000001  0 15                      
G28  22270218.54925   -283331.10325     -4016.69225        35.40025
G31  21460922.51325   -183332.99725     -2615.53925        35.10025
G29  21293559.47615   -223047.64715     -3163.44615        33.80015
G26  21173270.15015     52758.92115       715.48815        30.00015
G05  23511922.63514    -36866.72014      -555.13314        29.30014
G18  21117372.94715     37998.54415       503.91915        33.50015
G16  22981589.17714    138571.39014      1935.02414        24.30014
G20  24664422.87513   -198019.42013     -2905.53913        20.00013
C35  23260998.44626     74530.32726      1109.88326        38.30026
C29  21570102.12915   -143284.88415     -2042.42615        32.30015
R09  19382613.69615   -116674.73815     -2854.15915        29.50015
C36  24919093.87014    -80891.12914     -4505.80114        26.30014
R10  19876257.05424                       741.47824        25.10024
C13  38735997.62713        68.63813         6.51513        22.80013
C30  25009323.90513   -290784.08513     -4168.25813        21.50013
> 2025 05 03 08 36 37.9999998  0 15                      
G28  22270655.04625   -287341.57725     -4016.43725        35.40025
G18  21116944.84315     38509.48015       504.95515        32.90015
G31  21461093.09415   -185941.61015     -2614.91615        35.00015
G29  21293839.48215   -226204.34215     -3162.18515        33.60015
G26  21172803.97315     53481.52815       716.47415        30.20015
G05  23511698.09014    -37414.86214      -554.05814        29.40014
