NMEA,$GPGGA,083521.000,4503.5915,N,00741.8393,E,1,11,1.0,276.4,M,48.2,M,,*50,1746261320000
NMEA,$PSAMSA,083521.000,4503.5915,N,00741.8393,E,1,M,,*6C,1746261320000
NMEA,$GPGLL,4503.5915,N,00741.8393,E,083521.000,A,A*5D,1746261320000
NMEA,$GPVTG,358.4,T,,M,0.0,N,0.0,K,A*07,1746261320000
NMEA,$GPGSV,2,1,08,05,21,070,28,16,23,301,28,18,60,165,29,20,10,036,19*7F,1746261320000
NMEA,$GPGSV,2,2,08,26,51,302,32,28,39,211,33,29,53,056,32,31,50,247,39*70,1746261320000
NMEA,$GLGSV,1,1,02,73,68,149,27,74,60,321,27*64,1746261320000
NMEA,$BDGSV,1,1,03,229,75,057,31,230,20,054,26,235,50,232,39*6E,1746261320000
NMEA,$GPGSA,A,3,18,29,26,31,28,05,20,,,,,,1.8,1.0,1.4*36,1746261320000
NMEA,$GNGSA,A,3,73,74,,,,,,,,,,,1.8,1.0,1.4*26,1746261320000
NMEA,$BDGSA,A,3,229,230,,,,,,,,,,,1.8,1.0,1.4*26,1746261320000
NMEA,$GPRMC,083521.000,A,4503.5915,N,00741.8393,E,0.0,358.4,030525,,,A*61,1746261320000
NMEA,$PSAMCLK,2364,54933900,11,9749907,840589,549339000*4D,1746261320000
NMEA,$PSAMCLK,2364,54933900,11,9749907,840589,549339000*4D,1746261320000
NMEA,$GPGGA,083522.000,4503.5915,N,00741.8393,E,1,10,1.0,276.4,M,48.2,M,,*52,1746261321000
NMEA,$PSAMSA,083522.000,4503.5915,N,00741.8393,E,0,M,,*6E,1746261321000
NMEA,$GPGLL,4503.5915,N,00741.8393,E,083522.000,A,A*5E,1746261321000
NMEA,$GPVTG,358.4,T,,M,0.0,N,0.0,K,A*07,1746261321000
NMEA,$GPGSV,2,1,08,05,21,070,28,16,23,301,28,18,60,165,29,20,10,036,19*7F,1746261321000
NMEA,$GPGSV,2,2,08,26,51,302,32,28,39,211,33,29,53,056,32,31,50,247,39*70,1746261321000
NMEA,$GLGSV,1,1,02,73,68,149,27,74,60,321,27*64,1746261321000
NMEA,$BDGSV,1,1,04,229,75,057,31,230,20,054,26,235,50,232,39,236,21,151,19*60,1746261321000
NMEA,$GPGSA,A,3,18,29,26,31,28,16,05,,,,,,1.8,1.0,1.6*31,1746261321000
NMEA,$GNGSA,A,3,73,74,,,,,,,,,,,1.8,1.0,1.6*24,1746261321000
NMEA,$BDGSA,A,3,229,,,,,,,,,,,,1.8,1.0,1.6*15,1746261321000
NMEA,$GPRMC,083522.000,A,4503.5915,N,00741.8393,E,0.0,358.4,030525,,,A*62,1746261321000
NMEA,$PSAMCLK,2364,54934000,10,9750024,902464,549340000*49,1746261321000
NMEA,$PSAMCLK,2364,54934000,10,9750024,902464,549340000*49,1746261321000
NMEA,$GPGGA,083523.000,4503.5915,N,00741.8393,E,1,13,0.8,276.4,M,48.2,M,,*59,1746261322000
NMEA,$PSAMSA,083523.000,4503.5915,N,00741.8393,E,0,M,,*6F,1746261322000
NMEA,$GPGLL,4503.5915,N,00741.8393,E,083523.000,A,A*5F,1746261322000
NMEA,$GPVTG,358.4,T,,M,0.0,N,0.0,K,A*07,1746261322000
NMEA,$GPGSV,2,1,08,05,21,070,28,16,23,301,27,18,60,165,31,20,10,036,19*79,1746261322000
NMEA,$GPGSV,2,2,08,26,51,302,32,28,39,211,33,29,53,056,32,31,50,247,39*70,1746261322000
NMEA,$GLGSV,1,1,02,73,68,149,31,74,60,321,28*6C,1746261322000
NMEA,$BDGSV,1,1,04,229,75,057,31,230,20,054,26,235,50,232,39,236,21,151,21*6B,1746261322000
NMEA,$GPGSA,A,3,18,29,26,31,28,16,05,20,,,,,1.4,0.8,1.0*30,1746261322000
NMEA,$GNGSA,A,3,73,74,,,,,,,,,,,1.4,0.8,1.0*27,1746261322000
NMEA,$BDGSA,A,3,229,230,236,,,,,,,,,,1.4,0.8,1.0*10,1746261322000
NMEA,$GPRMC,083523.000,A,4503.5915,N,00741.8393,E,0.0,358.4,030525,,,A*63,1746261322000
NMEA,$PSAMCLK,2364,54934100,13,9750100,964352,549341000*4F,1746261322000
NMEA,$PSAMCLK,2364,54934100,13,9750100,964352,549341000*4F,1746261322000
NMEA,$GPGGA,083524.000,4503.5915,N,00741.8393,E,1,11,1.0,276.4,M,48.2,M,,*55,1746261323000
NMEA,$PSAMSA,083524.000,4503.5915,N,00741.8393,E,0,M,,*68,1746261323000
NMEA,$GPGLL,4503.5915,N,00741.8393,E,083524.000,A,A*58,1746261323000
NMEA,$GPVTG,358.4,T,,M,0.0,N,0.0,K,A*07,1746261323000
NMEA,$GPGSV,2,1,08,05,21,070,28,16,23,301,27,18,60,165,39,20,10,036,19*71,1746261323000
NMEA,$GPGSV,2,2,08,26,51,302,32,28,39,211,33,29,53,056,32,31,50,247,39*70,1746261323000
NMEA,$GLGSV,1,1,02,73,68,149,36,74,60,321,28*6B,1746261323000
NMEA,$BDGSV,1,1,04,229,75,057,32,230,20,054,26,235,50,232,39,236,21,151,24*6D,1746261323000
NMEA,$GPGSA,A,3,18,29,26,31,28,16,20,,,,,,1.6,1.0,1.4*3A,1746261323000
NMEA,$GNGSA,A,3,73,74,,,,,,,,,,,1.6,1.0,1.4*28,1746261323000
NMEA,$BDGSA,A,3,229,230,,,,,,,,,,,1.6,1.0,1.4*28,1746261323000
NMEA,$GPRMC,083524.000,A,4503.5915,N,00741.8393,E,0.0,358.4,030525,,,A*64,1746261323000
NMEA,$PSAMCLK,2364,54934200,11,9750120,1026240,549342000*73,1746261323000
NMEA,$PSAMCLK,2364,54934200,11,9750120,1026240,549342000*73,1746261323000
NMEA,$GPGGA,083525.000,4503.5915,N,00741.8393,E,1,13,0.8,276.4,M,48.2,M,,*5F,1746261324000
NMEA,$PSAMSA,083525.000,4503.5915,N,00741.8393,E,1,M,,*68,1746261324000
NMEA,$GPGLL,4503.5915,N,00741.8393,E,083525.000,A,A*59,1746261324000
NMEA,$GPVTG,358.4,T,,M,0.0,N,0.0,K,A*07,1746261324000
NMEA,$GPGSV,2,1,08,05,21,070,28,16,23,301,27,18,60,165,39,20,10,036,19*71,1746261324000
NMEA,$GPGSV,2,2,08,26,51,302,32,28,39,211,33,29,53,056,32,31,50,247,39*70,1746261324000
NMEA,$GLGSV,1,1,02,73,68,149,36,74,60,321,28*6B,1746261324000
NMEA,$BDGSV,1,1,04,229,75,057,33,230,20,054,26,235,50,232,39,236,21,151,24*6C,1746261324000
NMEA,$GPGSA,A,3,18,29,26,31,28,16,05,20,,,,,1.4,0.8,1.0*30,1746261324000
NMEA,$GNGSA,A,3,73,74,,,,,,,,,,,1.4,0.8,1.0*27,1746261324000
NMEA,$BDGSA,A,3,229,230,236,,,,,,,,,,1.4,0.8,1.0*10,1746261324000
NMEA,$GPRMC,083525.000,A,4503.5915,N,00741.8393,E,0.0,358.4,030525,,,A*65,1746261324000
NMEA,$PSAMCLK,2364,54934300,13,9750143,1088129,549343000*7C,1746261324000
NMEA,$PSAMCLK,2364,54934300,13,9750143,1088129,549343000*7C,1746261324000
NMEA,$GPGGA,083526.000,4503.5915,N,00741.8393,E,1,12,0.8,276.4,M,48.2,M,,*5D,1746261325000
NMEA,$PSAMSA,083526.000,4503.5915,N,00741.8393,E,1,M,,*6B,1746261325000
NMEA,$GPGLL,4503.5915,N,00741.8393,E,083526.000,A,A*5A,1746261325000
NMEA,$GPVTG,358.4,T,,M,0.0,N,0.0,K,A*07,1746261325000
NMEA,$GPGSV,2,1,08,05,21,070,28,16,23,301,27,18,60,165,39,20,10,036,19*71,1746261325000
NMEA,$GPGSV,2,2,08,26,51,302,32,28,39,211,33,29,53,056,33,31,50,247,39*71,1746261325000
NMEA,$GLGSV,1,1,02,73,68,149,36,74,60,321,28*6B,1746261325000
NMEA,$BDGSV,1,1,04,229,75,057,34,230,20,054,26,235,50,232,39,236,21,151,26*69,1746261325000
NMEA,$GPGSA,A,3,18,29,26,31,28,16,20,,,,,,1.4,0.8,1.2*37,1746261325000
NMEA,$GNGSA,A,3,73,74,,,,,,,,,,,1.4,0.8,1.2*25,1746261325000
NMEA,$BDGSA,A,3,229,230,236,,,,,,,,,,1.4,0.8,1.2*12,1746261325000
NMEA,$GPRMC,083526.000,A,4503.5915,N,00741.8393,E,0.0,358.4,030525,,,A*66,1746261325000
NMEA,$PSAMCLK,2364,54934400,12,9750167,1150019,549344000*7D,1746261325000
NMEA,$PSAMCLK,2364,54934400,12,9750167,1150019,549344000*7D,1746261325000
NMEA,$GPGGA,083527.000,4503.5915,N,00741.8393,E,1,11,0.8,276.4,M,48.2,M,,*5F,1746261326000
NMEA,$PSAMSA,083527.000,4503.5915,N,00741.8393,E,1,M,,*6A,1746261326000
NMEA,$GPGLL,4503.5915,N,00741.8393,E,083527.000,A,A*5B,1746261326000
NMEA,$GPVTG,358.4,T,,M,0.0,N,0.0,K,A*07,1746261326000
NMEA,$GPGSV,2,1,08,05,21,070,28,16,23,301,27,18,60,165,39,20,10,036,20*7B,1746261326000
NMEA,$GPGSV,2,2,08,26,51,302,32,28,39,211,33,29,53,056,33,31,50,247,39*71,1746261326000
NMEA,$GLGSV,1,1,02,73,68,149,36,74,60,321,27*64,1746261326000
NMEA,$BDGSV,1,1,04,229,75,057,34,230,20,054,26,235,50,232,38,236,21,151,33*6C,1746261326000
NMEA,$GPGSA,A,3,18,29,26,31,28,05,20,,,,,,1.6,0.8,1.2*37,1746261326000
NMEA,$GNGSA,A,3,73,74,,,,,,,,,,,1.6,0.8,1.2*27,1746261326000
NMEA,$BDGSA,A,3,229,236,,,,,,,,,,,1.6,0.8,1.2*21,1746261326000
NMEA,$GPRMC,083527.000,A,4503.5915,N,00741.8393,E,0.0,358.4,030525,,,A*67,1746261326000
NMEA,$PSAMCLK,2364,54934500,11,9750216,1211909,549345000*75,1746261326000
NMEA,$PSAMCLK,2364,54934500,11,9750216,1211909,549345000*75,1746261326000
NMEA,$GPGGA,083528.000,4503.5915,N,00741.8393,E,1,11,0.8,276.4,M,48.2,M,,*50,1746261327000
NMEA,$PSAMSA,083528.000,4503.5915,N,00741.8393,E,1,M,,*65,1746261327000
NMEA,$GPGLL,4503.5915,N,00741.8393,E,083528.000,A,A*54,1746261327000
NMEA,$GPVTG,358.4,T,,M,0.0,N,0.0,K,A*07,1746261327000
NMEA,$GPGSV,2,1,08,05,21,070,28,16,23,301,27,18,60,165,39,20,10,036,20*7B,1746261327000
NMEA,$GPGSV,2,2,08,26,51,302,32,28,39,211,33,29,53,056,33,31,50,247,39*71,1746261327000
NMEA,$GLGSV,1,1,02,73,68,149,36,74,60,321,27*64,1746261327000
NMEA,$BDGSV,1,1,04,229,75,057,34,230,20,054,26,235,50,232,38,236,21,151,33*6C,1746261327000
NMEA,$GPGSA,A,3,18,29,26,31,28,05,20,,,,,,1.6,0.8,1.2*37,1746261327000
NMEA,$GNGSA,A,3,73,74,,,,,,,,,,,1.6,0.8,1.2*27,1746261327000
NMEA,$BDGSA,A,3,229,236,,,,,,,,,,,1.6,0.8,1.2*21,1746261327000
NMEA,$GPRMC,083528.000,A,4503.5915,N,00741.8393,E,0.0,358.4,030525,,,A*68,1746261327000
NMEA,$PSAMCLK,2364,54934600,11,9750227,1273799,549346000*74,1746261327000
NMEA,$PSAMCLK,2364,54934600,11,9750227,1273799,549346000*74,1746261327000
NMEA,$GPGGA,083529.000,4503.5915,N,00741.8393,E,1,11,0.8,276.4,M,48.2,M,,*51,1746261328000
NMEA,$PSAMSA,083529.000,4503.5915,N,00741.8393,E,1,M,,*64,1746261328000
NMEA,$GPGLL,4503.5915,N,00741.8393,E,083529.000,A,A*55,1746261328000
NMEA,$GPVTG,358.4,T,,M,0.0,N,0.0,K,A*07,1746261328000
NMEA,$GPGSV,2,1,08,05,21,070,28,16,23,301,27,18,60,165,39,20,10,036,20*7B,1746261328000
NMEA,$GPGSV,2,2,08,26,51,302,32,28,39,211,33,29,53,056,33,31,50,247,39*71,1746261328000
NMEA,$GLGSV,1,1,02,73,68,149,36,74,60,321,27*64,1746261328000
NMEA,$BDGSV,1,1,04,229,75,057,34,230,20,054,25,235,50,232,38,236,21,151,33*6F,1746261328000
NMEA,$GPGSA,A,3,18,29,26,31,28,05,20,,,,,,1.6,0.8,1.2*37,1746261328000
NMEA,$GNGSA,A,3,73,74,,,,,,,,,,,1.6,0.8,1.2*27,1746261328000
NMEA,$BDGSA,A,3,229,236,,,,,,,,,,,1.6,0.8,1.2*21,1746261328000
NMEA,$GPRMC,083529.000,A,4503.5915,N,00741.8393,E,0.0,358.4,030525,,,A*69,1746261328000
NMEA,$PSAMCLK,2364,54934700,11,9750244,1335689,549347000*72,1746261328000
NMEA,$PSAMCLK,2364,54934700,11,9750244,1335689,549347000*72,1746261328000
NMEA,$GPGGA,083530.000,4503.5915,N,00741.8393,E,1,13,0.8,276.4,M,48.2,M,,*5B,1746261329000
NMEA,$PSAMSA,083530.000,4503.5915,N,00741.8393,E,1,M,,*6C,1746261329000
NMEA,$GPGLL,4503.5915,N,00741.8393,E,083530.000,A,A*5D,1746261329000
NMEA,$GPVTG,358.4,T,,M,0.0,N,0.0,K,A*07,1746261329000
NMEA,$GPGSV,2,1,08,05,21,070,28,16,23,301,26,18,60,165,40,20,10,036,20*74,1746261329000
NMEA,$GPGSV,2,2,08,26,51,302,31,28,39,211,33,29,53,056,33,31,50,247,39*72,1746261329000
NMEA,$GLGSV,1,1,02,73,68,149,36,74,60,321,27*64,1746261329000
NMEA,$BDGSV,1,1,04,229,75,057,35,230,20,054,25,235,50,232,38,236,21,151,33*6E,1746261329000
NMEA,$GPGSA,A,3,18,29,26,31,28,16,05,20,,,,,1.4,0.8,1.0*30,1746261329000
NMEA,$GNGSA,A,3,73,74,,,,,,,,,,,1.4,0.8,1.0*27,1746261329000
NMEA,$BDGSA,A,3,229,230,236,,,,,,,,,,1.4,0.8,1.0*10,1746261329000
NMEA,$GPRMC,083530.000,A,4503.5915,N,00741.8393,E,0.0,358.4,030525,,,A*61,1746261329000
NMEA,$PSAMCLK,2364,54934800,13,9750279,1397580,549348000*7C,1746261329000
NMEA,$PSAMCLK,2364,54934800,13,9750279,1397580,549348000*7C,1746261329000
NMEA,$GPGGA,083531.000,4503.5915,N,00741.8393,E,1,13,0.8,276.4,M,48.2,M,,*5A,1746261330000
NMEA,$PSAMSA,083531.000,4503.5915,N,00741.8393,E,1,M,,*6D,1746261330000
NMEA,$GPGLL,4503.5915,N,00741.8393,E,083531.000,A,A*5C,1746261330000
NMEA,$GPVTG,358.4,T,,M,0.0,N,0.0,K,A*07,1746261330000
NMEA,$GPGSV,2,1,08,05,21,070,28,16,23,301,26,18,60,165,40,20,10,036,20*74,1746261330000
NMEA,$GPGSV,2,2,08,26,51,302,31,28,39,211,34,29,53,056,33,31,50,246,39*74,1746261330000
NMEA,$GLGSV,1,1,02,73,68,149,36,74,60,321,27*64,1746261330000
NMEA,$BDGSV,1,1,04,229,75,057,35,230,20,054,24,235,50,232,38,236,21,151,33*6F,1746261330000
NMEA,$GPGSA,A,3,18,29,26,31,28,16,05,20,,,,,1.4,0.8,1.0*30,1746261330000
NMEA,$GNGSA,A,3,73,74,,,,,,,,,,,1.4,0.8,1.0*27,1746261330000
NMEA,$BDGSA,A,3,229,230,236,,,,,,,,,,1.4,0.8,1.0*10,1746261330000
NMEA,$GPRMC,083531.000,A,4503.5915,N,00741.8393,E,0.0,358.4,030525,,,A*60,1746261330000
NMEA,$PSAMCLK,2364,54934900,13,9750301,1459471,549349000*78,1746261330000
NMEA,$PSAMCLK,2364,54934900,13,9750301,1459471,549349000*78,1746261330000
NMEA,$GPGGA,083532.000,4503.5915,N,00741.8393,E,1,11,0.8,276.4,M,48.2,M,,*5B,1746261331000
NMEA,$PSAMSA,083532.000,4503.5915,N,00741.8393,E,1,M,,*6E,1746261331000
NMEA,$GPGLL,4503.5915,N,00741.8393,E,083532.000,A,A*5F,1746261331000
NMEA,$GPVTG,358.4,T,,M,0.0,N,0.0,K,A*07,1746261331000
NMEA,$GPGSV,2,1,08,05,21,070,28,16,23,301,26,18,60,165,40,20,10,036,20*74,1746261331000
NMEA,$GPGSV,2,2,08,26,51,302,31,28,39,211,34,29,53,056,33,31,50,246,39*74,1746261331000
NMEA,$GLGSV,1,1,02,73,68,149,36,74,60,321,27*64,1746261331000
NMEA,$BDGSV,1,1,04,229,75,057,35,230,20,054,24,235,50,232,38,236,21,151,33*6F,1746261331000
NMEA,$GPGSA,A,3,18,29,26,31,28,16,20,,,,,,1.4,0.8,1.2*37,1746261331000
NMEA,$GNGSA,A,3,73,,,,,,,,,,,,1.4,0.8,1.2*26,1746261331000
NMEA,$BDGSA,A,3,229,230,236,,,,,,,,,,1.4,0.8,1.2*12,1746261331000
NMEA,$GPRMC,083532.000,A,4503.5915,N,00741.8393,E,0.0,358.4,030525,,,A*63,1746261331000
NMEA,$PSAMCLK,2364,54935000,11,9750287,1521361,549350000*7D,1746261331000
NMEA,$PSAMCLK,2364,54935000,11,9750287,1521361,549350000*7D,1746261331000
NMEA,$GPGGA,083533.000,4503.5915,N,00741.8393,E,1,12,0.8,276.4,M,48.2,M,,*59,1746261332000
NMEA,$PSAMSA,083533.000,4503.5915,N,00741.8393,E,1,M,,*6F,1746261332000
NMEA,$GPGLL,4503.5915,N,00741.8393,E,083533.000,A,A*5E,1746261332000
NMEA,$GPVTG,358.4,T,,M,0.0,N,0.0,K,A*07,1746261332000
NMEA,$GPGSV,2,1,08,05,21,070,27,16,23,301,26,18,60,165,40,20,10,036,20*7B,1746261332000
NMEA,$GPGSV,2,2,08,26,51,302,31,28,39,211,34,29,53,056,33,31,50,246,39*74,1746261332000
NMEA,$GLGSV,1,1,02,73,68,149,36,74,60,321,27*64,1746261332000
NMEA,$BDGSV,1,1,04,229,75,057,35,230,20,054,24,235,50,232,38,236,21,151,33*6F,1746261332000
NMEA,$GPGSA,A,3,18,29,26,31,28,16,05,,,,,,1.4,0.8,1.2*30,1746261332000
NMEA,$GNGSA,A,3,73,74,,,,,,,,,,,1.4,0.8,1.2*25,1746261332000
NMEA,$BDGSA,A,3,229,230,236,,,,,,,,,,1.4,0.8,1.2*12,1746261332000
NMEA,$GPRMC,083533.000,A,4503.5915,N,00741.8393,E,0.0,358.4,030525,,,A*62,1746261332000
NMEA,$PSAMCLK,2364,54935100,12,9750308,1583252,549351000*71,1746261332000
NMEA,$PSAMCLK,2364,54935100,12,9750308,1583252,549351000*71,1746261332000
NMEA,$GPGGA,083534.000,4503.5915,N,00741.8393,E,1,13,0.8,276.4,M,48.2,M,,*5F,1746261333000
NMEA,$PSAMSA,083534.000,4503.5915,N,00741.8393,E,1,M,,*68,1746261333000
NMEA,$GPGLL,4503.5915,N,00741.8393,E,083534.000,A,A*59,1746261333000
NMEA,$GPVTG,358.4,T,,M,0.0,N,0.0,K,A*07,1746261333000
NMEA,$GPGSV,2,1,08,05,21,070,27,16,23,301,26,18,60,165,40,20,10,036,20*7B,1746261333000
NMEA,$GPGSV,2,2,08,26,51,302,31,28,39,211,34,29,53,056,33,31,50,246,39*74,1746261333000
NMEA,$GLGSV,1,1,02,73,68,149,36,74,60,321,27*64,1746261333000
NMEA,$BDGSV,1,1,04,229,75,057,35,230,20,054,23,235,50,232,37,236,21,151,32*66,1746261333000
NMEA,$GPGSA,A,3,18,29,26,31,28,16,05,20,,,,,1.4,0.8,1.0*30,1746261333000
NMEA,$GNGSA,A,3,73,74,,,,,,,,,,,1.4,0.8,1.0*27,1746261333000
NMEA,$BDGSA,A,3,229,230,236,,,,,,,,,,1.4,0.8,1.0*10,1746261333000
NMEA,$GPRMC,083534.000,A,4503.5915,N,00741.8393,E,0.0,358.4,030525,,,A*65,1746261333000
NMEA,$PSAMCLK,2364,54935200,13,9750300,1645143,549352000*72,1746261333000
NMEA,$PSAMCLK,2364,54935200,13,9750300,1645143,549352000*72,1746261333000
NMEA,$GPGGA,083535.000,4503.5915,N,00741.8393,E,1,11,0.8,276.4,M,48.2,M,,*5C,1746261334000
NMEA,$PSAMSA,083535.000,4503.5915,N,00741.8393,E,1,M,,*69,1746261334000
NMEA,$GPGLL,4503.5915,N,00741.8393,E,083535.000,A,A*58,1746261334000
NMEA,$GPVTG,358.4,T,,M,0.0,N,0.0,K,A*07,1746261334000
NMEA,$GPGSV,2,1,08,05,21,070,27,16,23,301,26,18,60,165,40,20,10,036,20*7B,1746261334000
NMEA,$GPGSV,2,2,08,26,51,302,31,28,39,211,34,29,53,056,32,31,50,246,39*75,1746261334000
NMEA,$GLGSV,1,1,02,73,68,149,36,74,60,321,27*64,1746261334000
NMEA,$BDGSV,1,1,04,229,75,057,34,230,20,054,23,235,50,232,37,236,21,151,32*67,1746261334000
NMEA,$GPGSA,A,3,18,26,31,28,16,05,20,,,,,,1.6,0.8,1.4*3D,1746261334000
NMEA,$GNGSA,A,3,73,74,,,,,,,,,,,1.6,0.8,1.4*21,1746261334000
NMEA,$BDGSA,A,3,230,236,,,,,,,,,,,1.6,0.8,1.4*2F,1746261334000
NMEA,$GPRMC,083535.000,A,4503.5915,N,00741.8393,E,0.0,358.4,030525,,,A*64,1746261334000
NMEA,$PSAMCLK,2364,54935300,11,9750315,1707034,549353000*72,1746261334000
NMEA,$PSAMCLK,2364,54935300,11,9750315,1707034,549353000*72,1746261334000
NMEA,$GPGGA,083536.000,4503.5915,N,00741.8393,E,1,13,0.8,276.4,M,48.2,M,,*5D,1746261335000
NMEA,$PSAMSA,083536.000,4503.5915,N,00741.8393,E,1,M,,*6A,1746261335000
NMEA,$GPGLL,4503.5915,N,00741.8393,E,083536.000,A,A*5B,1746261335000
NMEA,$GPVTG,358.4,T,,M,0.0,N,0.0,K,A*07,1746261335000
NMEA,$GPGSV,2,1,08,05,21,070,27,16,23,301,26,18,60,165,39,20,10,036,20*75,1746261335000
NMEA,$GPGSV,2,2,08,26,51,302,31,28,39,211,34,29,53,056,31,31,50,246,39*76,1746261335000
NMEA,$GLGSV,1,1,02,73,68,149,35,74,60,321,27*67,1746261335000
NMEA,$BDGSV,1,1,04,229,75,057,33,230,20,054,23,235,50,232,37,236,21,151,31*63,1746261335000
NMEA,$GPGSA,A,3,18,29,26,31,28,16,05,20,,,,,1.4,0.8,1.0*30,1746261335000
NMEA,$GNGSA,A,3,73,74,,,,,,,,,,,1.4,0.8,1.0*27,1746261335000
NMEA,$BDGSA,A,3,229,230,236,,,,,,,,,,1.4,0.8,1.0*10,1746261335000
NMEA,$GPRMC,083536.000,A,4503.5915,N,00741.8393,E,0.0,358.4,030525,,,A*67,1746261335000
NMEA,$PSAMCLK,2364,54935400,13,9750320,1768924,549354000*77,1746261335000
NMEA,$PSAMCLK,2364,54935400,13,9750320,1768924,549354000*77,1746261335000
NMEA,$GPGGA,083537.000,4503.5915,N,00741.8393,E,1,12,0.8,276.4,M,48.2,M,,*5D,1746261336000
NMEA,$PSAMSA,083537.000,4503.5915,N,00741.8393,E,1,M,,*6B,1746261336000
NMEA,$GPGLL,4503.5915,N,00741.8393,E,083537.000,A,A*5A,1746261336000
NMEA,$GPVTG,358.4,T,,M,0.0,N,0.0,K,A*07,1746261336000
NMEA,$GPGSV,2,1,08,05,21,070,27,16,23,301,26,18,60,165,38,20,10,036,20*74,1746261336000
NMEA,$GPGSV,2,2,08,26,51,302,31,28,39,211,35,29,53,056,30,31,50,246,39*76,1746261336000
NMEA,$GLGSV,1,1,02,73,68,149,33,74,60,321,26*60,1746261336000
NMEA,$BDGSV,1,1,04,229,75,057,32,230,20,054,23,235,50,232,37,236,21,151,31*62,1746261336000
NMEA,$GPGSA,A,3,18,29,26,31,28,16,05,20,,,,,1.4,0.8,1.2*32,1746261336000
NMEA,$GNGSA,A,3,74,,,,,,,,,,,,1.4,0.8,1.2*21,1746261336000
NMEA,$BDGSA,A,3,229,230,236,,,,,,,,,,1.4,0.8,1.2*12,1746261336000
NMEA,$GPRMC,083537.000,A,4503.5915,N,00741.8393,E,0.0,358.4,030525,,,A*66,1746261336000
NMEA,$PSAMCLK,2364,54935500,12,9750343,1830815,549355000*72,1746261336000
NMEA,$PSAMCLK,2364,54935500,12,9750343,1830815,549355000*72,1746261336000
NMEA,$GPGGA,083538.000,4503.5915,N,00741.8393,E,1,10,1.0,276.4,M,48.2,M,,*59,1746261337000
NMEA,$PSAMSA,083538.000,4503.5915,N,00741.8393,E,1,M,,*64,1746261337000
NMEA,$GPGLL,4503.5915,N,00741.8393,E,083538.000,A,A*55,1746261337000
NMEA,$GPVTG,358.4,T,,M,0.0,N,0.0,K,A*07,1746261337000
NMEA,$GPGSV,2,1,08,05,21,069,27,16,23,301,26,18,60,165,37,20,10,036,20*73,1746261337000
NMEA,$GPGSV,2,2,08,26,51,302,31,28,39,211,35,29,53,056,30,31,50,246,39*76,1746261337000
NMEA,$GLGSV,1,1,02,73,68,149,33,74,60,321,26*60,1746261337000
NMEA,$BDGSV,1,1,04,229,75,057,31,230,20,054,22,235,50,232,37,236,21,151,30*61,1746261337000
NMEA,$GPGSA,A,3,18,29,26,31,28,16,05,,,,,,1.8,1.0,1.6*31,1746261337000
NMEA,$GNGSA,A,3,73,74,,,,,,,,,,,1.8,1.0,1.6*24,1746261337000
NMEA,$BDGSA,A,3,229,,,,,,,,,,,,1.8,1.0,1.6*15,1746261337000
NMEA,$GPRMC,083538.000,A,4503.5915,N,00741.8393,E,0.0,358.4,030525,,,A*69,1746261337000
NMEA,$PSAMCLK,2364,54935600,10,9750370,1892706,549356000*75,1746261337000
NMEA,$PSAMCLK,2364,54935600,10,9750370,1892706,549356000*75,1746261337000
NMEA,$GPGGA,083539.000,4503.5915,N,00741.8393,E,1,13,0.8,276.4,M,48.2,M,,*52,1746261338000
NMEA,$PSAMSA,083539.000,4503.5915,N,00741.8393,E,1,M,,*65,1746261338000
NMEA,$GPGLL,4503.5915,N,00741.8393,E,083539.000,A,A*54,1746261338000
NMEA,$GPVTG,358.4,T,,M,0.0,N,0.0,K,A*07,1746261338000
NMEA,$GPGSV,2,1,08,05,21,069,28,16,23,301,26,18,60,165,37,20,10,035,20*7F,1746261338000
NMEA,$GPGSV,2,2,08,26,51,302,31,28,39,211,35,29,53,056,29,31,50,246,39*7E,1746261338000
NMEA,$GLGSV,1,1,02,73,68,149,33,74,60,321,26*60,1746261338000
NMEA,$BDGSV,1,1,04,229,75,057,31,230,20,054,22,235,50,232,37,236,20,151,30*60,1746261338000
NMEA,$GPGSA,A,3,18,29,26,31,28,16,05,20,,,,,1.4,0.8,1.0*30,1746261338000
NMEA,$GNGSA,A,3,73,74,,,,,,,,,,,1.4,0.8,1.0*27,1746261338000
NMEA,$BDGSA,A,3,229,230,236,,,,,,,,,,1.4,0.8,1.0*10,1746261338000
NMEA,$GPRMC,083539.000,A,4503.5915,N,00741.8393,E,0.0,358.4,030525,,,A*68,1746261338000
NMEA,$PSAMCLK,2364,54935700,13,9750384,1954597,549357000*7C,1746261338000
NMEA,$PSAMCLK,2364,54935700,13,9750384,1954597,549357000*7C,1746261338000
NMEA,$GPGGA,083540.000,4503.5915,N,00741.8393,E,1,13,0.8,276.4,M,48.2,M,,*5C,1746261339000
NMEA,$PSAMSA,083540.000,4503.5915,N,00741.8393,E,0,M,,*6A,1746261339000
NMEA,$GPGLL,4503.5915,N,00741.8393,E,083540.000,A,A*5A,1746261339000
NMEA,$GPVTG,358.4,T,,M,0.0,N,0.0,K,A*07,1746261339000
NMEA,$GPGSV,2,1,08,05,21,069,28,16,23,301,27,18,60,165,36,20,10,035,20*7F,1746261339000
NMEA,$GPGSV,2,2,08,26,51,302,31,28,39,211,36,29,53,056,29,31,50,246,39*7D,1746261339000
NMEA,$GLGSV,1,1,02,73,68,149,32,74,60,321,26*61,1746261339000
NMEA,$BDGSV,1,1,04,229,75,057,30,230,20,054,22,235,50,232,37,236,20,151,29*69,1746261339000
NMEA,$GPGSA,A,3,18,29,26,31,28,16,05,20,,,,,1.4,0.8,1.0*30,1746261339000
NMEA,$GNGSA,A,3,73,74,,,,,,,,,,,1.4,0.8,1.0*27,1746261339000
NMEA,$BDGSA,A,3,229,230,236,,,,,,,,,,1.4,0.8,1.0*10,1746261339000
NMEA,$GPRMC,083540.000,A,4503.5915,N,00741.8393,E,0.0,358.4,030525,,,A*66,1746261339000
NMEA,$PSAMCLK,2364,54935800,13,9750392,2016492,549358000*73,1746261339000
NMEA,$PSAMCLK,2364,54935800,13,9750392,2016492,549358000*73,1746261339000
NMEA,$GPGGA,083541.000,4503.5915,N,00741.8393,E,1,12,1.0,276.4,M,48.2,M,,*55,1746261340000
NMEA,$PSAMSA,083541.000,4503.5915,N,00741.8393,E,0,M,,*6B,1746261340000
NMEA,$GPGLL,4503.5915,N,00741.8393,E,083541.000,A,A*5B,1746261340000
NMEA,$GPVTG,358.4,T,,M,0.0,N,0.0,K,A*07,1746261340000
NMEA,$GPGSV,2,1,08,05,21,069,28,16,23,301,27,18,60,165,35,20,10,035,20*7C,1746261340000
NMEA,$GPGSV,2,2,08,26,51,302,31,28,39,211,36,29,53,056,28,31,50,246,39*7C,1746261340000
NMEA,$GLGSV,1,1,02,73,68,149,32,74,60,321,26*61,1746261340000
NMEA,$BDGSV,1,1,04,229,75,057,30,230,20,054,22,235,50,232,38,236,20,151,29*66,1746261340000
NMEA,$GPGSA,A,3,18,29,26,31,28,16,05,20,,,,,1.6,1.0,1.2*39,1746261340000
NMEA,$GNGSA,A,3,73,74,,,,,,,,,,,1.6,1.0,1.2*2E,1746261340000
NMEA,$BDGSA,A,3,229,230,,,,,,,,,,,1.6,1.0,1.2*2E,1746261340000
NMEA,$GPRMC,083541.000,A,4503.5915,N,00741.8393,E,0.0,358.4,030525,,,A*67,1746261340000
NMEA,$PSAMCLK,2364,54935900,12,9750466,2078385,549359000*77,1746261340000
NMEA,$PSAMCLK,2364,54935900,12,9750466,2078385,549359000*77,1746261340000
NMEA,$GPGGA,083542.000,4503.5914,N,00741.8388,E,1,13,0.8,278.6,M,48.2,M,,*59,1746261341000
NMEA,$PSAMSA,083542.000,4503.5914,N,00741.8388,E,0,M,,*63,1746261341000
NMEA,$GPGLL,4503.5914,N,00741.8388,E,083542.000,A,A*53,1746261341000
NMEA,$GPVTG,358.4,T,,M,0.0,N,0.0,K,A*07,1746261341000
NMEA,$GPGSV,2,1,08,05,21,069,28,16,23,301,27,18,60,165,35,20,10,035,20*7C,1746261341000
NMEA,$GPGSV,2,2,08,26,51,302,31,28,39,211,36,29,53,056,28,31,50,246,39*7C,1746261341000
NMEA,$GLGSV,1,1,02,73,68,149,32,74,60,321,26*61,1746261341000
NMEA,$BDGSV,1,1,04,229,75,057,29,230,20,054,22,235,50,232,38,236,20,151,28*6F,1746261341000
NMEA,$GPGSA,A,3,18,29,26,31,28,16,05,20,,,,,1.4,0.8,1.0*30,1746261341000
NMEA,$GNGSA,A,3,73,74,,,,,,,,,,,1.4,0.8,1.0*27,1746261341000
NMEA,$BDGSA,A,3,229,230,236,,,,,,,,,,1.4,0.8,1.0*10,1746261341000
NMEA,$GPRMC,083542.000,A,4503.5914,N,00741.8388,E,0.0,358.4,030525,,,A*6F,1746261341000
NMEA,$PSAMCLK,2364,54936000,13,9750478,2140280,549360000*77,1746261341000
NMEA,$PSAMCLK,2364,54936000,13,9750478,2140280,549360000*77,1746261341000
NMEA,$GPGGA,083543.000,4503.5915,N,00741.8388,E,1,09,1.2,278.6,M,48.2,M,,*59,1746261342000
NMEA,$PSAMSA,083543.000,4503.5915,N,00741.8388,E,1,M,,*62,1746261342000
NMEA,$GPGLL,4503.5915,N,00741.8388,E,083543.000,A,A*53,1746261342000
NMEA,$GPVTG,358.4,T,,M,0.0,N,0.0,K,A*07,1746261342000
NMEA,$GPGSV,2,1,08,05,21,069,28,16,23,301,27,18,60,165,37,20,10,035,20*7E,1746261342000
NMEA,$GPGSV,2,2,08,26,51,302,31,28,39,211,36,29,53,056,28,31,50,246,39*7C,1746261342000
NMEA,$GLGSV,1,1,02,73,68,149,32,74,60,321,26*61,1746261342000
NMEA,$BDGSV,1,1,04,229,75,057,31,230,20,054,22,235,50,232,37,236,20,151,28*69,1746261342000
NMEA,$GPGSA,A,3,18,29,31,28,05,20,,,,,,,1.8,1.2,1.2*36,1746261342000
NMEA,$GNGSA,A,3,73,,,,,,,,,,,,1.8,1.2,1.2*21,1746261342000
NMEA,$BDGSA,A,3,229,236,,,,,,,,,,,1.8,1.2,1.2*24,1746261342000
NMEA,$GPRMC,083543.000,A,4503.5915,N,00741.8388,E,0.0,358.4,030525,,,A*6F,1746261342000
NMEA,$PSAMCLK,2364,54936100,9,9750496,2202171,549361000*44,1746261342000
NMEA,$PSAMCLK,2364,54936100,9,9750496,2202171,549361000*44,1746261342000
NMEA,$GPGGA,083544.000,4503.5915,N,00741.8388,E,1,12,0.8,278.6,M,48.2,M,,*5F,1746261343000
NMEA,$PSAMSA,083544.000,4503.5915,N,00741.8388,E,1,M,,*65,1746261343000
NMEA,$GPGLL,4503.5915,N,00741.8388,E,083544.000,A,A*54,1746261343000
NMEA,$GPVTG,358.4,T,,M,0.0,N,0.0,K,A*07,1746261343000
NMEA,$GPGSV,2,1,08,05,21,069,28,16,23,301,27,18,60,165,37,20,10,035,20*7E,1746261343000
NMEA,$GPGSV,2,2,08,26,51,302,30,28,39,211,35,29,53,056,27,31,50,246,39*71,1746261343000
NMEA,$GLGSV,1,1,02,73,68,149,32,74,60,321,26*61,1746261343000
NMEA,$BDGSV,1,1,04,229,75,057,31,230,20,054,22,235,50,232,37,236,20,151,27*66,1746261343000
NMEA,$GPGSA,A,3,18,29,26,31,28,05,20,,,,,,1.6,0.8,1.2*37,1746261343000
NMEA,$GNGSA,A,3,73,74,,,,,,,,,,,1.6,0.8,1.2*27,1746261343000
NMEA,$BDGSA,A,3,229,230,236,,,,,,,,,,1.6,0.8,1.2*10,1746261343000
NMEA,$GPRMC,083544.000,A,4503.5915,N,00741.8388,E,0.0,358.4,030525,,,A*68,1746261343000
NMEA,$PSAMCLK,2364,54936200,12,9750519,2264063,549362000*7A,1746261343000
NMEA,$PSAMCLK,2364,54936200,12,9750519,2264063,549362000*7A,1746261343000
NMEA,$GPGGA,083545.000,4503.5915,N,00741.8388,E,1,12,0.8,278.6,M,48.2,M,,*5E,1746261344000
NMEA,$PSAMSA,083545.000,4503.5915,N,00741.8388,E,1,M,,*64,1746261344000
NMEA,$GPGLL,4503.5915,N,00741.8388,E,083545.000,A,A*55,1746261344000
NMEA,$GPVTG,358.4,T,,M,0.0,N,0.0,K,A*07,1746261344000
NMEA,$GPGSV,2,1,08,05,21,069,28,16,23,301,27,18,60,165,37,20,10,035,20*7E,1746261344000
NMEA,$GPGSV,2,2,08,26,51,302,30,28,39,211,35,29,53,056,27,31,50,246,39*71,1746261344000
NMEA,$GLGSV,1,1,02,73,68,149,32,74,60,321,26*61,1746261344000
NMEA,$BDGSV,1,1,04,229,75,057,31,230,20,054,21,235,40,233,37,236,20,151,27*65,1746261344000
NMEA,$GPGSA,A,3,18,29,26,31,28,05,20,,,,,,1.6,0.8,1.2*37,1746261344000
NMEA,$GNGSA,A,3,73,,,,,,,,,,,,1.6,0.8,1.2*24,1746261344000
NMEA,$BDGSA,A,3,229,230,235,236,,,,,,,,,1.6,0.8,1.2*24,1746261344000
NMEA,$GPRMC,083545.000,A,4503.5915,N,00741.8388,E,0.0,358.4,030525,,,A*69,1746261344000
NMEA,$PSAMCLK,2364,54936300,12,9750529,2325955,549363000*71,1746261344000
NMEA,$PSAMCLK,2364,54936300,12,9750529,2325955,549363000*71,1746261344000
NMEA,$GPGGA,083546.000,4503.5915,N,00741.8388,E,1,12,1.0,278.6,M,48.2,M,,*54,1746261345000
NMEA,$PSAMSA,083546.000,4503.5915,N,00741.8388,E,1,M,,*67,1746261345000
NMEA,$GPGLL,4503.5915,N,00741.8388,E,083546.000,A,A*56,1746261345000
NMEA,$GPVTG,358.4,T,,M,0.0,N,0.0,K,A*07,1746261345000
NMEA,$GPGSV,2,1,08,05,21,069,28,16,23,301,27,18,60,165,37,20,10,035,20*7E,1746261345000
NMEA,$GPGSV,2,2,08,26,51,302,30,28,39,211,35,29,53,056,27,31,50,246,39*71,1746261345000
NMEA,$GLGSV,1,1,02,73,68,149,31,74,60,321,26*62,1746261345000
NMEA,$BDGSV,1,1,04,229,75,057,31,230,20,054,21,235,40,233,37,236,20,151,27*65,1746261345000
NMEA,$GPGSA,A,3,18,29,26,31,28,05,20,,,,,,1.6,1.0,1.4*38,1746261345000
NMEA,$GNGSA,A,3,73,74,,,,,,,,,,,1.6,1.0,1.4*28,1746261345000
NMEA,$BDGSA,A,3,229,230,235,,,,,,,,,,1.6,1.0,1.4*1C,1746261345000
NMEA,$GPRMC,083546.000,A,4503.5915,N,00741.8388,E,0.0,358.4,030525,,,A*6A,1746261345000
NMEA,$PSAMCLK,2364,54936400,12,9750544,2387846,549364000*71,1746261345000
NMEA,$PSAMCLK,2364,54936400,12,9750544,2387846,549364000*71,1746261345000
NMEA,$GPGGA,083547.000,4503.5915,N,00741.8388,E,1,12,1.0,278.6,M,48.2,M,,*55,1746261346000
NMEA,$PSAMSA,083547.000,4503.5915,N,00741.8388,E,1,M,,*66,1746261346000
NMEA,$GPGLL,4503.5915,N,00741.8388,E,083547.000,A,A*57,1746261346000
NMEA,$GPVTG,358.4,T,,M,0.0,N,0.0,K,A*07,1746261346000
NMEA,$GPGSV,2,1,08,05,21,069,28,16,23,301,26,18,60,165,37,20,10,035,20*7F,1746261346000
NMEA,$GPGSV,2,2,08,26,51,302,29,28,39,211,35,29,53,056,27,31,50,246,39*79,1746261346000
NMEA,$GLGSV,1,1,02,73,68,149,31,74,60,321,26*62,1746261346000
NMEA,$BDGSV,1,1,04,229,75,057,31,230,20,054,21,235,40,233,37,236,20,151,26*64,1746261346000
NMEA,$GPGSA,A,3,18,29,26,31,28,05,20,,,,,,1.6,1.0,1.4*38,1746261346000
NMEA,$GNGSA,A,3,73,74,,,,,,,,,,,1.6,1.0,1.4*28,1746261346000
NMEA,$BDGSA,A,3,229,230,235,,,,,,,,,,1.6,1.0,1.4*1C,1746261346000
NMEA,$GPRMC,083547.000,A,4503.5915,N,00741.8388,E,0.0,358.4,030525,,,A*6B,1746261346000
NMEA,$PSAMCLK,2364,54936500,12,9750557,2449738,549365000*70,1746261346000
NMEA,$PSAMCLK,2364,54936500,12,9750557,2449738,549365000*70,1746261346000
NMEA,$GPGGA,083548.000,4503.5915,N,00741.8388,E,1,14,0.6,278.6,M,48.2,M,,*5B,1746261347000
NMEA,$PSAMSA,083548.000,4503.5915,N,00741.8388,E,1,M,,*69,1746261347000
NMEA,$GPGLL,4503.5915,N,00741.8388,E,083548.000,A,A*58,1746261347000
NMEA,$GPVTG,358.4,T,,M,0.0,N,0.0,K,A*07,1746261347000
NMEA,$GPGSV,2,1,08,05,21,069,27,16,23,301,25,18,60,165,36,20,10,035,20*72,1746261347000
NMEA,$GPGSV,2,2,08,26,51,302,29,28,39,211,35,29,53,056,26,31,50,246,39*78,1746261347000
NMEA,$GLGSV,1,1,02,73,68,149,31,74,60,321,26*62,1746261347000
NMEA,$BDGSV,1,1,04,229,75,057,31,230,20,054,21,235,40,233,38,236,20,151,26*6B,1746261347000
NMEA,$GPGSA,A,3,18,29,26,31,28,16,05,20,,,,,1.4,0.6,1.0*3E,1746261347000
NMEA,$GNGSA,A,3,73,74,,,,,,,,,,,1.4,0.6,1.0*29,1746261347000
NMEA,$BDGSA,A,3,229,230,235,236,,,,,,,,,1.4,0.6,1.0*2A,1746261347000
NMEA,$GPRMC,083548.000,A,4503.5915,N,00741.8388,E,0.0,358.4,030525,,,A*64,1746261347000
NMEA,$PSAMCLK,2364,54936600,14,9750555,2511630,549366000*71,1746261347000
NMEA,$PSAMCLK,2364,54936600,14,9750555,2511630,549366000*71,1746261347000
NMEA,$GPGGA,083549.000,4503.5915,N,00741.8388,E,1,13,0.8,278.6,M,48.2,M,,*53,1746261348000
NMEA,$PSAMSA,083549.000,4503.5915,N,00741.8388,E,1,M,,*68,1746261348000
NMEA,$GPGLL,4503.5915,N,00741.8388,E,083549.000,A,A*59,1746261348000
NMEA,$GPVTG,358.4,T,,M,0.0,N,0.0,K,A*07,1746261348000
NMEA,$GPGSV,2,1,08,05,21,069,27,16,23,301,24,18,60,165,36,20,10,035,20*73,1746261348000
NMEA,$GPGSV,2,2,08,26,51,302,29,28,39,210,35,29,53,056,26,31,50,246,39*79,1746261348000
NMEA,$GLGSV,1,1,02,73,68,149,31,74,60,321,26*62,1746261348000
NMEA,$BDGSV,1,1,04,229,75,057,31,230,20,054,21,235,40,233,38,236,20,151,26*6B,1746261348000
NMEA,$GPGSA,A,3,18,29,31,28,16,05,20,,,,,,1.4,0.8,1.0*34,1746261348000
NMEA,$GNGSA,A,3,73,74,,,,,,,,,,,1.4,0.8,1.0*27,1746261348000
NMEA,$BDGSA,A,3,229,230,235,236,,,,,,,,,1.4,0.8,1.0*24,1746261348000
NMEA,$GPRMC,083549.000,A,4503.5915,N,00741.8388,E,0.0,358.4,030525,,,A*65,1746261348000
NMEA,$PSAMCLK,2364,54936700,13,9750540,2573522,549367000*76,1746261348000
NMEA,$PSAMCLK,2364,54936700,13,9750540,2573522,549367000*76,1746261348000
NMEA,$GPGGA,083550.000,4503.5915,N,00741.8388,E,1,13,0.8,278.6,M,48.2,M,,*5B,1746261349000
NMEA,$PSAMSA,083550.000,4503.5915,N,00741.8388,E,1,M,,*60,1746261349000
NMEA,$GPGLL,4503.5915,N,00741.8388,E,083550.000,A,A*51,1746261349000
NMEA,$GPVTG,358.4,T,,M,0.0,N,0.0,K,A*07,1746261349000
NMEA,$GPGSV,2,1,08,05,21,069,27,16,23,301,24,18,60,165,36,20,10,035,20*73,1746261349000
NMEA,$GPGSV,2,2,08,26,51,302,28,28,39,210,35,29,53,056,28,31,50,246,39*76,1746261349000
NMEA,$GLGSV,1,1,02,73,68,149,32,74,60,321,26*61,1746261349000
NMEA,$BDGSV,1,1,04,229,75,057,31,230,20,054,21,235,40,233,38,236,20,151,25*68,1746261349000
NMEA,$GPGSA,A,3,18,29,31,28,16,05,20,,,,,,1.4,0.8,1.0*34,1746261349000
NMEA,$GNGSA,A,3,73,74,,,,,,,,,,,1.4,0.8,1.0*27,1746261349000
NMEA,$BDGSA,A,3,229,230,235,236,,,,,,,,,1.4,0.8,1.0*24,1746261349000
NMEA,$GPRMC,083550.000,A,4503.5915,N,00741.8388,E,0.0,358.4,030525,,,A*6D,1746261349000
NMEA,$PSAMCLK,2364,54936800,13,9750571,2635414,549368000*71,1746261349000
NMEA,$PSAMCLK,2364,54936800,13,9750571,2635414,549368000*71,1746261349000
NMEA,$GPGGA,083551.000,4503.5915,N,00741.8388,E,1,13,0.8,278.6,M,48.2,M,,*5A,1746261350000
NMEA,$PSAMSA,083551.000,4503.5915,N,00741.8388,E,1,M,,*61,1746261350000
NMEA,$GPGLL,4503.5915,N,00741.8388,E,083551.000,A,A*50,1746261350000
NMEA,$GPVTG,358.4,T,,M,0.0,N,0.0,K,A*07,1746261350000
NMEA,$GPGSV,2,1,08,05,21,069,27,16,23,301,24,18,60,165,36,20,10,035,19*79,1746261350000
NMEA,$GPGSV,2,2,08,26,51,302,28,28,39,210,35,29,53,056,29,31,50,246,39*77,1746261350000
NMEA,$GLGSV,1,1,02,73,68,149,32,74,60,321,25*62,1746261350000
NMEA,$BDGSV,1,1,04,229,75,057,31,230,20,054,21,235,40,233,38,236,20,151,25*68,1746261350000
NMEA,$GPGSA,A,3,18,29,26,31,28,16,05,20,,,,,1.4,0.8,1.2*32,1746261350000
NMEA,$GNGSA,A,3,73,,,,,,,,,,,,1.4,0.8,1.2*26,1746261350000
NMEA,$BDGSA,A,3,229,230,235,236,,,,,,,,,1.4,0.8,1.2*26,1746261350000
NMEA,$GPRMC,083551.000,A,4503.5915,N,00741.8388,E,0.0,358.4,030525,,,A*6C,1746261350000
NMEA,$PSAMCLK,2364,54936900,13,9750573,2697305,549369000*7C,1746261350000
NMEA,$PSAMCLK,2364,54936900,13,9750573,2697305,549369000*7C,1746261350000
NMEA,$GPGGA,083552.000,4503.5915,N,00741.8388,E,1,14,0.6,278.6,M,48.2,M,,*50,1746261351000
NMEA,$PSAMSA,083552.000,4503.5915,N,00741.8388,E,1,M,,*62,1746261351000
NMEA,$GPGLL,4503.5915,N,00741.8388,E,083552.000,A,A*53,1746261351000
NMEA,$GPVTG,358.4,T,,M,0.0,N,0.0,K,A*07,1746261351000
NMEA,$GPGSV,2,1,08,05,21,069,27,16,23,301,23,18,60,165,36,20,10,035,20*74,1746261351000
NMEA,$GPGSV,2,2,08,26,51,302,28,28,39,210,35,29,53,056,29,31,50,246,39*77,1746261351000
NMEA,$GLGSV,1,1,02,73,68,149,32,74,60,321,25*62,1746261351000
NMEA,$BDGSV,1,1,04,229,75,057,31,230,20,054,21,235,40,233,38,236,20,151,25*68,1746261351000
NMEA,$GPGSA,A,3,18,29,26,31,28,16,05,20,,,,,1.4,0.6,1.0*3E,1746261351000
NMEA,$GNGSA,A,3,73,74,,,,,,,,,,,1.4,0.6,1.0*29,1746261351000
NMEA,$BDGSA,A,3,229,230,235,236,,,,,,,,,1.4,0.6,1.0*2A,1746261351000
NMEA,$GPRMC,083552.000,A,4503.5915,N,00741.8388,E,0.0,358.4,030525,,,A*6F,1746261351000
NMEA,$PSAMCLK,2364,54937000,14,9750580,2759197,549370000*7D,1746261351000
NMEA,$PSAMCLK,2364,54937000,14,9750580,2759197,549370000*7D,1746261351000
NMEA,$GPGGA,083553.000,4503.5915,N,00741.8388,E,1,14,0.6,278.6,M,48.2,M,,*51,1746261352000
NMEA,$PSAMSA,083553.000,4503.5915,N,00741.8388,E,0,M,,*62,1746261352000
NMEA,$GPGLL,4503.5915,N,00741.8388,E,083553.000,A,A*52,1746261352000
NMEA,$GPVTG,358.4,T,,M,0.0,N,0.0,K,A*07,1746261352000
NMEA,$GPGSV,2,1,08,05,21,069,27,16,23,301,23,18,60,165,36,20,10,035,21*75,1746261352000
NMEA,$GPGSV,2,2,08,26,51,302,27,28,39,210,35,29,53,056,29,31,50,246,39*78,1746261352000
NMEA,$GLGSV,1,1,02,73,68,149,32,74,60,321,25*62,1746261352000
NMEA,$BDGSV,1,1,04,229,75,057,31,230,20,054,21,235,40,233,38,236,20,151,25*68,1746261352000
NMEA,$GPGSA,A,3,18,29,26,31,28,16,05,20,,,,,1.4,0.6,1.0*3E,1746261352000
NMEA,$GNGSA,A,3,73,74,,,,,,,,,,,1.4,0.6,1.0*29,1746261352000
NMEA,$BDGSA,A,3,229,230,235,236,,,,,,,,,1.4,0.6,1.0*2A,1746261352000
NMEA,$GPRMC,083553.000,A,4503.5915,N,00741.8388,E,0.0,358.4,030525,,,A*6E,1746261352000
NMEA,$PSAMCLK,2364,54937100,14,9750603,2821094,549371000*77,1746261352000
NMEA,$PSAMCLK,2364,54937100,14,9750603,2821094,549371000*77,1746261352000
NMEA,$GPGGA,083554.000,4503.5915,N,00741.8388,E,1,14,0.6,278.6,M,48.2,M,,*56,1746261353000
NMEA,$PSAMSA,083554.000,4503.5915,N,00741.8388,E,1,M,,*64,1746261353000
NMEA,$GPGLL,4503.5915,N,00741.8388,E,083554.000,A,A*55,1746261353000
NMEA,$GPVTG,358.4,T,,M,0.0,N,0.0,K,A*07,1746261353000
NMEA,$GPGSV,2,1,08,05,21,069,27,16,23,301,23,18,60,165,36,20,10,035,21*75,1746261353000
NMEA,$GPGSV,2,2,08,26,51,302,27,28,39,210,35,29,53,056,29,31,50,246,39*78,1746261353000
NMEA,$GLGSV,1,1,02,73,68,149,32,74,60,321,25*62,1746261353000
NMEA,$BDGSV,1,1,04,229,75,057,31,230,20,054,21,235,40,233,38,236,20,151,24*69,1746261353000
NMEA,$GPGSA,A,3,18,29,26,31,28,16,05,20,,,,,1.4,0.6,1.0*3E,1746261353000
NMEA,$GNGSA,A,3,73,74,,,,,,,,,,,1.4,0.6,1.0*29,1746261353000
NMEA,$BDGSA,A,3,229,230,235,236,,,,,,,,,1.4,0.6,1.0*2A,1746261353000
NMEA,$GPRMC,083554.000,A,4503.5915,N,00741.8388,E,0.0,358.4,030525,,,A*69,1746261353000
NMEA,$PSAMCLK,2364,54937200,14,9750586,2882986,549372000*7A,1746261353000
NMEA,$PSAMCLK,2364,54937200,14,9750586,2882986,549372000*7A,1746261353000
NMEA,$GPGGA,083555.000,4503.5915,N,00741.8388,E,1,14,0.6,278.6,M,48.2,M,,*57,1746261354000
NMEA,$PSAMSA,083555.000,4503.5915,N,00741.8388,E,1,M,,*65,1746261354000
NMEA,$GPGLL,4503.5915,N,00741.8388,E,083555.000,A,A*54,1746261354000
NMEA,$GPVTG,358.4,T,,M,0.0,N,0.0,K,A*07,1746261354000
NMEA,$GPGSV,2,1,08,05,21,069,27,16,23,301,23,18,60,165,36,20,10,035,21*75,1746261354000
NMEA,$GPGSV,2,2,08,26,51,302,27,28,39,210,35,29,53,056,29,31,50,246,39*78,1746261354000
NMEA,$GLGSV,1,1,02,73,68,149,31,74,60,321,25*61,1746261354000
NMEA,$BDGSV,1,1,04,229,75,057,31,230,20,054,21,235,40,233,38,236,20,151,24*69,1746261354000
NMEA,$GPGSA,A,3,18,29,26,31,28,16,05,20,,,,,1.4,0.6,1.0*3E,1746261354000
NMEA,$GNGSA,A,3,73,74,,,,,,,,,,,1.4,0.6,1.0*29,1746261354000
NMEA,$BDGSA,A,3,229,230,235,236,,,,,,,,,1.4,0.6,1.0*2A,1746261354000
NMEA,$GPRMC,083555.000,A,4503.5915,N,00741.8388,E,0.0,358.4,030525,,,A*68,1746261354000
NMEA,$PSAMCLK,2364,54937300,14,9750582,2944878,549373000*75,1746261354000
NMEA,$PSAMCLK,2364,54937300,14,9750582,2944878,549373000*75,1746261354000
NMEA,$GPGGA,083556.000,4503.5915,N,00741.8388,E,1,14,0.6,278.6,M,48.2,M,,*54,1746261355000
NMEA,$PSAMSA,083556.000,4503.5915,N,00741.8388,E,1,M,,*66,1746261355000
NMEA,$GPGLL,4503.5915,N,00741.8388,E,083556.000,A,A*57,1746261355000
NMEA,$GPVTG,358.4,T,,M,0.0,N,0.0,K,A*07,1746261355000
NMEA,$GPGSV,2,1,08,05,21,069,27,16,23,301,23,18,60,165,36,20,10,035,21*75,1746261355000
NMEA,$GPGSV,2,2,08,26,51,302,27,28,39,210,35,29,53,056,29,31,50,246,39*78,1746261355000
NMEA,$GLGSV,1,1,02,73,68,149,31,74,60,321,25*61,1746261355000
NMEA,$BDGSV,1,1,04,229,75,057,31,230,20,054,21,235,40,233,38,236,20,151,24*69,1746261355000
NMEA,$GPGSA,A,3,18,29,26,31,28,16,05,20,,,,,1.4,0.6,1.0*3E,1746261355000
NMEA,$GNGSA,A,3,73,74,,,,,,,,,,,1.4,0.6,1.0*29,1746261355000
NMEA,$BDGSA,A,3,229,230,235,236,,,,,,,,,1.4,0.6,1.0*2A,1746261355000
NMEA,$GPRMC,083556.000,A,4503.5915,N,00741.8388,E,0.0,358.4,030525,,,A*6B,1746261355000
NMEA,$PSAMCLK,2364,54937400,14,9750608,3006770,549374000*7D,1746261355000
NMEA,$PSAMCLK,2364,54937400,14,9750608,3006770,549374000*7D,1746261355000
NMEA,$GPGGA,083557.000,4503.5915,N,00741.8388,E,1,13,0.8,278.6,M,48.2,M,,*5C,1746261356000
NMEA,$PSAMSA,083557.000,4503.5915,N,00741.8388,E,1,M,,*67,1746261356000
NMEA,$GPGLL,4503.5915,N,00741.8388,E,083557.000,A,A*56,1746261356000
NMEA,$GPVTG,358.4,T,,M,0.0,N,0.0,K,A*07,1746261356000
NMEA,$GPGSV,2,1,08,05,21,069,27,16,23,301,23,18,60,165,36,20,10,035,21*75,1746261356000
NMEA,$GPGSV,2,2,08,26,51,302,27,28,39,210,35,29,53,056,29,31,50,246,39*78,1746261356000
NMEA,$GLGSV,1,1,02,73,68,149,31,74,60,321,25*61,1746261356000
NMEA,$BDGSV,1,1,04,229,75,057,31,230,20,054,21,235,40,233,38,236,20,151,24*69,1746261356000
NMEA,$GPGSA,A,3,18,29,26,31,28,16,05,20,,,,,1.4,0.8,1.0*30,1746261356000
NMEA,$GNGSA,A,3,73,74,,,,,,,,,,,1.4,0.8,1.0*27,1746261356000
NMEA,$BDGSA,A,3,229,235,236,,,,,,,,,,1.4,0.8,1.0*15,1746261356000
NMEA,$GPRMC,083557.000,A,4503.5915,N,00741.8388,E,0.0,358.4,030525,,,A*6A,1746261356000
NMEA,$PSAMCLK,2364,54937500,13,9750615,3068662,549375000*7C,1746261356000
NMEA,$PSAMCLK,2364,54937500,13,9750615,3068662,549375000*7C,1746261356000
NMEA,$GPGGA,083558.000,4503.5915,N,00741.8388,E,1,13,0.8,278.6,M,48.2,M,,*53,1746261357000
NMEA,$PSAMSA,083558.000,4503.5915,N,00741.8388,E,1,M,,*68,1746261357000
NMEA,$GPGLL,4503.5915,N,00741.8388,E,083558.000,A,A*59,1746261357000
NMEA,$GPVTG,358.4,T,,M,0.0,N,0.0,K,A*07,1746261357000
NMEA,$GPGSV,2,1,08,05,21,069,27,16,23,301,22,18,60,165,36,20,10,035,21*74,1746261357000
NMEA,$GPGSV,2,2,08,26,51,302,26,28,39,210,35,29,53,056,29,31,50,246,39*79,1746261357000
NMEA,$GLGSV,1,1,02,73,68,149,31,74,60,321,25*61,1746261357000
NMEA,$BDGSV,1,1,04,229,75,057,31,230,20,054,21,235,40,233,38,236,20,151,24*69,1746261357000
NMEA,$GPGSA,A,3,18,29,26,31,28,16,05,20,,,,,1.6,0.8,1.2*30,1746261357000
NMEA,$GNGSA,A,3,73,74,,,,,,,,,,,1.6,0.8,1.2*27,1746261357000
NMEA,$BDGSA,A,3,229,230,235,,,,,,,,,,1.6,0.8,1.2*13,1746261357000
NMEA,$GPRMC,083558.000,A,4503.5915,N,00741.8388,E,0.0,358.4,030525,,,A*65,1746261357000
NMEA,$PSAMCLK,2364,54937600,13,9750613,3130554,549376000*70,1746261357000
NMEA,$PSAMCLK,2364,54937600,13,9750613,3130554,549376000*70,1746261357000
NMEA,$GPGGA,083559.000,4503.5915,N,00741.8388,E,1,14,0.6,278.6,M,48.2,M,,*5B,1746261358000
NMEA,$PSAMSA,083559.000,4503.5915,N,00741.8388,E,1,M,,*69,1746261358000
NMEA,$GPGLL,4503.5915,N,00741.8388,E,083559.000,A,A*58,1746261358000
NMEA,$GPVTG,358.4,T,,M,0.0,N,0.0,K,A*07,1746261358000
NMEA,$GPGSV,2,1,08,05,21,069,27,16,23,301,22,18,60,165,36,20,10,035,21*74,1746261358000
NMEA,$GPGSV,2,2,08,26,51,302,26,28,39,210,35,29,53,056,34,31,50,246,39*75,1746261358000
NMEA,$GLGSV,1,1,02,73,68,149,32,74,60,321,25*62,1746261358000
NMEA,$BDGSV,1,1,04,229,75,057,31,230,20,054,21,235,40,233,38,236,20,151,24*69,1746261358000
NMEA,$GPGSA,A,3,18,29,26,31,28,16,05,20,,,,,1.4,0.6,1.0*3E,1746261358000
NMEA,$GNGSA,A,3,73,74,,,,,,,,,,,1.4,0.6,1.0*29,1746261358000
NMEA,$BDGSA,A,3,229,230,235,236,,,,,,,,,1.4,0.6,1.0*2A,1746261358000
NMEA,$GPRMC,083559.000,A,4503.5915,N,00741.8388,E,0.0,358.4,030525,,,A*64,1746261358000
NMEA,$PSAMCLK,2364,54937700,14,9750614,3192446,549377000*7A,1746261358000
NMEA,$PSAMCLK,2364,54937700,14,9750614,3192446,549377000*7A,1746261358000
NMEA,$GPGGA,083600.000,4503.5915,N,00741.8388,E,1,12,1.0,278.6,M,48.2,M,,*55,1746261359000
NMEA,$PSAMSA,083600.000,4503.5915,N,00741.8388,E,1,M,,*66,1746261359000
NMEA,$GPGLL,4503.5915,N,00741.8388,E,083600.000,A,A*57,1746261359000
NMEA,$GPVTG,358.4,T,,M,0.0,N,0.0,K,A*07,1746261359000
NMEA,$GPGSV,2,1,08,05,21,069,27,16,23,301,22,18,60,165,37,20,10,035,21*75,1746261359000
NMEA,$GPGSV,2,2,08,26,51,302,27,28,39,210,35,29,53,056,36,31,50,246,39*76,1746261359000
NMEA,$GLGSV,1,1,02,73,68,149,38,74,60,321,25*68,1746261359000
NMEA,$BDGSV,1,1,04,229,75,057,31,230,20,054,22,235,40,233,38,236,20,151,22*6C,1746261359000
NMEA,$GPGSA,A,3,18,29,26,31,28,05,20,,,,,,1.6,1.0,1.4*38,1746261359000
NMEA,$GNGSA,A,3,73,74,,,,,,,,,,,1.6,1.0,1.4*28,1746261359000
NMEA,$BDGSA,A,3,229,230,235,,,,,,,,,,1.6,1.0,1.4*1C,1746261359000
NMEA,$GPRMC,083600.000,A,4503.5915,N,00741.8388,E,0.0,358.4,030525,,,A*6B,1746261359000
NMEA,$PSAMCLK,2364,54937800,12,9750606,3254339,549378000*79,1746261359000
NMEA,$PSAMCLK,2364,54937800,12,9750606,3254339,549378000*79,1746261359000
NMEA,$GPGGA,083601.000,4503.5915,N,00741.8388,E,1,13,0.8,278.6,M,48.2,M,,*5C,1746261360000
NMEA,$PSAMSA,083601.000,4503.5915,N,00741.8388,E,1,M,,*67,1746261360000
NMEA,$GPGLL,4503.5915,N,00741.8388,E,083601.000,A,A*56,1746261360000
NMEA,$GPVTG,358.4,T,,M,0.0,N,0.0,K,A*07,1746261360000
NMEA,$GPGSV,2,1,08,05,21,069,28,16,23,301,22,18,60,165,37,20,10,035,21*7A,1746261360000
NMEA,$GPGSV,2,2,08,26,51,302,27,28,39,210,35,29,53,056,36,31,50,246,39*76,1746261360000
NMEA,$GLGSV,1,1,02,73,68,149,38,74,60,321,25*68,1746261360000
NMEA,$BDGSV,1,1,04,229,75,057,31,230,20,054,22,235,40,233,38,236,20,151,25*6B,1746261360000
NMEA,$GPGSA,A,3,18,29,26,31,28,16,05,20,,,,,1.4,0.8,1.0*30,1746261360000
NMEA,$GNGSA,A,3,73,74,,,,,,,,,,,1.4,0.8,1.0*27,1746261360000
NMEA,$BDGSA,A,3,229,235,236,,,,,,,,,,1.4,0.8,1.0*15,1746261360000
NMEA,$GPRMC,083601.000,A,4503.5915,N,00741.8388,E,0.0,358.4,030525,,,A*6A,1746261360000
NMEA,$PSAMCLK,2364,54937900,13,9750643,3316231,549379000*77,1746261360000
NMEA,$PSAMCLK,2364,54937900,13,9750643,3316231,549379000*77,1746261360000
NMEA,$GPGGA,083602.000,4503.5915,N,00741.8388,E,1,14,0.6,278.6,M,48.2,M,,*56,1746261361000
NMEA,$PSAMSA,083602.000,4503.5915,N,00741.8388,E,1,M,,*64,1746261361000
NMEA,$GPGLL,4503.5915,N,00741.8388,E,083602.000,A,A*55,1746261361000
NMEA,$GPVTG,358.4,T,,M,0.0,N,0.0,K,A*07,1746261361000
NMEA,$GPGSV,2,1,08,05,21,069,28,16,23,301,22,18,60,165,37,20,10,035,21*7A,1746261361000
NMEA,$GPGSV,2,2,08,26,51,302,28,28,39,210,35,29,53,056,36,31,50,246,38*78,1746261361000
NMEA,$GLGSV,1,1,02,73,68,149,38,74,60,321,26*6B,1746261361000
NMEA,$BDGSV,1,1,04,229,75,057,31,230,20,054,22,235,40,233,38,236,20,151,27*69,1746261361000
NMEA,$GPGSA,A,3,18,29,26,31,28,16,05,20,,,,,1.4,0.6,1.0*3E,1746261361000
NMEA,$GNGSA,A,3,73,74,,,,,,,,,,,1.4,0.6,1.0*29,1746261361000
NMEA,$BDGSA,A,3,229,230,235,236,,,,,,,,,1.4,0.6,1.0*2A,1746261361000
NMEA,$GPRMC,083602.000,A,4503.5915,N,00741.8388,E,0.0,358.4,030525,,,A*69,1746261361000
NMEA,$PSAMCLK,2364,54938000,14,9750643,3378124,549380000*7F,1746261361000
NMEA,$PSAMCLK,2364,54938000,14,9750643,3378124,549380000*7F,1746261361000
NMEA,$GPGGA,083603.000,4503.5915,N,00741.8388,E,1,13,0.8,278.6,M,48.2,M,,*5E,1746261362000
NMEA,$PSAMSA,083603.000,4503.5915,N,00741.8388,E,1,M,,*65,1746261362000
NMEA,$GPGLL,4503.5915,N,00741.8388,E,083603.000,A,A*54,1746261362000
NMEA,$GPVTG,358.4,T,,M,0.0,N,0.0,K,A*07,1746261362000
NMEA,$GPGSV,2,1,08,05,21,069,28,16,23,301,22,18,60,165,38,20,10,035,21*75,1746261362000
NMEA,$GPGSV,2,2,08,26,51,302,28,28,39,210,35,29,53,056,36,31,50,246,38*78,1746261362000
NMEA,$GLGSV,1,1,02,73,68,149,38,74,60,321,26*6B,1746261362000
NMEA,$BDGSV,1,1,04,229,75,057,31,230,20,054,22,235,40,233,38,236,20,151,27*69,1746261362000
NMEA,$GPGSA,A,3,18,29,26,31,28,16,05,20,,,,,1.4,0.8,1.0*30,1746261362000
NMEA,$GNGSA,A,3,73,74,,,,,,,,,,,1.4,0.8,1.0*27,1746261362000
NMEA,$BDGSA,A,3,229,235,236,,,,,,,,,,1.4,0.8,1.0*15,1746261362000
NMEA,$GPRMC,083603.000,A,4503.5915,N,00741.8388,E,0.0,358.4,030525,,,A*68,1746261362000
NMEA,$PSAMCLK,2364,54938100,13,9750650,3440017,549381000*77,1746261362000
NMEA,$PSAMCLK,2364,54938100,13,9750650,3440017,549381000*77,1746261362000
NMEA,$GPGGA,083604.000,4503.5915,N,00741.8388,E,1,13,0.8,278.6,M,48.2,M,,*59,1746261363000
NMEA,$PSAMSA,083604.000,4503.5915,N,00741.8388,E,1,M,,*62,1746261363000
NMEA,$GPGLL,4503.5915,N,00741.8388,E,083604.000,A,A*53,1746261363000
NMEA,$GPVTG,358.4,T,,M,0.0,N,0.0,K,A*07,1746261363000
NMEA,$GPGSV,2,1,08,05,21,069,28,16,23,301,22,18,60,165,38,20,10,035,21*75,1746261363000
NMEA,$GPGSV,2,2,08,26,51,302,28,28,39,210,35,29,53,056,36,31,50,246,38*78,1746261363000
NMEA,$GLGSV,1,1,02,73,68,149,38,74,60,321,26*6B,1746261363000
NMEA,$BDGSV,1,1,04,229,75,057,31,230,20,054,22,235,40,233,38,236,20,151,27*69,1746261363000
NMEA,$GPGSA,A,3,18,29,26,31,28,16,20,,,,,,1.4,0.8,1.0*35,1746261363000
NMEA,$GNGSA,A,3,73,74,,,,,,,,,,,1.4,0.8,1.0*27,1746261363000
NMEA,$BDGSA,A,3,229,230,235,236,,,,,,,,,1.4,0.8,1.0*24,1746261363000
NMEA,$GPRMC,083604.000,A,4503.5915,N,00741.8388,E,0.0,358.4,030525,,,A*6F,1746261363000
NMEA,$PSAMCLK,2364,54938200,13,9750651,3501910,549382000*7C,1746261363000
NMEA,$PSAMCLK,2364,54938200,13,9750651,3501910,549382000*7C,1746261363000
NMEA,$GPGGA,083605.000,4503.5915,N,00741.8388,E,1,14,0.6,278.6,M,48.2,M,,*51,1746261364000
NMEA,$PSAMSA,083605.000,4503.5915,N,00741.8388,E,1,M,,*63,1746261364000
NMEA,$GPGLL,4503.5915,N,00741.8388,E,083605.000,A,A*52,1746261364000
NMEA,$GPVTG,358.4,T,,M,0.0,N,0.0,K,A*07,1746261364000
NMEA,$GPGSV,2,1,08,05,21,069,28,16,23,301,22,18,60,165,38,20,10,035,21*75,1746261364000
NMEA,$GPGSV,2,2,08,26,51,302,28,28,39,210,35,29,53,056,36,31,50,246,38*78,1746261364000
NMEA,$GLGSV,1,1,02,73,68,149,38,74,60,321,27*6A,1746261364000
NMEA,$BDGSV,1,1,04,229,75,057,31,230,20,054,22,235,40,233,38,236,20,151,27*69,1746261364000
NMEA,$GPGSA,A,3,18,29,26,31,28,16,05,20,,,,,1.4,0.6,1.0*3E,1746261364000
NMEA,$GNGSA,A,3,73,74,,,,,,,,,,,1.4,0.6,1.0*29,1746261364000
NMEA,$BDGSA,A,3,229,230,235,236,,,,,,,,,1.4,0.6,1.0*2A,1746261364000
NMEA,$GPRMC,083605.000,A,4503.5915,N,00741.8388,E,0.0,358.4,030525,,,A*6E,1746261364000
NMEA,$PSAMCLK,2364,54938300,14,9750653,3563803,549383000*7E,1746261364000
NMEA,$PSAMCLK,2364,54938300,14,9750653,3563803,549383000*7E,1746261364000
NMEA,$GPGGA,083606.000,4503.5915,N,00741.8388,E,1,14,0.6,278.6,M,48.2,M,,*52,1746261365000
NMEA,$PSAMSA,083606.000,4503.5915,N,00741.8388,E,1,M,,*60,1746261365000
NMEA,$GPGLL,4503.5915,N,00741.8388,E,083606.000,A,A*51,1746261365000
NMEA,$GPVTG,358.4,T,,M,0.0,N,0.0,K,A*07,1746261365000
NMEA,$GPGSV,2,1,08,05,21,069,28,16,23,301,22,18,60,165,39,20,10,035,21*74,1746261365000
NMEA,$GPGSV,2,2,08,26,51,302,29,28,39,210,35,29,53,056,36,31,50,246,38*79,1746261365000
NMEA,$GLGSV,1,1,02,73,68,149,38,74,60,321,27*6A,1746261365000
NMEA,$BDGSV,1,1,04,229,75,057,31,230,20,054,22,235,40,233,39,236,20,151,27*68,1746261365000
NMEA,$GPGSA,A,3,18,29,26,31,28,16,05,20,,,,,1.4,0.6,1.0*3E,1746261365000
NMEA,$GNGSA,A,3,73,74,,,,,,,,,,,1.4,0.6,1.0*29,1746261365000
NMEA,$BDGSA,A,3,229,230,235,236,,,,,,,,,1.4,0.6,1.0*2A,1746261365000
NMEA,$GPRMC,083606.000,A,4503.5915,N,00741.8388,E,0.0,358.4,030525,,,A*6D,1746261365000
NMEA,$PSAMCLK,2364,54938400,14,9750677,3625696,549384000*7B,1746261365000
NMEA,$PSAMCLK,2364,54938400,14,9750677,3625696,549384000*7B,1746261365000
NMEA,$GPGGA,083607.000,4503.5915,N,00741.8388,E,1,14,0.6,278.6,M,48.2,M,,*53,1746261366000
NMEA,$PSAMSA,083607.000,4503.5915,N,00741.8388,E,1,M,,*61,1746261366000
NMEA,$GPGLL,4503.5915,N,00741.8388,E,083607.000,A,A*50,1746261366000
NMEA,$GPVTG,358.4,T,,M,0.0,N,0.0,K,A*07,1746261366000
NMEA,$GPGSV,2,1,08,05,21,069,27,16,23,301,22,18,60,165,39,20,10,035,21*7B,1746261366000
NMEA,$GPGSV,2,2,08,26,51,302,29,28,39,210,35,29,53,056,36,31,50,246,38*79,1746261366000
NMEA,$GLGSV,1,1,02,73,68,149,38,74,60,321,27*6A,1746261366000
NMEA,$BDGSV,1,1,04,229,75,057,31,230,20,054,22,235,40,233,39,236,20,151,27*68,1746261366000
NMEA,$GPGSA,A,3,18,29,26,31,28,16,05,20,,,,,1.4,0.6,1.0*3E,1746261366000
NMEA,$GNGSA,A,3,73,74,,,,,,,,,,,1.4,0.6,1.0*29,1746261366000
NMEA,$BDGSA,A,3,229,230,235,236,,,,,,,,,1.4,0.6,1.0*2A,1746261366000
NMEA,$GPRMC,083607.000,A,4503.5915,N,00741.8388,E,0.0,358.4,030525,,,A*6C,1746261366000
NMEA,$PSAMCLK,2364,54938500,14,9750692,3687589,549385000*75,1746261366000
NMEA,$PSAMCLK,2364,54938500,14,9750692,3687589,549385000*75,1746261366000
NMEA,$GPGGA,083608.000,4503.5915,N,00741.8388,E,1,13,0.8,278.6,M,48.2,M,,*55,1746261367000
NMEA,$PSAMSA,083608.000,4503.5915,N,00741.8388,E,1,M,,*6E,1746261367000
NMEA,$GPGLL,4503.5915,N,00741.8388,E,083608.000,A,A*5F,1746261367000
NMEA,$GPVTG,358.4,T,,M,0.0,N,0.0,K,A*07,1746261367000
NMEA,$GPGSV,2,1,08,05,21,069,27,16,23,302,22,18,60,165,39,20,10,035,21*78,1746261367000
NMEA,$GPGSV,2,2,08,26,51,302,29,28,39,210,35,29,53,056,36,31,50,246,38*79,1746261367000
NMEA,$GLGSV,1,1,02,73,68,149,38,74,60,321,27*6A,1746261367000
NMEA,$BDGSV,1,1,04,229,75,057,31,230,20,054,22,235,40,233,39,236,20,151,27*68,1746261367000
NMEA,$GPGSA,A,3,18,29,26,31,28,16,20,,,,,,1.4,0.8,1.0*35,1746261367000
NMEA,$GNGSA,A,3,73,74,,,,,,,,,,,1.4,0.8,1.0*27,1746261367000
NMEA,$BDGSA,A,3,229,230,235,236,,,,,,,,,1.4,0.8,1.0*24,1746261367000
NMEA,$GPRMC,083608.000,A,4503.5915,N,00741.8388,E,0.0,358.4,030525,,,A*63,1746261367000
NMEA,$PSAMCLK,2364,54938600,13,9750692,3749481,549386000*78,1746261367000
NMEA,$PSAMCLK,2364,54938600,13,9750692,3749481,549386000*78,1746261367000
NMEA,$GPGGA,083609.000,4503.5915,N,00741.8388,E,1,14,0.6,278.6,M,48.2,M,,*5D,1746261368000
NMEA,$PSAMSA,083609.000,4503.5915,N,00741.8388,E,1,M,,*6F,1746261368000
NMEA,$GPGLL,4503.5915,N,00741.8388,E,083609.000,A,A*5E,1746261368000
NMEA,$GPVTG,358.4,T,,M,0.0,N,0.0,K,A*07,1746261368000
NMEA,$GPGSV,2,1,08,05,21,069,28,16,23,302,22,18,60,165,39,20,10,035,21*77,1746261368000
NMEA,$GPGSV,2,2,08,26,51,302,29,28,39,210,36,29,53,056,35,31,50,246,38*79,1746261368000
NMEA,$GLGSV,1,1,02,73,68,149,38,74,60,321,27*6A,1746261368000
NMEA,$BDGSV,1,1,04,229,75,057,31,230,20,054,22,235,40,233,39,236,20,151,26*69,1746261368000
NMEA,$GPGSA,A,3,18,29,26,31,28,16,05,20,,,,,1.4,0.6,1.0*3E,1746261368000
NMEA,$GNGSA,A,3,73,74,,,,,,,,,,,1.4,0.6,1.0*29,1746261368000
NMEA,$BDGSA,A,3,229,230,235,236,,,,,,,,,1.4,0.6,1.0*2A,1746261368000
NMEA,$GPRMC,083609.000,A,4503.5915,N,00741.8388,E,0.0,358.4,030525,,,A*62,1746261368000
NMEA,$PSAMCLK,2364,54938700,14,9750679,3811373,549387000*72,1746261368000
NMEA,$PSAMCLK,2364,54938700,14,9750679,3811373,549387000*72,1746261368000
NMEA,$GPGGA,083610.000,4503.5915,N,00741.8388,E,1,14,0.6,278.6,M,48.2,M,,*55,1746261369000
NMEA,$PSAMSA,083610.000,4503.5915,N,00741.8388,E,1,M,,*67,1746261369000
NMEA,$GPGLL,4503.5915,N,00741.8388,E,083610.000,A,A*56,1746261369000
NMEA,$GPVTG,358.4,T,,M,0.0,N,0.0,K,A*07,1746261369000
NMEA,$GPGSV,2,1,08,05,21,069,28,16,23,302,22,18,60,165,39,20,10,035,21*77,1746261369000
NMEA,$GPGSV,2,2,08,26,51,302,29,28,39,210,36,29,53,056,35,31,50,246,37*76,1746261369000
NMEA,$GLGSV,1,1,02,73,68,149,38,74,60,321,27*6A,1746261369000
NMEA,$BDGSV,1,1,04,229,75,057,31,230,20,054,22,235,40,233,39,236,20,151,26*69,1746261369000
NMEA,$GPGSA,A,3,18,29,26,31,28,16,05,20,,,,,1.4,0.6,1.0*3E,1746261369000
NMEA,$GNGSA,A,3,73,74,,,,,,,,,,,1.4,0.6,1.0*29,1746261369000
NMEA,$BDGSA,A,3,229,230,235,236,,,,,,,,,1.4,0.6,1.0*2A,1746261369000
NMEA,$GPRMC,083610.000,A,4503.5915,N,00741.8388,E,0.0,358.4,030525,,,A*6A,1746261369000
NMEA,$PSAMCLK,2364,54938800,14,9750687,3873266,549388000*72,1746261369000
NMEA,$PSAMCLK,2364,54938800,14,9750687,3873266,549388000*72,1746261369000
NMEA,$GPGGA,083611.000,4503.5915,N,00741.8388,E,1,13,0.8,278.6,M,48.2,M,,*5D,1746261370000
NMEA,$PSAMSA,083611.000,4503.5915,N,00741.8388,E,1,M,,*66,1746261370000
NMEA,$GPGLL,4503.5915,N,00741.8388,E,083611.000,A,A*57,1746261370000
NMEA,$GPVTG,358.4,T,,M,0.0,N,0.0,K,A*07,1746261370000
NMEA,$GPGSV,2,1,08,05,21,069,28,16,23,302,22,18,60,165,39,20,10,035,20*76,1746261370000
NMEA,$GPGSV,2,2,08,26,51,302,29,28,39,210,36,29,53,056,35,31,50,246,37*76,1746261370000
NMEA,$GLGSV,1,1,02,73,68,149,37,74,60,321,27*65,1746261370000
NMEA,$BDGSV,1,1,04,229,75,057,31,230,20,054,22,235,40,233,38,236,20,151,26*68,1746261370000
NMEA,$GPGSA,A,3,18,29,26,31,28,05,20,,,,,,1.4,0.8,1.2*35,1746261370000
NMEA,$GNGSA,A,3,73,74,,,,,,,,,,,1.4,0.8,1.2*25,1746261370000
NMEA,$BDGSA,A,3,229,230,235,236,,,,,,,,,1.4,0.8,1.2*26,1746261370000
NMEA,$GPRMC,083611.000,A,4503.5915,N,00741.8388,E,0.0,358.4,030525,,,A*6B,1746261370000
NMEA,$PSAMCLK,2364,54938900,13,9750689,3935159,549389000*77,1746261370000
NMEA,$PSAMCLK,2364,54938900,13,9750689,3935159,549389000*77,1746261370000
NMEA,$GPGGA,083612.000,4503.5915,N,00741.8388,E,1,14,0.6,278.6,M,48.2,M,,*57,1746261371000
NMEA,$PSAMSA,083612.000,4503.5915,N,00741.8388,E,0,M,,*64,1746261371000
NMEA,$GPGLL,4503.5915,N,00741.8388,E,083612.000,A,A*54,1746261371000
NMEA,$GPVTG,358.4,T,,M,0.0,N,0.0,K,A*07,1746261371000
NMEA,$GPGSV,2,1,08,05,21,069,29,16,23,302,22,18,60,165,38,20,10,035,20*76,1746261371000
NMEA,$GPGSV,2,2,08,26,51,302,29,28,39,210,36,29,53,056,35,31,50,246,37*76,1746261371000
NMEA,$GLGSV,1,1,02,73,68,149,37,74,60,321,27*65,1746261371000
NMEA,$BDGSV,1,1,04,229,75,057,32,230,20,054,22,235,40,233,38,236,20,151,26*6B,1746261371000
NMEA,$GPGSA,A,3,18,29,26,31,28,16,05,20,,,,,1.4,0.6,1.0*3E,1746261371000
NMEA,$GNGSA,A,3,73,74,,,,,,,,,,,1.4,0.6,1.0*29,1746261371000
NMEA,$BDGSA,A,3,229,230,235,236,,,,,,,,,1.4,0.6,1.0*2A,1746261371000
NMEA,$GPRMC,083612.000,A,4503.5915,N,00741.8388,E,0.0,358.4,030525,,,A*68,1746261371000
NMEA,$PSAMCLK,2364,54939000,14,9750732,3997057,549390000*76,1746261371000
NMEA,$PSAMCLK,2364,54939000,14,9750732,3997057,549390000*76,1746261371000
NMEA,$GPGGA,083613.000,4503.5915,N,00741.8388,E,1,13,0.8,278.6,M,48.2,M,,*5F,1746261372000
NMEA,$PSAMSA,083613.000,4503.5915,N,00741.8388,E,1,M,,*64,1746261372000
NMEA,$GPGLL,4503.5915,N,00741.8388,E,083613.000,A,A*55,1746261372000
NMEA,$GPVTG,358.4,T,,M,0.0,N,0.0,K,A*07,1746261372000
NMEA,$GPGSV,2,1,08,05,21,069,29,16,23,302,23,18,60,165,37,20,10,035,20*78,1746261372000
NMEA,$GPGSV,2,2,08,26,51,302,29,28,39,210,36,29,53,056,35,31,50,246,37*76,1746261372000
NMEA,$GLGSV,1,1,02,73,68,149,36,74,60,321,27*64,1746261372000
NMEA,$BDGSV,1,1,04,229,75,057,32,230,20,054,22,235,40,233,39,236,20,151,26*6A,1746261372000
NMEA,$GPGSA,A,3,29,26,31,28,16,05,20,,,,,,1.4,0.8,1.2*3B,1746261372000
NMEA,$GNGSA,A,3,73,74,,,,,,,,,,,1.4,0.8,1.2*25,1746261372000
NMEA,$BDGSA,A,3,229,230,235,236,,,,,,,,,1.4,0.8,1.2*26,1746261372000
NMEA,$GPRMC,083613.000,A,4503.5915,N,00741.8388,E,0.0,358.4,030525,,,A*69,1746261372000
NMEA,$PSAMCLK,2364,54939100,13,9750712,4058950,549391000*70,1746261372000
NMEA,$PSAMCLK,2364,54939100,13,9750712,4058950,549391000*70,1746261372000
NMEA,$GPGGA,083614.000,4503.5915,N,00741.8388,E,1,13,0.8,278.6,M,48.2,M,,*58,1746261373000
NMEA,$PSAMSA,083614.000,4503.5915,N,00741.8388,E,0,M,,*62,1746261373000
NMEA,$GPGLL,4503.5915,N,00741.8388,E,083614.000,A,A*52,1746261373000
NMEA,$GPVTG,358.4,T,,M,0.0,N,0.0,K,A*07,1746261373000
NMEA,$GPGSV,2,1,08,05,21,069,29,16,23,302,23,18,60,165,36,20,10,035,20*79,1746261373000
NMEA,$GPGSV,2,2,08,26,51,302,29,28,39,210,36,29,53,056,35,31,50,246,37*76,1746261373000
NMEA,$GLGSV,1,1,02,73,68,149,35,74,60,321,27*67,1746261373000
NMEA,$BDGSV,1,1,04,229,75,057,32,230,20,054,22,235,40,233,39,236,20,151,26*6A,1746261373000
NMEA,$GPGSA,A,3,18,29,26,31,28,16,20,,,,,,1.4,0.8,1.0*35,1746261373000
NMEA,$GNGSA,A,3,73,74,,,,,,,,,,,1.4,0.8,1.0*27,1746261373000
NMEA,$BDGSA,A,3,229,230,235,236,,,,,,,,,1.4,0.8,1.0*24,1746261373000
NMEA,$GPRMC,083614.000,A,4503.5915,N,00741.8388,E,0.0,358.4,030525,,,A*6E,1746261373000
NMEA,$PSAMCLK,2364,54939200,13,9750733,4120842,549392000*7F,1746261373000
NMEA,$PSAMCLK,2364,54939200,13,9750733,4120842,549392000*7F,1746261373000
NMEA,$GPGGA,083615.000,4503.5915,N,00741.8388,E,1,14,0.6,278.6,M,48.2,M,,*50,1746261374000
NMEA,$PSAMSA,083615.000,4503.5915,N,00741.8388,E,0,M,,*63,1746261374000
NMEA,$GPGLL,4503.5915,N,00741.8388,E,083615.000,A,A*53,1746261374000
NMEA,$GPVTG,358.4,T,,M,0.0,N,0.0,K,A*07,1746261374000
NMEA,$GPGSV,2,1,08,05,21,069,29,16,23,302,23,18,60,165,36,20,10,035,20*79,1746261374000
NMEA,$GPGSV,2,2,08,26,51,302,29,28,39,210,36,29,53,056,35,31,50,246,37*76,1746261374000
NMEA,$GLGSV,1,1,02,73,68,149,35,74,60,321,27*67,1746261374000
NMEA,$BDGSV,1,1,04,229,75,057,32,230,20,054,22,235,40,233,39,236,20,151,26*6A,1746261374000
NMEA,$GPGSA,A,3,18,29,26,31,28,16,05,20,,,,,1.4,0.6,1.0*3E,1746261374000
NMEA,$GNGSA,A,3,73,74,,,,,,,,,,,1.4,0.6,1.0*29,1746261374000
NMEA,$BDGSA,A,3,229,230,235,236,,,,,,,,,1.4,0.6,1.0*2A,1746261374000
NMEA,$GPRMC,083615.000,A,4503.5915,N,00741.8388,E,0.0,358.4,030525,,,A*6F,1746261374000
NMEA,$PSAMCLK,2364,54939300,14,9750715,4182736,549393000*78,1746261374000
NMEA,$PSAMCLK,2364,54939300,14,9750715,4182736,549393000*78,1746261374000
NMEA,$GPGGA,083616.000,4503.5915,N,00741.8388,E,1,14,0.6,278.6,M,48.2,M,,*53,1746261375000
NMEA,$PSAMSA,083616.000,4503.5915,N,00741.8388,E,0,M,,*60,1746261375000
NMEA,$GPGLL,4503.5915,N,00741.8388,E,083616.000,A,A*50,1746261375000
NMEA,$GPVTG,358.4,T,,M,0.0,N,0.0,K,A*07,1746261375000
NMEA,$GPGSV,2,1,08,05,21,069,29,16,23,302,23,18,60,165,36,20,10,035,20*79,1746261375000
NMEA,$GPGSV,2,2,08,26,51,302,30,28,39,210,36,29,53,056,35,31,50,246,37*7E,1746261375000
NMEA,$GLGSV,1,1,02,73,67,150,34,74,60,321,27*61,1746261375000
NMEA,$BDGSV,2,1,05,213,30,077,22,229,75,057,32,230,20,054,22,235,41,233,39*6E,1746261375000
NMEA,$BDGSV,2,2,05,236,20,151,26*69,1746261375000
NMEA,$GPGSA,A,3,18,29,26,31,28,16,05,20,,,,,1.4,0.6,1.0*3E,1746261375000
NMEA,$GNGSA,A,3,73,74,,,,,,,,,,,1.4,0.6,1.0*29,1746261375000
NMEA,$BDGSA,A,3,229,230,235,236,,,,,,,,,1.4,0.6,1.0*2A,1746261375000
NMEA,$GPRMC,083616.000,A,4503.5915,N,00741.8388,E,0.0,358.4,030525,,,A*6C,1746261375000
NMEA,$PSAMCLK,2364,54939400,14,9750751,4244629,549394000*7E,1746261375000
NMEA,$PSAMCLK,2364,54939400,14,9750751,4244629,549394000*7E,1746261375000
NMEA,$GPGGA,083617.000,4503.5915,N,00741.8388,E,1,12,0.8,278.6,M,48.2,M,,*5A,1746261376000
NMEA,$PSAMSA,083617.000,4503.5915,N,00741.8388,E,1,M,,*60,1746261376000
NMEA,$GPGLL,4503.5915,N,00741.8388,E,083617.000,A,A*51,1746261376000
NMEA,$GPVTG,358.4,T,,M,0.0,N,0.0,K,A*07,1746261376000
NMEA,$GPGSV,2,1,08,05,21,069,29,16,23,302,23,18,60,165,36,20,10,035,20*79,1746261376000
NMEA,$GPGSV,2,2,08,26,51,302,30,28,39,210,36,29,53,056,35,31,50,246,36*7F,1746261376000
NMEA,$GLGSV,1,1,02,73,67,150,34,74,60,321,27*61,1746261376000
NMEA,$BDGSV,2,1,05,213,30,077,22,229,75,057,32,230,20,054,22,235,41,233,39*6E,1746261376000
NMEA,$BDGSV,2,2,05,236,20,151,26*69,1746261376000
NMEA,$GPGSA,A,3,18,29,26,31,28,16,05,20,,,,,1.4,0.8,1.2*32,1746261376000
NMEA,$GNGSA,A,3,73,,,,,,,,,,,,1.4,0.8,1.2*26,1746261376000
NMEA,$BDGSA,A,3,229,235,236,,,,,,,,,,1.4,0.8,1.2*17,1746261376000
NMEA,$GPRMC,083617.000,A,4503.5915,N,00741.8388,E,0.0,358.4,030525,,,A*6D,1746261376000
NMEA,$PSAMCLK,2364,54939500,12,9750756,4306522,549395000*70,1746261376000
