NMEA,$PSAMCLK,2365,29859400,7,9748004,433089,298594000*7D,1746615376000
NMEA,$GPGGA,105616.000,4503.7606,N,00739.4780,E,1,07,1.4,264.8,M,48.2,M,,*5E,1746615376000
NMEA,$PSAMSA,105616.000,4503.7606,N,00739.4780,E,0,M,,*6F,1746615376000
NMEA,$GPGLL,4503.7606,N,00739.4780,E,105616.000,A,A*5F,1746615376000
NMEA,$GPVTG,33.7,T,,M,1.6,N,3.0,K,A*3E,1746615376000
NMEA,$GPGSV,2,1,06,08,22,293,27,10,43,151,36,16,68,214,25,23,50,085,30*7C,1746615376000
NMEA,$GPGSV,2,2,06,26,42,183,28,27,61,306,31*78,1746615376000
NMEA,$GLGSV,1,1,01,79,56,257,29*52,1746615376000
NMEA,$BDGSV,1,1,01,237,41,252,29*64,1746615376000
NMEA,$GPGSA,A,3,16,27,23,26,08,,,,,,,,2.8,1.4,2.4*34,1746615376000
NMEA,$GNGSA,A,3,79,,,,,,,,,,,,2.8,1.4,2.4*2B,1746615376000
NMEA,$BDGSA,A,3,237,,,,,,,,,,,,2.8,1.4,2.4*1C,1746615376000
NMEA,$GPRMC,105616.000,A,4503.7606,N,00739.4780,E,1.6,33.7,070525,,,A*5D,1746615376000
NMEA,$PSAMCLK,2365,29859400,7,9748004,433089,298594000*7D,1746615376000
NMEA,$PSAMCLK,2365,29859500,7,9747914,494961,298595000*78,1746615377000
NMEA,$GPGGA,105617.000,4503.7605,N,00739.4780,E,1,07,1.4,263.7,M,48.2,M,,*54,1746615377000
NMEA,$PSAMSA,105617.000,4503.7605,N,00739.4780,E,0,M,,*6D,1746615377000
NMEA,$GPGLL,4503.7605,N,00739.4780,E,105617.000,A,A*5D,1746615377000
NMEA,$GPVTG,29.5,T,,M,0.8,N,1.5,K,A*3F,1746615377000
NMEA,$GPGSV,2,1,06,08,22,293,27,10,43,151,36,16,68,214,25,23,50,085,29*74,1746615377000
NMEA,$GPGSV,2,2,06,26,42,183,28,27,61,306,31*78,1746615377000
NMEA,$GLGSV,1,1,01,79,56,257,29*52,1746615377000
NMEA,$BDGSV,1,1,02,214,18,119,27,237,41,252,29*65,1746615377000
NMEA,$GPGSA,A,3,16,27,23,26,08,,,,,,,,2.8,1.4,2.4*34,1746615377000
NMEA,$GNGSA,A,3,79,,,,,,,,,,,,2.8,1.4,2.4*2B,1746615377000
NMEA,$BDGSA,A,3,237,,,,,,,,,,,,2.8,1.4,2.4*1C,1746615377000
NMEA,$GPRMC,105617.000,A,4503.7605,N,00739.4780,E,0.8,29.5,070525,,,A*59,1746615377000
NMEA,$PSAMCLK,2365,29859500,7,9747914,494961,298595000*78,1746615377000
NMEA,$PSAMCLK,2365,29859600,7,9747829,556836,298596000*7B,1746615378000
NMEA,$GPGGA,105618.000,4503.7599,N,00739.4782,E,1,07,1.4,263.2,M,48.2,M,,*5A,1746615378000
NMEA,$PSAMSA,105618.000,4503.7599,N,00739.4782,E,0,M,,*66,1746615378000
NMEA,$GPGLL,4503.7599,N,00739.4782,E,105618.000,A,A*56,1746615378000
NMEA,$GPVTG,43.1,T,,M,1.0,N,1.8,K,A*33,1746615378000
NMEA,$GPGSV,2,1,06,08,22,293,27,10,43,151,36,16,68,214,26,23,50,085,29*77,1746615378000
NMEA,$GPGSV,2,2,06,26,42,183,28,27,61,306,31*78,1746615378000
NMEA,$GLGSV,1,1,01,79,56,257,29*52,1746615378000
NMEA,$BDGSV,1,1,02,214,18,119,27,237,41,252,29*65,1746615378000
NMEA,$GPGSA,A,3,16,27,23,26,08,,,,,,,,2.8,1.4,2.4*34,1746615378000
NMEA,$GNGSA,A,3,79,,,,,,,,,,,,2.8,1.4,2.4*2B,1746615378000
NMEA,$BDGSA,A,3,237,,,,,,,,,,,,2.8,1.4,2.4*1C,1746615378000
NMEA,$GPRMC,105618.000,A,4503.7599,N,00739.4782,E,1.0,43.1,070525,,,A*53,1746615378000
NMEA,$PSAMCLK,2365,29859600,7,9747829,556836,298596000*7B,1746615378000
NMEA,$PSAMCLK,2365,29859700,7,9747717,618712,298597000*79,1746615379000
NMEA,$GPGGA,105619.000,4503.7599,N,00739.4783,E,1,07,1.4,263.6,M,48.2,M,,*5E,1746615379000
NMEA,$PSAMSA,105619.000,4503.7599,N,00739.4783,E,0,M,,*66,1746615379000
NMEA,$GPGLL,4503.7599,N,00739.4783,E,105619.000,A,A*56,1746615379000
NMEA,$GPVTG,40.7,T,,M,0.9,N,1.6,K,A*30,1746615379000
NMEA,$GPGSV,2,1,06,08,22,293,27,10,43,151,36,16,68,214,26,23,50,085,29*77,1746615379000
NMEA,$GPGSV,2,2,06,26,42,183,28,27,61,306,31*78,1746615379000
NMEA,$GLGSV,1,1,01,79,56,257,29*52,1746615379000
NMEA,$BDGSV,1,1,02,214,18,119,27,237,41,252,29*65,1746615379000
NMEA,$GPGSA,A,3,16,27,23,26,08,,,,,,,,2.8,1.4,2.4*34,1746615379000
NMEA,$GNGSA,A,3,79,,,,,,,,,,,,2.8,1.4,2.4*2B,1746615379000
NMEA,$BDGSA,A,3,237,,,,,,,,,,,,2.8,1.4,2.4*1C,1746615379000
NMEA,$GPRMC,105619.000,A,4503.7599,N,00739.4783,E,0.9,40.7,070525,,,A*5E,1746615379000
NMEA,$PSAMCLK,2365,29859700,7,9747717,618712,298597000*79,1746615379000
NMEA,$PSAMCLK,2365,29859800,7,9747724,680587,298598000*76,1746615380000
NMEA,$GPGGA,105620.000,4503.7602,N,00739.4777,E,1,07,1.4,263.0,M,48.2,M,,*58,1746615380000
NMEA,$PSAMSA,105620.000,4503.7602,N,00739.4777,E,0,M,,*66,1746615380000
NMEA,$GPGLL,4503.7602,N,00739.4777,E,105620.000,A,A*56,1746615380000
NMEA,$GPVTG,38.4,T,,M,0.5,N,1.0,K,A*36,1746615380000
NMEA,$GPGSV,2,1,06,08,22,293,27,10,43,151,36,16,68,214,26,23,50,085,30*7F,1746615380000
NMEA,$GPGSV,2,2,06,26,42,183,28,27,61,306,31*78,1746615380000
NMEA,$GLGSV,1,1,01,79,56,257,29*52,1746615380000
NMEA,$BDGSV,1,1,02,214,18,119,26,237,41,252,30*6C,1746615380000
NMEA,$GPGSA,A,3,16,27,23,26,08,,,,,,,,2.8,1.4,2.4*34,1746615380000
NMEA,$GNGSA,A,3,79,,,,,,,,,,,,2.8,1.4,2.4*2B,1746615380000
NMEA,$BDGSA,A,3,237,,,,,,,,,,,,2.8,1.4,2.4*1C,1746615380000
NMEA,$GPRMC,105620.000,A,4503.7602,N,00739.4777,E,0.5,38.4,070525,,,A*5E,1746615380000
NMEA,$PSAMCLK,2365,29859800,7,9747724,680587,298598000*76,1746615380000
NMEA,$PSAMCLK,2365,29859900,7,9747725,742462,298599000*72,1746615381000
NMEA,$GPGGA,105621.000,4503.7603,N,00739.4774,E,1,07,1.4,262.2,M,48.2,M,,*58,1746615381000
NMEA,$PSAMSA,105621.000,4503.7603,N,00739.4774,E,0,M,,*65,1746615381000
NMEA,$GPGLL,4503.7603,N,00739.4774,E,105621.000,A,A*55,1746615381000
NMEA,$GPVTG,36.0,T,,M,0.5,N,0.9,K,A*34,1746615381000
NMEA,$GPGSV,2,1,06,08,22,293,27,10,43,151,36,16,68,214,26,23,50,085,30*7F,1746615381000
NMEA,$GPGSV,2,2,06,26,42,183,28,27,61,306,31*78,1746615381000
NMEA,$GLGSV,1,1,01,79,56,257,29*52,1746615381000
NMEA,$BDGSV,1,1,03,214,18,119,26,233,23,126,29,237,41,252,31*61,1746615381000
NMEA,$GPGSA,A,3,16,27,23,26,08,,,,,,,,2.8,1.4,2.4*34,1746615381000
NMEA,$GNGSA,A,3,79,,,,,,,,,,,,2.8,1.4,2.4*2B,1746615381000
NMEA,$BDGSA,A,3,237,,,,,,,,,,,,2.8,1.4,2.4*1C,1746615381000
NMEA,$GPRMC,105621.000,A,4503.7603,N,00739.4774,E,0.5,36.0,070525,,,A*57,1746615381000
NMEA,$PSAMCLK,2365,29859900,7,9747725,742462,298599000*72,1746615381000
NMEA,$PSAMCLK,2365,29860000,7,9747579,804335,298600000*71,1746615382000
NMEA,$GPGGA,105622.000,4503.7604,N,00739.4768,E,1,07,1.4,262.0,M,48.2,M,,*53,1746615382000
NMEA,$PSAMSA,105622.000,4503.7604,N,00739.4768,E,0,M,,*6C,1746615382000
NMEA,$GPGLL,4503.7604,N,00739.4768,E,105622.000,A,A*5C,1746615382000
NMEA,$GPVTG,39.5,T,,M,0.0,N,0.0,K,A*32,1746615382000
NMEA,$GPGSV,2,1,06,08,22,293,27,10,43,151,36,16,68,214,27,23,50,085,31*7F,1746615382000
NMEA,$GPGSV,2,2,06,26,42,183,28,27,61,306,31*78,1746615382000
NMEA,$GLGSV,1,1,01,79,56,257,29*52,1746615382000
NMEA,$BDGSV,1,1,03,214,18,119,26,233,23,126,30,237,41,252,31*69,1746615382000
NMEA,$GPGSA,A,3,16,27,23,26,08,,,,,,,,2.8,1.4,2.4*34,1746615382000
NMEA,$GNGSA,A,3,79,,,,,,,,,,,,2.8,1.4,2.4*2B,1746615382000
NMEA,$BDGSA,A,3,237,,,,,,,,,,,,2.8,1.4,2.4*1C,1746615382000
NMEA,$GPRMC,105622.000,A,4503.7604,N,00739.4768,E,0.0,39.5,070525,,,A*51,1746615382000
NMEA,$PSAMCLK,2365,29860000,7,9747579,804335,298600000*71,1746615382000
NMEA,$PSAMCLK,2365,29860100,6,9747787,866217,298601000*76,1746615383000
NMEA,$GPGGA,105623.000,4503.7604,N,00739.4768,E,1,06,1.6,262.0,M,48.2,M,,*51,1746615383000
NMEA,$PSAMSA,105623.000,4503.7604,N,00739.4768,E,0,M,,*6D,1746615383000
NMEA,$GPGLL,4503.7604,N,00739.4768,E,105623.000,A,A*5D,1746615383000
NMEA,$GPVTG,41.3,T,,M,0.0,N,0.0,K,A*3B,1746615383000
NMEA,$GPGSV,2,1,06,08,22,293,27,10,43,151,37,16,68,214,27,23,50,085,31*7E,1746615383000
NMEA,$GPGSV,2,2,06,26,42,183,29,27,61,306,31*79,1746615383000
NMEA,$GLGSV,1,1,01,79,56,257,29*52,1746615383000
NMEA,$BDGSV,1,1,03,214,18,119,26,233,23,126,32,237,41,252,32*68,1746615383000
NMEA,$GPGSA,A,3,16,27,23,26,,,,,,,,,5.0,1.6,4.6*35,1746615383000
NMEA,$GNGSA,A,3,79,,,,,,,,,,,,5.0,1.6,4.6*22,1746615383000
NMEA,$BDGSA,A,3,237,,,,,,,,,,,,5.0,1.6,4.6*15,1746615383000
NMEA,$GPRMC,105623.000,A,4503.7604,N,00739.4768,E,0.0,41.3,070525,,,A*59,1746615383000
NMEA,$PSAMCLK,2365,29860100,6,9747787,866217,298601000*76,1746615383000
NMEA,$PSAMCLK,2365,29860200,7,9747877,928103,298602000*7A,1746615384000
NMEA,$GPGGA,105624.000,4503.7612,N,00739.4745,E,1,07,1.4,270.9,M,48.2,M,,*57,1746615384000
NMEA,$PSAMSA,105624.000,4503.7612,N,00739.4745,E,0,M,,*62,1746615384000
NMEA,$GPGLL,4503.7612,N,00739.4745,E,105624.000,A,A*52,1746615384000
NMEA,$GPVTG,42.1,T,,M,0.3,N,0.5,K,A*3C,1746615384000
NMEA,$GPGSV,2,1,06,08,22,293,26,10,43,151,37,16,68,214,27,23,50,085,31*7F,1746615384000
NMEA,$GPGSV,2,2,06,26,42,183,29,27,61,306,30*78,1746615384000
NMEA,$GLGSV,1,1,01,79,56,257,29*52,1746615384000
NMEA,$BDGSV,1,1,03,214,18,119,25,233,23,126,33,237,41,252,33*6B,1746615384000
NMEA,$GPGSA,A,3,16,27,23,26,08,,,,,,,,2.8,1.4,2.4*34,1746615384000
NMEA,$GNGSA,A,3,79,,,,,,,,,,,,2.8,1.4,2.4*2B,1746615384000
NMEA,$BDGSA,A,3,237,,,,,,,,,,,,2.8,1.4,2.4*1C,1746615384000
NMEA,$GPRMC,105624.000,A,4503.7612,N,00739.4745,E,0.3,42.1,070525,,,A*54,1746615384000
NMEA,$PSAMCLK,2365,29860200,7,9747877,928103,298602000*7A,1746615384000
NMEA,$PSAMCLK,2365,29860300,7,9747841,989982,298603000*75,1746615385000
NMEA,$GPGGA,105625.000,4503.7614,N,00739.4745,E,1,07,1.4,271.0,M,48.2,M,,*58,1746615385000
NMEA,$PSAMSA,105625.000,4503.7614,N,00739.4745,E,0,M,,*65,1746615385000
NMEA,$GPGLL,4503.7614,N,00739.4745,E,105625.000,A,A*55,1746615385000
NMEA,$GPVTG,42.1,T,,M,0.3,N,0.5,K,A*3C,1746615385000
NMEA,$GPGSV,2,1,06,08,22,293,25,10,43,151,37,16,68,214,27,23,50,085,31*7C,1746615385000
NMEA,$GPGSV,2,2,06,26,42,183,30,27,61,306,30*70,1746615385000
NMEA,$GLGSV,1,1,01,79,56,257,29*52,1746615385000
NMEA,$BDGSV,1,1,03,214,18,119,25,233,23,126,33,237,41,252,33*6B,1746615385000
NMEA,$GPGSA,A,3,16,27,23,26,08,,,,,,,,2.8,1.4,2.4*34,1746615385000
NMEA,$GNGSA,A,3,79,,,,,,,,,,,,2.8,1.4,2.4*2B,1746615385000
NMEA,$BDGSA,A,3,237,,,,,,,,,,,,2.8,1.4,2.4*1C,1746615385000
NMEA,$GPRMC,105625.000,A,4503.7614,N,00739.4745,E,0.3,42.1,070525,,,A*53,1746615385000
NMEA,$PSAMCLK,2365,29860300,7,9747841,989982,298603000*75,1746615385000
NMEA,$PSAMCLK,2365,29860400,7,9747803,1051858,298604000*48,1746615386000
NMEA,$GPGGA,105626.000,4503.7614,N,00739.4742,E,1,07,1.4,270.3,M,48.2,M,,*5E,1746615386000
NMEA,$PSAMSA,105626.000,4503.7614,N,00739.4742,E,0,M,,*61,1746615386000
NMEA,$GPGLL,4503.7614,N,00739.4742,E,105626.000,A,A*51,1746615386000
NMEA,$GPVTG,42.1,T,,M,0.2,N,0.4,K,A*3C,1746615386000
NMEA,$GPGSV,2,1,06,08,22,293,25,10,43,151,37,16,68,214,28,23,50,085,32*70,1746615386000
NMEA,$GPGSV,2,2,06,26,42,183,30,27,61,306,30*70,1746615386000
NMEA,$GLGSV,1,1,01,79,56,257,29*52,1746615386000
NMEA,$BDGSV,1,1,03,214,18,119,25,233,23,126,33,237,41,252,33*6B,1746615386000
NMEA,$GPGSA,A,3,16,27,23,26,08,,,,,,,,2.8,1.4,2.4*34,1746615386000
NMEA,$GNGSA,A,3,79,,,,,,,,,,,,2.8,1.4,2.4*2B,1746615386000
NMEA,$BDGSA,A,3,237,,,,,,,,,,,,2.8,1.4,2.4*1C,1746615386000
NMEA,$GPRMC,105626.000,A,4503.7614,N,00739.4742,E,0.2,42.1,070525,,,A*56,1746615386000
NMEA,$PSAMCLK,2365,29860400,7,9747803,1051858,298604000*48,1746615386000
NMEA,$PSAMCLK,2365,29860500,7,9747813,1113734,298605000*4B,1746615387000
NMEA,$GPGGA,105627.000,4503.7614,N,00739.4737,E,1,07,1.4,270.1,M,48.2,M,,*5F,1746615387000
NMEA,$PSAMSA,105627.000,4503.7614,N,00739.4737,E,0,M,,*62,1746615387000
NMEA,$GPGLL,4503.7614,N,00739.4737,E,105627.000,A,A*52,1746615387000
NMEA,$GPVTG,42.1,T,,M,0.0,N,0.0,K,A*3A,1746615387000
NMEA,$GPGSV,2,1,06,08,22,293,24,10,43,151,37,16,68,214,28,23,50,085,32*71,1746615387000
NMEA,$GPGSV,2,2,06,26,42,183,30,27,61,306,30*70,1746615387000
NMEA,$GLGSV,1,1,01,79,56,257,28*53,1746615387000
NMEA,$BDGSV,1,1,03,214,18,119,25,233,23,126,33,237,41,252,33*6B,1746615387000
NMEA,$GPGSA,A,3,16,27,23,26,08,,,,,,,,2.8,1.4,2.4*34,1746615387000
NMEA,$GNGSA,A,3,79,,,,,,,,,,,,2.8,1.4,2.4*2B,1746615387000
NMEA,$BDGSA,A,3,237,,,,,,,,,,,,2.8,1.4,2.4*1C,1746615387000
NMEA,$GPRMC,105627.000,A,4503.7614,N,00739.4737,E,0.0,42.1,070525,,,A*57,1746615387000
NMEA,$PSAMCLK,2365,29860500,7,9747813,1113734,298605000*4B,1746615387000
NMEA,$PSAMCLK,2365,29860600,7,9747848,1175624,298606000*45,1746615388000
NMEA,$GPGGA,105628.000,4503.7616,N,00739.4711,E,1,07,1.4,274.1,M,48.2,M,,*52,1746615388000
NMEA,$PSAMSA,105628.000,4503.7616,N,00739.4711,E,0,M,,*6B,1746615388000
NMEA,$GPGLL,4503.7616,N,00739.4711,E,105628.000,A,A*5B,1746615388000
NMEA,$GPVTG,42.2,T,,M,0.2,N,0.4,K,A*3F,1746615388000
NMEA,$GPGSV,2,1,06,08,22,293,24,10,43,151,37,16,68,214,29,23,50,085,32*70,1746615388000
NMEA,$GPGSV,2,2,06,26,42,183,30,27,61,306,30*70,1746615388000
NMEA,$GLGSV,1,1,01,79,56,257,28*53,1746615388000
NMEA,$BDGSV,1,1,03,214,18,119,24,233,23,126,33,237,41,252,33*6A,1746615388000
NMEA,$GPGSA,A,3,16,27,23,26,08,,,,,,,,2.8,1.4,2.4*34,1746615388000
NMEA,$GNGSA,A,3,79,,,,,,,,,,,,2.8,1.4,2.4*2B,1746615388000
NMEA,$BDGSA,A,3,237,,,,,,,,,,,,2.8,1.4,2.4*1C,1746615388000
NMEA,$GPRMC,105628.000,A,4503.7616,N,00739.4711,E,0.2,42.2,070525,,,A*5F,1746615388000
NMEA,$PSAMCLK,2365,29860600,7,9747848,1175624,298606000*45,1746615388000
NMEA,$PSAMCLK,2365,29860700,7,9747838,1237509,298607000*4B,1746615389000
NMEA,$GPGGA,105629.000,4503.7609,N,00739.4693,E,1,07,1.4,274.6,M,48.2,M,,*51,1746615389000
NMEA,$PSAMSA,105629.000,4503.7609,N,00739.4693,E,0,M,,*6F,1746615389000
NMEA,$GPGLL,4503.7609,N,00739.4693,E,105629.000,A,A*5F,1746615389000
NMEA,$GPVTG,42.2,T,,M,0.2,N,0.3,K,A*38,1746615389000
NMEA,$GPGSV,2,1,06,08,22,293,24,10,43,151,37,16,68,214,29,23,50,085,32*70,1746615389000
NMEA,$GPGSV,2,2,06,26,42,183,31,27,61,306,30*71,1746615389000
NMEA,$GLGSV,1,1,01,79,56,257,28*53,1746615389000
NMEA,$BDGSV,1,1,03,214,18,119,24,233,23,126,33,237,41,252,33*6A,1746615389000
NMEA,$GPGSA,A,3,16,27,23,26,08,,,,,,,,2.8,1.4,2.4*34,1746615389000
NMEA,$GNGSA,A,3,79,,,,,,,,,,,,2.8,1.4,2.4*2B,1746615389000
NMEA,$BDGSA,A,3,237,,,,,,,,,,,,2.8,1.4,2.4*1C,1746615389000
NMEA,$GPRMC,105629.000,A,4503.7609,N,00739.4693,E,0.2,42.2,070525,,,A*5B,1746615389000
NMEA,$PSAMCLK,2365,29860700,7,9747838,1237509,298607000*4B,1746615389000
NMEA,$PSAMCLK,2365,29860800,7,9747840,1299387,298608000*40,1746615390000
NMEA,$GPGGA,105630.000,4503.7619,N,00739.4687,E,1,07,1.4,275.6,M,48.2,M,,*5C,1746615390000
NMEA,$PSAMSA,105630.000,4503.7619,N,00739.4687,E,0,M,,*63,1746615390000
NMEA,$GPGLL,4503.7619,N,00739.4687,E,105630.000,A,A*53,1746615390000
NMEA,$GPVTG,42.1,T,,M,0.1,N,0.1,K,A*3A,1746615390000
NMEA,$GPGSV,2,1,06,08,22,293,23,10,43,151,37,16,68,214,30,23,50,085,32*7F,1746615390000
NMEA,$GPGSV,2,2,06,26,42,183,38,27,61,306,30*78,1746615390000
NMEA,$GLGSV,1,1,01,79,56,257,28*53,1746615390000
NMEA,$BDGSV,1,1,03,214,18,119,24,233,23,126,34,237,41,252,33*6D,1746615390000
NMEA,$GPGSA,A,3,16,27,23,26,08,,,,,,,,2.8,1.4,2.4*34,1746615390000
NMEA,$GNGSA,A,3,79,,,,,,,,,,,,2.8,1.4,2.4*2B,1746615390000
NMEA,$BDGSA,A,3,237,,,,,,,,,,,,2.8,1.4,2.4*1C,1746615390000
NMEA,$GPRMC,105630.000,A,4503.7619,N,00739.4687,E,0.1,42.1,070525,,,A*57,1746615390000
NMEA,$PSAMCLK,2365,29860800,7,9747840,1299387,298608000*40,1746615390000
NMEA,$PSAMCLK,2365,29860900,8,9747796,1361255,298609000*43,1746615391000
NMEA,$GPGGA,105631.000,4503.7611,N,00739.4693,E,1,08,1.2,274.1,M,48.2,M,,*5F,1746615391000
NMEA,$PSAMSA,105631.000,4503.7611,N,00739.4693,E,0,M,,*6F,1746615391000
NMEA,$GPGLL,4503.7611,N,00739.4693,E,105631.000,A,A*5F,1746615391000
NMEA,$GPVTG,42.1,T,,M,0.0,N,0.0,K,A*3A,1746615391000
NMEA,$GPGSV,2,1,06,08,22,293,23,10,43,151,37,16,68,214,30,23,50,085,32*7F,1746615391000
NMEA,$GPGSV,2,2,06,26,42,183,40,27,61,306,30*77,1746615391000
NMEA,$GLGSV,1,1,01,79,56,256,28*52,1746615391000
NMEA,$BDGSV,1,1,03,214,18,119,23,233,23,126,34,237,41,252,33*6A,1746615391000
NMEA,$GPGSA,A,3,16,27,23,10,26,08,,,,,,,2.6,1.2,2.2*3B,1746615391000
NMEA,$GNGSA,A,3,79,,,,,,,,,,,,2.6,1.2,2.2*25,1746615391000
NMEA,$BDGSA,A,3,237,,,,,,,,,,,,2.6,1.2,2.2*12,1746615391000
NMEA,$GPRMC,105631.000,A,4503.7611,N,00739.4693,E,0.0,42.1,070525,,,A*5A,1746615391000
NMEA,$PSAMCLK,2365,29860900,8,9747796,1361255,298609000*43,1746615391000
NMEA,$PSAMCLK,2365,29861000,8,9747824,1423115,298610000*43,1746615392000
NMEA,$GPGGA,105632.000,4503.7611,N,00739.4693,E,1,08,1.2,274.1,M,48.2,M,,*5C,1746615392000
NMEA,$PSAMSA,105632.000,4503.7611,N,00739.4693,E,0,M,,*6C,1746615392000
NMEA,$GPGLL,4503.7611,N,00739.4693,E,105632.000,A,A*5C,1746615392000
NMEA,$GPVTG,42.1,T,,M,0.0,N,0.0,K,A*3A,1746615392000
NMEA,$GPGSV,2,1,06,08,22,293,23,10,43,151,37,16,68,214,30,23,50,085,31*7C,1746615392000
NMEA,$GPGSV,2,2,06,26,42,183,40,27,61,306,30*77,1746615392000
NMEA,$GLGSV,1,1,01,79,56,256,28*52,1746615392000
NMEA,$BDGSV,1,1,03,214,18,119,23,233,23,126,34,237,41,252,33*6A,1746615392000
NMEA,$GPGSA,A,3,16,27,23,10,26,08,,,,,,,2.6,1.2,2.2*3B,1746615392000
NMEA,$GNGSA,A,3,79,,,,,,,,,,,,2.6,1.2,2.2*25,1746615392000
NMEA,$BDGSA,A,3,237,,,,,,,,,,,,2.6,1.2,2.2*12,1746615392000
NMEA,$GPRMC,105632.000,A,4503.7611,N,00739.4693,E,0.0,42.1,070525,,,A*59,1746615392000
NMEA,$PSAMCLK,2365,29861000,8,9747824,1423115,298610000*43,1746615392000
NMEA,$PSAMCLK,2365,29861100,8,9747873,1484982,298611000*4A,1746615393000
NMEA,$GPGGA,105633.000,4503.7608,N,00739.4692,E,1,08,1.2,267.9,M,48.2,M,,*5E,1746615393000
NMEA,$PSAMSA,105633.000,4503.7608,N,00739.4692,E,0,M,,*64,1746615393000
NMEA,$GPGLL,4503.7608,N,00739.4692,E,105633.000,A,A*54,1746615393000
NMEA,$GPVTG,42.2,T,,M,0.0,N,0.0,K,A*39,1746615393000
NMEA,$GPGSV,2,1,06,08,22,293,23,10,43,151,37,16,68,214,30,23,50,085,31*7C,1746615393000
NMEA,$GPGSV,2,2,06,26,42,183,41,27,61,306,30*76,1746615393000
NMEA,$GLGSV,1,1,01,79,56,256,28*52,1746615393000
NMEA,$BDGSV,1,1,03,214,18,119,23,233,23,126,33,237,41,252,33*6D,1746615393000
NMEA,$GPGSA,A,3,16,27,23,10,26,08,,,,,,,2.6,1.2,2.2*3B,1746615393000
NMEA,$GNGSA,A,3,79,,,,,,,,,,,,2.6,1.2,2.2*25,1746615393000
NMEA,$BDGSA,A,3,237,,,,,,,,,,,,2.6,1.2,2.2*12,1746615393000
NMEA,$GPRMC,105633.000,A,4503.7608,N,00739.4692,E,0.0,42.2,070525,,,A*52,1746615393000
NMEA,$PSAMCLK,2365,29861100,8,9747873,1484982,298611000*4A,1746615393000
NMEA,$PSAMCLK,2365,29861200,7,9747865,1546852,298612000*41,1746615394000
NMEA,$GPGGA,105634.000,4503.7607,N,00739.4692,E,1,07,2.2,265.2,M,48.2,M,,*53,1746615394000
NMEA,$PSAMSA,105634.000,4503.7607,N,00739.4692,E,0,M,,*6C,1746615394000
NMEA,$GPGLL,4503.7607,N,00739.4692,E,105634.000,A,A*5C,1746615394000
NMEA,$GPVTG,42.1,T,,M,0.0,N,0.0,K,A*3A,1746615394000
NMEA,$GPGSV,2,1,06,08,22,293,22,10,43,151,37,16,68,214,30,23,50,085,30*7C,1746615394000
NMEA,$GPGSV,2,2,06,26,42,183,41,27,61,306,30*76,1746615394000
NMEA,$GLGSV,1,1,01,79,56,256,28*52,1746615394000
NMEA,$BDGSV,1,1,03,214,18,119,22,233,23,126,33,237,41,252,33*6C,1746615394000
NMEA,$GPGSA,A,3,16,27,10,26,08,,,,,,,,3.2,2.2,2.4*3A,1746615394000
NMEA,$GNGSA,A,3,79,,,,,,,,,,,,3.2,2.2,2.4*25,1746615394000
NMEA,$BDGSA,A,3,237,,,,,,,,,,,,3.2,2.2,2.4*12,1746615394000
NMEA,$GPRMC,105634.000,A,4503.7607,N,00739.4692,E,0.0,42.1,070525,,,A*59,1746615394000
NMEA,$PSAMCLK,2365,29861200,7,9747865,1546852,298612000*41,1746615394000
NMEA,$PSAMCLK,2365,29861300,7,9747919,1608724,298613000*4C,1746615395000
NMEA,$GPGGA,105635.000,4503.7608,N,00739.4693,E,1,07,2.2,264.0,M,48.2,M,,*5F,1746615395000
NMEA,$PSAMSA,105635.000,4503.7608,N,00739.4693,E,0,M,,*63,1746615395000
NMEA,$GPGLL,4503.7608,N,00739.4693,E,105635.000,A,A*53,1746615395000
NMEA,$GPVTG,42.1,T,,M,0.0,N,0.0,K,A*3A,1746615395000
NMEA,$GPGSV,2,1,06,08,22,293,22,10,43,151,37,16,68,214,30,23,50,085,30*7C,1746615395000
NMEA,$GPGSV,2,2,06,26,42,183,41,27,61,306,30*76,1746615395000
NMEA,$GLGSV,1,1,01,79,56,256,28*52,1746615395000
NMEA,$BDGSV,1,1,03,214,18,119,22,233,23,126,33,237,41,252,33*6C,1746615395000
NMEA,$GPGSA,A,3,16,27,10,26,08,,,,,,,,3.2,2.2,2.4*3A,1746615395000
NMEA,$GNGSA,A,3,79,,,,,,,,,,,,3.2,2.2,2.4*25,1746615395000
NMEA,$BDGSA,A,3,237,,,,,,,,,,,,3.2,2.2,2.4*12,1746615395000
NMEA,$GPRMC,105635.000,A,4503.7608,N,00739.4693,E,0.0,42.1,070525,,,A*56,1746615395000
NMEA,$PSAMCLK,2365,29861300,7,9747919,1608724,298613000*4C,1746615395000
NMEA,$PSAMCLK,2365,29861400,8,9747941,1670595,298614000*49,1746615396000
NMEA,$GPGGA,105636.000,4503.7609,N,00739.4695,E,1,08,1.2,262.9,M,48.2,M,,*58,1746615396000
NMEA,$PSAMSA,105636.000,4503.7609,N,00739.4695,E,0,M,,*67,1746615396000
NMEA,$GPGLL,4503.7609,N,00739.4695,E,105636.000,A,A*57,1746615396000
NMEA,$GPVTG,42.1,T,,M,0.0,N,0.0,K,A*3A,1746615396000
NMEA,$GPGSV,2,1,06,08,23,293,22,10,43,151,37,16,68,213,31,23,50,085,29*73,1746615396000
NMEA,$GPGSV,2,2,06,26,42,183,41,27,61,306,30*76,1746615396000
NMEA,$GLGSV,1,1,01,79,56,256,28*52,1746615396000
NMEA,$BDGSV,1,1,03,214,18,119,22,233,23,126,33,237,41,252,32*6D,1746615396000
NMEA,$GPGSA,A,3,16,27,23,10,26,08,,,,,,,2.6,1.2,2.2*3B,1746615396000
NMEA,$GNGSA,A,3,79,,,,,,,,,,,,2.6,1.2,2.2*25,1746615396000
NMEA,$BDGSA,A,3,237,,,,,,,,,,,,2.6,1.2,2.2*12,1746615396000
NMEA,$GPRMC,105636.000,A,4503.7609,N,00739.4695,E,0.0,42.1,070525,,,A*52,1746615396000
NMEA,$PSAMCLK,2365,29861400,8,9747941,1670595,298614000*49,1746615396000
NMEA,$PSAMCLK,2365,29861500,8,9747982,1732471,298615000*4A,1746615397000
NMEA,$GPGGA,105637.000,4503.7609,N,00739.4695,E,1,08,1.2,262.9,M,48.2,M,,*59,1746615397000
NMEA,$PSAMSA,105637.000,4503.7609,N,00739.4695,E,0,M,,*66,1746615397000
NMEA,$GPGLL,4503.7609,N,00739.4695,E,105637.000,A,A*56,1746615397000
NMEA,$GPVTG,42.1,T,,M,0.0,N,0.0,K,A*3A,1746615397000
NMEA,$GPGSV,2,1,06,08,23,293,22,10,43,151,37,16,68,213,31,23,50,084,29*72,1746615397000
NMEA,$GPGSV,2,2,06,26,42,183,41,27,61,307,29*7F,1746615397000
NMEA,$GLGSV,1,1,01,79,56,256,28*52,1746615397000
NMEA,$BDGSV,1,1,03,214,18,119,22,233,23,126,33,237,41,252,33*6C,1746615397000
NMEA,$GPGSA,A,3,16,27,23,10,26,08,,,,,,,2.6,1.2,2.2*3B,1746615397000
NMEA,$GNGSA,A,3,79,,,,,,,,,,,,2.6,1.2,2.2*25,1746615397000
NMEA,$BDGSA,A,3,237,,,,,,,,,,,,2.6,1.2,2.2*12,1746615397000
NMEA,$GPRMC,105637.000,A,4503.7609,N,00739.4695,E,0.0,42.1,070525,,,A*53,1746615397000
NMEA,$PSAMCLK,2365,29861500,8,9747982,1732471,298615000*4A,1746615397000
NMEA,$PSAMCLK,2365,29861600,8,9748023,1794347,298616000*49,1746615398000
NMEA,$GPGGA,105638.000,4503.7609,N,00739.4695,E,1,08,1.2,262.9,M,48.2,M,,*56,1746615398000
NMEA,$PSAMSA,105638.000,4503.7609,N,00739.4695,E,0,M,,*69,1746615398000
NMEA,$GPGLL,4503.7609,N,00739.4695,E,105638.000,A,A*59,1746615398000
NMEA,$GPVTG,42.1,T,,M,0.0,N,0.0,K,A*3A,1746615398000
NMEA,$GPGSV,2,1,06,08,23,293,22,10,43,151,37,16,68,213,31,23,50,084,29*72,1746615398000
NMEA,$GPGSV,2,2,06,26,42,183,41,27,61,307,29*7F,1746615398000
NMEA,$GLGSV,1,1,01,79,56,256,28*52,1746615398000
NMEA,$BDGSV,1,1,03,214,18,119,21,233,23,126,33,237,41,252,33*6F,1746615398000
NMEA,$GPGSA,A,3,16,27,23,10,26,08,,,,,,,2.6,1.2,2.2*3B,1746615398000
NMEA,$GNGSA,A,3,79,,,,,,,,,,,,2.6,1.2,2.2*25,1746615398000
NMEA,$BDGSA,A,3,237,,,,,,,,,,,,2.6,1.2,2.2*12,1746615398000
NMEA,$GPRMC,105638.000,A,4503.7609,N,00739.4695,E,0.0,42.1,070525,,,A*5C,1746615398000
NMEA,$PSAMCLK,2365,29861600,8,9748023,1794347,298616000*49,1746615398000
NMEA,$PSAMCLK,2365,29861700,8,9748045,1856223,298617000*4B,1746615399000
NMEA,$GPGGA,105639.000,4503.7609,N,00739.4695,E,1,08,1.2,262.9,M,48.2,M,,*57,1746615399000
NMEA,$PSAMSA,105639.000,4503.7609,N,00739.4695,E,0,M,,*68,1746615399000
NMEA,$GPGLL,4503.7609,N,00739.4695,E,105639.000,A,A*58,1746615399000
NMEA,$GPVTG,42.1,T,,M,0.0,N,0.0,K,A*3A,1746615399000
NMEA,$GPGSV,2,1,06,08,23,293,22,10,43,151,37,16,68,213,31,23,50,084,28*73,1746615399000
NMEA,$GPGSV,2,2,06,26,42,183,41,27,61,307,29*7F,1746615399000
NMEA,$GLGSV,1,1,01,79,56,256,28*52,1746615399000
NMEA,$BDGSV,1,1,03,214,18,119,21,233,23,126,33,237,41,252,33*6F,1746615399000
NMEA,$GPGSA,A,3,16,27,23,10,26,08,,,,,,,2.6,1.2,2.2*3B,1746615399000
NMEA,$GNGSA,A,3,79,,,,,,,,,,,,2.6,1.2,2.2*25,1746615399000
NMEA,$BDGSA,A,3,237,,,,,,,,,,,,2.6,1.2,2.2*12,1746615399000
NMEA,$GPRMC,105639.000,A,4503.7609,N,00739.4695,E,0.0,42.1,070525,,,A*5D,1746615399000
NMEA,$PSAMCLK,2365,29861700,8,9748045,1856223,298617000*4B,1746615399000
NMEA,$PSAMCLK,2365,29861800,8,9748068,1918097,298618000*42,1746615400000
NMEA,$GPGGA,105640.000,4503.7616,N,00739.4696,E,1,08,1.2,262.2,M,48.2,M,,*5F,1746615400000
NMEA,$PSAMSA,105640.000,4503.7616,N,00739.4696,E,0,M,,*6B,1746615400000
NMEA,$GPGLL,4503.7616,N,00739.4696,E,105640.000,A,A*5B,1746615400000
NMEA,$GPVTG,42.1,T,,M,0.2,N,0.4,K,A*3C,1746615400000
NMEA,$GPGSV,2,1,06,08,23,293,22,10,43,151,36,16,68,213,31,23,50,084,28*72,1746615400000
NMEA,$GPGSV,2,2,06,26,42,183,41,27,61,307,28*7E,1746615400000
NMEA,$GLGSV,1,1,01,79,56,256,28*52,1746615400000
NMEA,$BDGSV,1,1,03,214,18,119,20,233,23,126,33,237,41,252,33*6E,1746615400000
NMEA,$GPGSA,A,3,16,27,23,10,26,08,,,,,,,2.6,1.2,2.2*3B,1746615400000
NMEA,$GNGSA,A,3,79,,,,,,,,,,,,2.6,1.2,2.2*25,1746615400000
NMEA,$BDGSA,A,3,237,,,,,,,,,,,,2.6,1.2,2.2*12,1746615400000
NMEA,$GPRMC,105640.000,A,4503.7616,N,00739.4696,E,0.2,42.1,070525,,,A*5C,1746615400000
NMEA,$PSAMCLK,2365,29861800,8,9748068,1918097,298618000*42,1746615400000
NMEA,$PSAMCLK,2365,29861900,8,9748101,1979967,298619000*4D,1746615401000
NMEA,$GPGGA,105641.000,4503.7615,N,00739.4702,E,1,08,1.2,260.1,M,48.2,M,,*50,1746615401000
NMEA,$PSAMSA,105641.000,4503.7615,N,00739.4702,E,0,M,,*65,1746615401000
NMEA,$GPGLL,4503.7615,N,00739.4702,E,105641.000,A,A*55,1746615401000
NMEA,$GPVTG,42.1,T,,M,0.0,N,0.1,K,A*3B,1746615401000
NMEA,$GPGSV,2,1,06,08,23,293,22,10,43,151,36,16,68,213,31,23,50,084,28*72,1746615401000
NMEA,$GPGSV,2,2,06,26,42,183,41,27,61,307,28*7E,1746615401000
NMEA,$GLGSV,1,1,01,79,56,256,28*52,1746615401000
NMEA,$BDGSV,1,1,03,214,18,119,18,233,23,126,33,237,41,252,33*65,1746615401000
NMEA,$GPGSA,A,3,16,27,23,10,26,08,,,,,,,2.6,1.2,2.2*3B,1746615401000
NMEA,$GNGSA,A,3,79,,,,,,,,,,,,2.6,1.2,2.2*25,1746615401000
NMEA,$BDGSA,A,3,237,,,,,,,,,,,,2.6,1.2,2.2*12,1746615401000
NMEA,$GPRMC,105641.000,A,4503.7615,N,00739.4702,E,0.0,42.1,070525,,,A*50,1746615401000
NMEA,$PSAMCLK,2365,29861900,8,9748101,1979967,298619000*4D,1746615401000
NMEA,$PSAMCLK,2365,29862000,8,9748139,2041843,298620000*40,1746615402000
NMEA,$GPGGA,105642.000,4503.7617,N,00739.4701,E,1,08,1.2,259.5,M,48.2,M,,*5C,1746615402000
NMEA,$PSAMSA,105642.000,4503.7617,N,00739.4701,E,0,M,,*67,1746615402000
NMEA,$GPGLL,4503.7617,N,00739.4701,E,105642.000,A,A*57,1746615402000
NMEA,$GPVTG,42.1,T,,M,0.0,N,0.1,K,A*3B,1746615402000
NMEA,$GPGSV,2,1,06,08,23,293,22,10,43,151,36,16,68,213,31,23,50,084,27*7D,1746615402000
NMEA,$GPGSV,2,2,06,26,42,183,41,27,61,307,28*7E,1746615402000
NMEA,$GLGSV,1,1,01,79,56,256,28*52,1746615402000
NMEA,$BDGSV,1,1,03,214,18,119,17,233,23,126,33,237,41,252,33*6A,1746615402000
NMEA,$GPGSA,A,3,16,27,23,10,26,08,,,,,,,2.6,1.2,2.2*3B,1746615402000
NMEA,$GNGSA,A,3,79,,,,,,,,,,,,2.6,1.2,2.2*25,1746615402000
NMEA,$BDGSA,A,3,237,,,,,,,,,,,,2.6,1.2,2.2*12,1746615402000
NMEA,$GPRMC,105642.000,A,4503.7617,N,00739.4701,E,0.0,42.1,070525,,,A*52,1746615402000
NMEA,$PSAMCLK,2365,29862000,8,9748139,2041843,298620000*40,1746615402000
NMEA,$PSAMCLK,2365,29862100,8,9748204,2103723,298621000*43,1746615403000
NMEA,$GPGGA,105643.000,4503.7616,N,00739.4701,E,1,08,1.2,259.5,M,48.2,M,,*5C,1746615403000
NMEA,$PSAMSA,105643.000,4503.7616,N,00739.4701,E,0,M,,*67,1746615403000
NMEA,$GPGLL,4503.7616,N,00739.4701,E,105643.000,A,A*57,1746615403000
NMEA,$GPVTG,42.1,T,,M,0.0,N,0.0,K,A*3A,1746615403000
NMEA,$GPGSV,2,1,06,08,23,293,23,10,43,151,36,16,68,213,31,23,50,084,27*7C,1746615403000
NMEA,$GPGSV,2,2,06,26,42,183,41,27,61,307,28*7E,1746615403000
NMEA,$GLGSV,1,1,01,79,56,256,27*5D,1746615403000
NMEA,$BDGSV,1,1,03,214,18,119,15,233,23,126,33,237,41,252,33*68,1746615403000
NMEA,$GPGSA,A,3,16,27,23,10,26,08,,,,,,,2.6,1.2,2.2*3B,1746615403000
NMEA,$GNGSA,A,3,79,,,,,,,,,,,,2.6,1.2,2.2*25,1746615403000
NMEA,$BDGSA,A,3,237,,,,,,,,,,,,2.6,1.2,2.2*12,1746615403000
NMEA,$GPRMC,105643.000,A,4503.7616,N,00739.4701,E,0.0,42.1,070525,,,A*52,1746615403000
NMEA,$PSAMCLK,2365,29862100,8,9748204,2103723,298621000*43,1746615403000
NMEA,$PSAMCLK,2365,29862200,8,9748229,2165601,298622000*4D,1746615404000
NMEA,$GPGGA,105644.000,4503.7616,N,00739.4701,E,1,08,1.2,259.5,M,48.2,M,,*5B,1746615404000
NMEA,$PSAMSA,105644.000,4503.7616,N,00739.4701,E,0,M,,*60,1746615404000
NMEA,$GPGLL,4503.7616,N,00739.4701,E,105644.000,A,A*50,1746615404000
NMEA,$GPVTG,42.1,T,,M,0.0,N,0.0,K,A*3A,1746615404000
NMEA,$GPGSV,2,1,06,08,23,293,23,10,43,151,36,16,68,213,31,23,50,084,27*7C,1746615404000
NMEA,$GPGSV,2,2,06,26,42,183,41,27,61,307,28*7E,1746615404000
NMEA,$GLGSV,1,1,01,79,56,256,27*5D,1746615404000
NMEA,$BDGSV,1,1,03,214,18,119,14,233,23,126,33,237,41,252,33*69,1746615404000
NMEA,$GPGSA,A,3,16,27,23,10,26,08,,,,,,,2.6,1.2,2.2*3B,1746615404000
NMEA,$GNGSA,A,3,79,,,,,,,,,,,,2.6,1.2,2.2*25,1746615404000
NMEA,$BDGSA,A,3,237,,,,,,,,,,,,2.6,1.2,2.2*12,1746615404000
NMEA,$GPRMC,105644.000,A,4503.7616,N,00739.4701,E,0.0,42.1,070525,,,A*55,1746615404000
NMEA,$PSAMCLK,2365,29862200,8,9748229,2165601,298622000*4D,1746615404000
NMEA,$PSAMCLK,2365,29862300,8,9748254,2227479,298623000*4F,1746615405000
NMEA,$GPGGA,105645.000,4503.7616,N,00739.4701,E,1,08,1.2,259.5,M,48.2,M,,*5A,1746615405000
NMEA,$PSAMSA,105645.000,4503.7616,N,00739.4701,E,0,M,,*61,1746615405000
NMEA,$GPGLL,4503.7616,N,00739.4701,E,105645.000,A,A*51,1746615405000
NMEA,$GPVTG,42.1,T,,M,0.0,N,0.0,K,A*3A,1746615405000
NMEA,$GPGSV,2,1,06,08,23,293,23,10,43,151,36,16,68,213,31,23,50,084,26*7D,1746615405000
NMEA,$GPGSV,2,2,06,26,42,183,41,27,61,307,28*7E,1746615405000
NMEA,$GLGSV,1,1,01,79,56,256,27*5D,1746615405000
NMEA,$BDGSV,1,1,03,214,18,119,13,233,23,126,32,237,41,252,33*6F,1746615405000
NMEA,$GPGSA,A,3,16,27,23,10,26,08,,,,,,,2.6,1.2,2.2*3B,1746615405000
NMEA,$GNGSA,A,3,79,,,,,,,,,,,,2.6,1.2,2.2*25,1746615405000
NMEA,$BDGSA,A,3,237,,,,,,,,,,,,2.6,1.2,2.2*12,1746615405000
NMEA,$GPRMC,105645.000,A,4503.7616,N,00739.4701,E,0.0,42.1,070525,,,A*54,1746615405000
NMEA,$PSAMCLK,2365,29862300,8,9748254,2227479,298623000*4F,1746615405000
NMEA,$PSAMCLK,2365,29862400,8,9748265,2289350,298624000*45,1746615406000
NMEA,$GPGGA,105646.000,4503.7616,N,00739.4701,E,1,08,1.2,259.5,M,48.2,M,,*59,1746615406000
NMEA,$PSAMSA,105646.000,4503.7616,N,00739.4701,E,0,M,,*62,1746615406000
NMEA,$GPGLL,4503.7616,N,00739.4701,E,105646.000,A,A*52,1746615406000
NMEA,$GPVTG,42.1,T,,M,0.0,N,0.0,K,A*3A,1746615406000
NMEA,$GPGSV,2,1,06,08,23,293,23,10,43,151,36,16,68,213,31,23,50,084,26*7D,1746615406000
NMEA,$GPGSV,2,2,06,26,42,183,41,27,61,307,28*7E,1746615406000
NMEA,$GLGSV,1,1,01,79,56,256,27*5D,1746615406000
NMEA,$BDGSV,1,1,03,214,18,119,12,233,23,126,32,237,41,252,33*6E,1746615406000
NMEA,$GPGSA,A,3,16,27,23,10,26,08,,,,,,,2.6,1.2,2.2*3B,1746615406000
NMEA,$GNGSA,A,3,79,,,,,,,,,,,,2.6,1.2,2.2*25,1746615406000
NMEA,$BDGSA,A,3,237,,,,,,,,,,,,2.6,1.2,2.2*12,1746615406000
NMEA,$GPRMC,105646.000,A,4503.7616,N,00739.4701,E,0.0,42.1,070525,,,A*57,1746615406000
NMEA,$PSAMCLK,2365,29862400,8,9748265,2289350,298624000*45,1746615406000
NMEA,$PSAMCLK,2365,29862500,8,9748287,2351228,298625000*43,1746615407000
NMEA,$GPGGA,105647.000,4503.7616,N,00739.4701,E,1,08,1.2,259.5,M,48.2,M,,*58,1746615407000
NMEA,$PSAMSA,105647.000,4503.7616,N,00739.4701,E,0,M,,*63,1746615407000
NMEA,$GPGLL,4503.7616,N,00739.4701,E,105647.000,A,A*53,1746615407000
NMEA,$GPVTG,42.1,T,,M,0.0,N,0.0,K,A*3A,1746615407000
NMEA,$GPGSV,2,1,06,08,23,293,24,10,43,151,36,16,68,213,31,23,50,084,26*7A,1746615407000
NMEA,$GPGSV,2,2,06,26,42,183,41,27,61,307,28*7E,1746615407000
NMEA,$GLGSV,1,1,01,79,56,256,27*5D,1746615407000
NMEA,$BDGSV,1,1,02,233,23,126,32,237,41,252,33*6B,1746615407000
NMEA,$GPGSA,A,3,16,27,23,10,26,08,,,,,,,2.6,1.2,2.2*3B,1746615407000
NMEA,$GNGSA,A,3,79,,,,,,,,,,,,2.6,1.2,2.2*25,1746615407000
NMEA,$BDGSA,A,3,237,,,,,,,,,,,,2.6,1.2,2.2*12,1746615407000
NMEA,$GPRMC,105647.000,A,4503.7616,N,00739.4701,E,0.0,42.1,070525,,,A*56,1746615407000
NMEA,$PSAMCLK,2365,29862500,8,9748287,2351228,298625000*43,1746615407000
NMEA,$PSAMCLK,2365,29862600,8,9748317,2413105,298626000*46,1746615408000
NMEA,$GPGGA,105648.000,4503.7616,N,00739.4701,E,1,08,1.2,259.5,M,48.2,M,,*57,1746615408000
NMEA,$PSAMSA,105648.000,4503.7616,N,00739.4701,E,0,M,,*6C,1746615408000
NMEA,$GPGLL,4503.7616,N,00739.4701,E,105648.000,A,A*5C,1746615408000
NMEA,$GPVTG,42.1,T,,M,0.0,N,0.0,K,A*3A,1746615408000
NMEA,$GPGSV,2,1,06,08,23,293,24,10,43,151,36,16,68,213,31,23,50,084,26*7A,1746615408000
NMEA,$GPGSV,2,2,06,26,42,183,40,27,61,307,28*7F,1746615408000
NMEA,$GLGSV,1,1,01,79,56,256,27*5D,1746615408000
NMEA,$BDGSV,1,1,02,233,23,126,32,237,41,252,33*6B,1746615408000
NMEA,$GPGSA,A,3,16,27,23,10,26,08,,,,,,,2.6,1.2,2.2*3B,1746615408000
NMEA,$GNGSA,A,3,79,,,,,,,,,,,,2.6,1.2,2.2*25,1746615408000
NMEA,$BDGSA,A,3,237,,,,,,,,,,,,2.6,1.2,2.2*12,1746615408000
NMEA,$GPRMC,105648.000,A,4503.7616,N,00739.4701,E,0.0,42.1,070525,,,A*59,1746615408000
NMEA,$PSAMCLK,2365,29862600,8,9748317,2413105,298626000*46,1746615408000
NMEA,$PSAMCLK,2365,29862700,8,9748297,2474985,298627000*4E,1746615409000
NMEA,$GPGGA,105649.000,4503.7616,N,00739.4701,E,1,08,1.2,259.5,M,48.2,M,,*56,1746615409000
NMEA,$PSAMSA,105649.000,4503.7616,N,00739.4701,E,0,M,,*6D,1746615409000
NMEA,$GPGLL,4503.7616,N,00739.4701,E,105649.000,A,A*5D,1746615409000
NMEA,$GPVTG,42.1,T,,M,0.0,N,0.0,K,A*3A,1746615409000
NMEA,$GPGSV,2,1,06,08,23,293,24,10,43,151,36,16,68,213,31,23,50,084,26*7A,1746615409000
NMEA,$GPGSV,2,2,06,26,42,183,40,27,61,307,28*7F,1746615409000
NMEA,$GLGSV,1,1,01,79,56,256,26*5C,1746615409000
NMEA,$BDGSV,1,1,02,233,23,126,32,237,41,252,33*6B,1746615409000
NMEA,$GPGSA,A,3,16,27,23,10,26,08,,,,,,,2.6,1.2,2.2*3B,1746615409000
NMEA,$GNGSA,A,3,79,,,,,,,,,,,,2.6,1.2,2.2*25,1746615409000
NMEA,$BDGSA,A,3,237,,,,,,,,,,,,2.6,1.2,2.2*12,1746615409000
NMEA,$GPRMC,105649.000,A,4503.7616,N,00739.4701,E,0.0,42.1,070525,,,A*58,1746615409000
NMEA,$PSAMCLK,2365,29862700,8,9748297,2474985,298627000*4E,1746615409000
NMEA,$PSAMCLK,2365,29862800,8,9748237,2536864,298628000*4D,1746615410000
NMEA,$GPGGA,105650.000,4503.7616,N,00739.4701,E,1,08,1.2,259.5,M,48.2,M,,*5E,1746615410000
NMEA,$PSAMSA,105650.000,4503.7616,N,00739.4701,E,0,M,,*65,1746615410000
NMEA,$GPGLL,4503.7616,N,00739.4701,E,105650.000,A,A*55,1746615410000
NMEA,$GPVTG,42.1,T,,M,0.0,N,0.0,K,A*3A,1746615410000
NMEA,$GPGSV,2,1,06,08,23,293,24,10,43,151,36,16,68,213,31,23,50,084,26*7A,1746615410000
NMEA,$GPGSV,2,2,06,26,42,183,40,27,61,307,29*7E,1746615410000
NMEA,$GLGSV,1,1,01,79,56,256,26*5C,1746615410000
NMEA,$BDGSV,1,1,02,233,23,126,32,237,41,252,32*6A,1746615410000
NMEA,$GPGSA,A,3,16,27,23,10,26,08,,,,,,,2.6,1.2,2.2*3B,1746615410000
NMEA,$GNGSA,A,3,79,,,,,,,,,,,,2.6,1.2,2.2*25,1746615410000
NMEA,$BDGSA,A,3,237,,,,,,,,,,,,2.6,1.2,2.2*12,1746615410000
NMEA,$GPRMC,105650.000,A,4503.7616,N,00739.4701,E,0.0,42.1,070525,,,A*50,1746615410000
NMEA,$PSAMCLK,2365,29862800,8,9748237,2536864,298628000*4D,1746615410000
NMEA,$PSAMCLK,2365,29862900,7,9748269,2598739,298629000*4A,1746615411000
NMEA,$GPGGA,105651.000,4503.7616,N,00739.4701,E,1,07,2.0,259.5,M,48.2,M,,*51,1746615411000
NMEA,$PSAMSA,105651.000,4503.7616,N,00739.4701,E,0,M,,*64,1746615411000
NMEA,$GPGLL,4503.7616,N,00739.4701,E,105651.000,A,A*54,1746615411000
NMEA,$GPVTG,42.1,T,,M,0.0,N,0.0,K,A*3A,1746615411000
NMEA,$GPGSV,2,1,06,08,23,293,24,10,43,151,35,16,68,213,31,23,50,084,25*7A,1746615411000
NMEA,$GPGSV,2,2,06,26,42,183,40,27,61,307,33*75,1746615411000
NMEA,$GLGSV,1,1,01,79,56,256,26*5C,1746615411000
NMEA,$BDGSV,1,1,02,233,23,126,32,237,41,252,32*6A,1746615411000
NMEA,$GPGSA,A,3,16,27,10,26,08,,,,,,,,3.2,2.0,2.4*38,1746615411000
NMEA,$GNGSA,A,3,79,,,,,,,,,,,,3.2,2.0,2.4*27,1746615411000
NMEA,$BDGSA,A,3,237,,,,,,,,,,,,3.2,2.0,2.4*10,1746615411000
NMEA,$GPRMC,105651.000,A,4503.7616,N,00739.4701,E,0.0,42.1,070525,,,A*51,1746615411000
NMEA,$PSAMCLK,2365,29862900,7,9748269,2598739,298629000*4A,1746615411000
NMEA,$PSAMCLK,2365,29863000,7,9748261,2660616,298630000*4A,1746615412000
NMEA,$GPGGA,105652.000,4503.7616,N,00739.4701,E,1,07,2.0,259.5,M,48.2,M,,*52,1746615412000
NMEA,$PSAMSA,105652.000,4503.7616,N,00739.4701,E,1,M,,*66,1746615412000
NMEA,$GPGLL,4503.7616,N,00739.4701,E,105652.000,A,A*57,1746615412000
NMEA,$GPVTG,42.1,T,,M,0.0,N,0.0,K,A*3A,1746615412000
NMEA,$GPGSV,2,1,06,08,23,293,24,10,43,151,35,16,68,213,31,23,50,084,25*7A,1746615412000
NMEA,$GPGSV,2,2,06,26,42,183,40,27,61,307,33*75,1746615412000
NMEA,$GLGSV,1,1,01,79,56,256,26*5C,1746615412000
NMEA,$BDGSV,1,1,02,233,23,126,32,237,41,252,32*6A,1746615412000
NMEA,$GPGSA,A,3,16,27,10,26,08,,,,,,,,3.2,2.0,2.4*38,1746615412000
NMEA,$GNGSA,A,3,79,,,,,,,,,,,,3.2,2.0,2.4*27,1746615412000
NMEA,$BDGSA,A,3,237,,,,,,,,,,,,3.2,2.0,2.4*10,1746615412000
NMEA,$GPRMC,105652.000,A,4503.7616,N,00739.4701,E,0.0,42.1,070525,,,A*52,1746615412000
NMEA,$PSAMCLK,2365,29863000,7,9748261,2660616,298630000*4A,1746615412000
NMEA,$PSAMCLK,2365,29863100,8,9748236,2722493,298631000*4F,1746615413000
NMEA,$GPGGA,105653.000,4503.7616,N,00739.4701,E,1,08,1.2,259.5,M,48.2,M,,*5D,1746615413000
NMEA,$PSAMSA,105653.000,4503.7616,N,00739.4701,E,1,M,,*67,1746615413000
NMEA,$GPGLL,4503.7616,N,00739.4701,E,105653.000,A,A*56,1746615413000
NMEA,$GPVTG,42.1,T,,M,0.0,N,0.0,K,A*3A,1746615413000
NMEA,$GPGSV,2,1,06,08,23,293,24,10,43,151,35,16,68,213,31,23,50,084,25*7A,1746615413000
NMEA,$GPGSV,2,2,06,26,42,183,40,27,61,307,33*75,1746615413000
NMEA,$GLGSV,1,1,01,79,56,256,26*5C,1746615413000
NMEA,$BDGSV,1,1,02,233,23,126,31,237,41,252,33*68,1746615413000
NMEA,$GPGSA,A,3,16,27,23,10,26,08,,,,,,,2.6,1.2,2.2*3B,1746615413000
NMEA,$GNGSA,A,3,79,,,,,,,,,,,,2.6,1.2,2.2*25,1746615413000
NMEA,$BDGSA,A,3,237,,,,,,,,,,,,2.6,1.2,2.2*12,1746615413000
NMEA,$GPRMC,105653.000,A,4503.7616,N,00739.4701,E,0.0,42.1,070525,,,A*53,1746615413000
NMEA,$PSAMCLK,2365,29863100,8,9748236,2722493,298631000*4F,1746615413000
NMEA,$PSAMCLK,2365,29863200,8,9748224,2784370,298632000*4A,1746615414000
NMEA,$GPGGA,105654.000,4503.7616,N,00739.4701,E,1,08,1.2,259.5,M,48.2,M,,*5A,1746615414000
NMEA,$PSAMSA,105654.000,4503.7616,N,00739.4701,E,1,M,,*60,1746615414000
NMEA,$GPGLL,4503.7616,N,00739.4701,E,105654.000,A,A*51,1746615414000
NMEA,$GPVTG,42.1,T,,M,0.0,N,0.0,K,A*3A,1746615414000
NMEA,$GPGSV,2,1,06,08,23,293,24,10,43,151,35,16,68,213,31,23,50,084,25*7A,1746615414000
NMEA,$GPGSV,2,2,06,26,42,183,40,27,61,307,33*75,1746615414000
NMEA,$GLGSV,1,1,01,79,56,256,26*5C,1746615414000
NMEA,$BDGSV,1,1,02,233,23,126,31,237,41,252,33*68,1746615414000
NMEA,$GPGSA,A,3,16,27,23,10,26,08,,,,,,,2.6,1.2,2.2*3B,1746615414000
NMEA,$GNGSA,A,3,79,,,,,,,,,,,,2.6,1.2,2.2*25,1746615414000
NMEA,$BDGSA,A,3,237,,,,,,,,,,,,2.6,1.2,2.2*12,1746615414000
NMEA,$GPRMC,105654.000,A,4503.7616,N,00739.4701,E,0.0,42.1,070525,,,A*54,1746615414000
NMEA,$PSAMCLK,2365,29863200,8,9748224,2784370,298632000*4A,1746615414000
NMEA,$PSAMCLK,2365,29863300,8,9748208,2846248,298633000*4F,1746615415000
NMEA,$GPGGA,105655.000,4503.7616,N,00739.4701,E,1,08,1.2,259.5,M,48.2,M,,*5B,1746615415000
NMEA,$PSAMSA,105655.000,4503.7616,N,00739.4701,E,1,M,,*61,1746615415000
NMEA,$GPGLL,4503.7616,N,00739.4701,E,105655.000,A,A*50,1746615415000
NMEA,$GPVTG,42.1,T,,M,0.0,N,0.0,K,A*3A,1746615415000
NMEA,$GPGSV,2,1,06,08,23,293,24,10,43,151,35,16,68,213,31,23,50,084,25*7A,1746615415000
NMEA,$GPGSV,2,2,06,26,42,183,40,27,61,307,33*75,1746615415000
NMEA,$GLGSV,1,1,01,79,56,256,26*5C,1746615415000
NMEA,$BDGSV,1,1,02,233,23,126,31,237,41,252,33*68,1746615415000
NMEA,$GPGSA,A,3,16,27,23,10,26,08,,,,,,,2.6,1.2,2.2*3B,1746615415000
NMEA,$GNGSA,A,3,79,,,,,,,,,,,,2.6,1.2,2.2*25,1746615415000
NMEA,$BDGSA,A,3,237,,,,,,,,,,,,2.6,1.2,2.2*12,1746615415000
NMEA,$GPRMC,105655.000,A,4503.7616,N,00739.4701,E,0.0,42.1,070525,,,A*55,1746615415000
NMEA,$PSAMCLK,2365,29863300,8,9748208,2846248,298633000*4F,1746615415000
NMEA,$PSAMCLK,2365,29863400,8,9748201,2908124,298634000*44,1746615416000
NMEA,$GPGGA,105656.000,4503.7616,N,00739.4701,E,1,08,1.2,259.5,M,48.2,M,,*58,1746615416000
NMEA,$PSAMSA,105656.000,4503.7616,N,00739.4701,E,1,M,,*62,1746615416000
NMEA,$GPGLL,4503.7616,N,00739.4701,E,105656.000,A,A*53,1746615416000
NMEA,$GPVTG,42.1,T,,M,0.0,N,0.0,K,A*3A,1746615416000
NMEA,$GPGSV,2,1,06,08,23,293,24,10,43,151,35,16,68,213,31,23,50,084,25*7A,1746615416000
NMEA,$GPGSV,2,2,06,26,42,183,40,27,61,307,33*75,1746615416000
NMEA,$GLGSV,1,1,01,79,56,256,27*5D,1746615416000
NMEA,$BDGSV,1,1,02,233,23,126,31,237,41,252,34*6F,1746615416000
NMEA,$GPGSA,A,3,16,27,23,10,26,08,,,,,,,2.6,1.2,2.2*3B,1746615416000
NMEA,$GNGSA,A,3,79,,,,,,,,,,,,2.6,1.2,2.2*25,1746615416000
NMEA,$BDGSA,A,3,237,,,,,,,,,,,,2.6,1.2,2.2*12,1746615416000
NMEA,$GPRMC,105656.000,A,4503.7616,N,00739.4701,E,0.0,42.1,070525,,,A*56,1746615416000
NMEA,$PSAMCLK,2365,29863400,8,9748201,2908124,298634000*44,1746615416000
NMEA,$PSAMCLK,2365,29863500,8,9748188,2970005,298635000*4B,1746615417000
NMEA,$GPGGA,105657.000,4503.7616,N,00739.4701,E,1,08,1.2,259.5,M,48.2,M,,*59,1746615417000
NMEA,$PSAMSA,105657.000,4503.7616,N,00739.4701,E,0,M,,*62,1746615417000
NMEA,$GPGLL,4503.7616,N,00739.4701,E,105657.000,A,A*52,1746615417000
NMEA,$GPVTG,42.1,T,,M,0.0,N,0.0,K,A*3A,1746615417000
NMEA,$GPGSV,2,1,06,08,23,293,24,10,43,151,35,16,68,213,31,23,50,084,25*7A,1746615417000
NMEA,$GPGSV,2,2,06,26,42,183,40,27,61,307,33*75,1746615417000
NMEA,$GLGSV,1,1,01,79,56,256,27*5D,1746615417000
NMEA,$BDGSV,1,1,02,233,23,126,32,237,41,252,34*6C,1746615417000
NMEA,$GPGSA,A,3,16,27,23,10,26,08,,,,,,,2.6,1.2,2.2*3B,1746615417000
NMEA,$GNGSA,A,3,79,,,,,,,,,,,,2.6,1.2,2.2*25,1746615417000
NMEA,$BDGSA,A,3,237,,,,,,,,,,,,2.6,1.2,2.2*12,1746615417000
NMEA,$GPRMC,105657.000,A,4503.7616,N,00739.4701,E,0.0,42.1,070525,,,A*57,1746615417000
NMEA,$PSAMCLK,2365,29863500,8,9748188,2970005,298635000*4B,1746615417000
NMEA,$PSAMCLK,2365,29863600,8,9748163,3031883,298636000*45,1746615418000
NMEA,$GPGGA,105658.000,4503.7616,N,00739.4701,E,1,08,1.2,259.5,M,48.2,M,,*56,1746615418000
NMEA,$PSAMSA,105658.000,4503.7616,N,00739.4701,E,0,M,,*6D,1746615418000
NMEA,$GPGLL,4503.7616,N,00739.4701,E,105658.000,A,A*5D,1746615418000
NMEA,$GPVTG,42.1,T,,M,0.0,N,0.0,K,A*3A,1746615418000
NMEA,$GPGSV,2,1,06,08,23,293,24,10,43,151,35,16,68,213,31,23,50,084,25*7A,1746615418000
NMEA,$GPGSV,2,2,06,26,42,183,40,27,61,307,33*75,1746615418000
NMEA,$GLGSV,1,1,01,79,56,256,27*5D,1746615418000
NMEA,$BDGSV,1,1,02,233,23,126,32,237,41,252,34*6C,1746615418000
NMEA,$GPGSA,A,3,16,27,23,10,26,08,,,,,,,2.6,1.2,2.2*3B,1746615418000
NMEA,$GNGSA,A,3,79,,,,,,,,,,,,2.6,1.2,2.2*25,1746615418000
NMEA,$BDGSA,A,3,237,,,,,,,,,,,,2.6,1.2,2.2*12,1746615418000
NMEA,$GPRMC,105658.000,A,4503.7616,N,00739.4701,E,0.0,42.1,070525,,,A*58,1746615418000
NMEA,$PSAMCLK,2365,29863600,8,9748163,3031883,298636000*45,1746615418000
NMEA,$PSAMCLK,2365,29863700,7,9748163,3093759,298637000*4A,1746615419000
NMEA,$GPGGA,105659.000,4503.7616,N,00739.4701,E,1,07,2.0,259.5,M,48.2,M,,*59,1746615419000
NMEA,$PSAMSA,105659.000,4503.7616,N,00739.4701,E,1,M,,*6D,1746615419000
NMEA,$GPGLL,4503.7616,N,00739.4701,E,105659.000,A,A*5C,1746615419000
NMEA,$GPVTG,42.1,T,,M,0.0,N,0.0,K,A*3A,1746615419000
NMEA,$GPGSV,2,1,06,08,23,293,24,10,43,151,35,16,68,213,31,23,50,084,23*7C,1746615419000
NMEA,$GPGSV,2,2,06,26,42,183,40,27,61,307,33*75,1746615419000
NMEA,$GLGSV,1,1,01,79,56,256,27*5D,1746615419000
NMEA,$BDGSV,1,1,02,233,23,126,32,237,41,252,34*6C,1746615419000
NMEA,$GPGSA,A,3,16,27,10,26,08,,,,,,,,3.2,2.0,2.4*38,1746615419000
NMEA,$GNGSA,A,3,79,,,,,,,,,,,,3.2,2.0,2.4*27,1746615419000
NMEA,$BDGSA,A,3,237,,,,,,,,,,,,3.2,2.0,2.4*10,1746615419000
NMEA,$GPRMC,105659.000,A,4503.7616,N,00739.4701,E,0.0,42.1,070525,,,A*59,1746615419000
NMEA,$PSAMCLK,2365,29863700,7,9748163,3093759,298637000*4A,1746615419000
NMEA,$PSAMCLK,2365,29863800,7,9748146,3155636,298638000*4E,1746615420000
NMEA,$GPGGA,105700.000,4503.7616,N,00739.4701,E,1,07,2.0,259.5,M,48.2,M,,*54,1746615420000
NMEA,$PSAMSA,105700.000,4503.7616,N,00739.4701,E,1,M,,*60,1746615420000
NMEA,$GPGLL,4503.7616,N,00739.4701,E,105700.000,A,A*51,1746615420000
NMEA,$GPVTG,42.1,T,,M,0.0,N,0.0,K,A*3A,1746615420000
NMEA,$GPGSV,2,1,06,08,23,293,24,10,43,151,35,16,68,213,31,23,50,084,22*7D,1746615420000
NMEA,$GPGSV,2,2,06,26,42,183,40,27,61,307,33*75,1746615420000
NMEA,$GLGSV,1,1,01,79,56,256,27*5D,1746615420000
NMEA,$BDGSV,1,1,02,233,23,126,32,237,41,252,34*6C,1746615420000
NMEA,$GPGSA,A,3,16,27,10,26,08,,,,,,,,3.2,2.0,2.4*38,1746615420000
NMEA,$GNGSA,A,3,79,,,,,,,,,,,,3.2,2.0,2.4*27,1746615420000
NMEA,$BDGSA,A,3,237,,,,,,,,,,,,3.2,2.0,2.4*10,1746615420000
NMEA,$GPRMC,105700.000,A,4503.7616,N,00739.4701,E,0.0,42.1,070525,,,A*54,1746615420000
NMEA,$PSAMCLK,2365,29863800,7,9748146,3155636,298638000*4E,1746615420000
NMEA,$PSAMCLK,2365,29863900,7,9748146,3217512,298639000*4E,1746615421000
NMEA,$GPGGA,105701.000,4503.7616,N,00739.4701,E,1,07,2.0,259.5,M,48.2,M,,*55,1746615421000
NMEA,$PSAMSA,105701.000,4503.7616,N,00739.4701,E,1,M,,*61,1746615421000
NMEA,$GPGLL,4503.7616,N,00739.4701,E,105701.000,A,A*50,1746615421000
NMEA,$GPVTG,42.1,T,,M,0.0,N,0.0,K,A*3A,1746615421000
NMEA,$GPGSV,2,1,06,08,23,293,24,10,43,151,35,16,68,213,31,23,50,084,20*7F,1746615421000
NMEA,$GPGSV,2,2,06,26,42,183,40,27,61,307,33*75,1746615421000
NMEA,$GLGSV,1,1,01,79,56,256,27*5D,1746615421000
NMEA,$BDGSV,1,1,02,233,23,126,32,237,41,252,34*6C,1746615421000
NMEA,$GPGSA,A,3,16,27,10,26,08,,,,,,,,3.2,2.0,2.4*38,1746615421000
NMEA,$GNGSA,A,3,79,,,,,,,,,,,,3.2,2.0,2.4*27,1746615421000
NMEA,$BDGSA,A,3,237,,,,,,,,,,,,3.2,2.0,2.4*10,1746615421000
NMEA,$GPRMC,105701.000,A,4503.7616,N,00739.4701,E,0.0,42.1,070525,,,A*55,1746615421000
NMEA,$PSAMCLK,2365,29863900,7,9748146,3217512,298639000*4E,1746615421000
NMEA,$PSAMCLK,2365,29864000,7,9748134,3279389,298640000*47,1746615422000
NMEA,$GPGGA,105702.000,4503.7616,N,00739.4701,E,1,07,2.0,259.5,M,48.2,M,,*56,1746615422000
NMEA,$PSAMSA,105702.000,4503.7616,N,00739.4701,E,1,M,,*62,1746615422000
NMEA,$GPGLL,4503.7616,N,00739.4701,E,105702.000,A,A*53,1746615422000
NMEA,$GPVTG,42.1,T,,M,0.0,N,0.0,K,A*3A,1746615422000
NMEA,$GPGSV,2,1,06,08,23,293,24,10,43,151,35,16,68,213,31,23,50,084,19*75,1746615422000
NMEA,$GPGSV,2,2,06,26,42,183,40,27,61,307,33*75,1746615422000
NMEA,$GLGSV,1,1,01,79,56,256,27*5D,1746615422000
NMEA,$BDGSV,1,1,02,233,23,126,32,237,41,252,34*6C,1746615422000
NMEA,$GPGSA,A,3,16,27,10,26,08,,,,,,,,3.2,2.0,2.4*38,1746615422000
NMEA,$GNGSA,A,3,79,,,,,,,,,,,,3.2,2.0,2.4*27,1746615422000
NMEA,$BDGSA,A,3,237,,,,,,,,,,,,3.2,2.0,2.4*10,1746615422000
NMEA,$GPRMC,105702.000,A,4503.7616,N,00739.4701,E,0.0,42.1,070525,,,A*56,1746615422000
NMEA,$PSAMCLK,2365,29864000,7,9748134,3279389,298640000*47,1746615422000
NMEA,$PSAMCLK,2365,29864100,7,9748124,3341264,298641000*4E,1746615423000
NMEA,$GPGGA,105703.000,4503.7616,N,00739.4701,E,1,07,2.0,259.5,M,48.2,M,,*57,1746615423000
NMEA,$PSAMSA,105703.000,4503.7616,N,00739.4701,E,1,M,,*63,1746615423000
NMEA,$GPGLL,4503.7616,N,00739.4701,E,105703.000,A,A*52,1746615423000
NMEA,$GPVTG,42.1,T,,M,0.0,N,0.0,K,A*3A,1746615423000
NMEA,$GPGSV,2,1,06,08,23,293,24,10,43,151,35,16,68,213,31,23,50,084,18*74,1746615423000
NMEA,$GPGSV,2,2,06,26,42,183,40,27,61,307,33*75,1746615423000
NMEA,$GLGSV,1,1,01,79,56,256,27*5D,1746615423000
NMEA,$BDGSV,1,1,02,233,23,126,32,237,41,252,34*6C,1746615423000
NMEA,$GPGSA,A,3,16,27,10,26,08,,,,,,,,3.2,2.0,2.4*38,1746615423000
NMEA,$GNGSA,A,3,79,,,,,,,,,,,,3.2,2.0,2.4*27,1746615423000
NMEA,$BDGSA,A,3,237,,,,,,,,,,,,3.2,2.0,2.4*10,1746615423000
NMEA,$GPRMC,105703.000,A,4503.7616,N,00739.4701,E,0.0,42.1,070525,,,A*57,1746615423000
NMEA,$PSAMCLK,2365,29864100,7,9748124,3341264,298641000*4E,1746615423000
NMEA,$PSAMCLK,2365,29864200,8,9748101,3403141,298642000*43,1746615424000
NMEA,$GPGGA,105704.000,4503.7616,N,00739.4701,E,1,08,1.2,259.5,M,48.2,M,,*5E,1746615424000
NMEA,$PSAMSA,105704.000,4503.7616,N,00739.4701,E,1,M,,*64,1746615424000
NMEA,$GPGLL,4503.7616,N,00739.4701,E,105704.000,A,A*55,1746615424000
NMEA,$GPVTG,42.1,T,,M,0.0,N,0.0,K,A*3A,1746615424000
NMEA,$GPGSV,2,1,06,08,23,293,24,10,43,151,35,16,68,213,31,23,50,084,20*7F,1746615424000
NMEA,$GPGSV,2,2,06,26,42,183,40,27,61,307,33*75,1746615424000
NMEA,$GLGSV,1,1,01,79,56,256,27*5D,1746615424000
NMEA,$BDGSV,1,1,02,233,23,126,32,237,41,252,34*6C,1746615424000
NMEA,$GPGSA,A,3,16,27,23,10,26,08,,,,,,,2.6,1.2,2.2*3B,1746615424000
NMEA,$GNGSA,A,3,79,,,,,,,,,,,,2.6,1.2,2.2*25,1746615424000
NMEA,$BDGSA,A,3,237,,,,,,,,,,,,2.6,1.2,2.2*12,1746615424000
NMEA,$GPRMC,105704.000,A,4503.7616,N,00739.4701,E,0.0,42.1,070525,,,A*50,1746615424000
NMEA,$PSAMCLK,2365,29864200,8,9748101,3403141,298642000*43,1746615424000
NMEA,$PSAMCLK,2365,29864300,6,9748085,3465017,298643000*42,1746615425000
NMEA,$GPGGA,105705.000,4503.7616,N,00739.4701,E,1,06,2.2,259.5,M,48.2,M,,*52,1746615425000
NMEA,$PSAMSA,105705.000,4503.7616,N,00739.4701,E,1,M,,*65,1746615425000
NMEA,$GPGLL,4503.7616,N,00739.4701,E,105705.000,A,A*54,1746615425000
NMEA,$GPVTG,42.1,T,,M,0.0,N,0.0,K,A*3A,1746615425000
NMEA,$GPGSV,2,1,06,08,23,293,24,10,43,151,35,16,68,213,31,23,50,084,20*7F,1746615425000
NMEA,$GPGSV,2,2,06,26,42,183,40,27,61,307,33*75,1746615425000
NMEA,$GLGSV,1,1,01,79,56,256,26*5C,1746615425000
NMEA,$BDGSV,1,1,02,233,23,126,32,237,41,252,34*6C,1746615425000
NMEA,$GPGSA,A,3,16,27,10,26,08,,,,,,,,3.4,2.2,2.6*3E,1746615425000
NMEA,$BDGSA,A,3,237,,,,,,,,,,,,3.4,2.2,2.6*16,1746615425000
NMEA,$GPRMC,105705.000,A,4503.7616,N,00739.4701,E,0.0,42.1,070525,,,A*51,1746615425000
NMEA,$PSAMCLK,2365,29864300,6,9748085,3465017,298643000*42,1746615425000
NMEA,$PSAMCLK,2365,29864400,6,9748081,3526893,298644000*44,1746615426000
NMEA,$GPGGA,105706.000,4503.7616,N,00739.4701,E,1,06,2.2,259.5,M,48.2,M,,*51,1746615426000
NMEA,$PSAMSA,105706.000,4503.7616,N,00739.4701,E,1,M,,*66,1746615426000
NMEA,$GPGLL,4503.7616,N,00739.4701,E,105706.000,A,A*57,1746615426000
NMEA,$GPVTG,42.1,T,,M,0.0,N,0.0,K,A*3A,1746615426000
NMEA,$GPGSV,2,1,06,08,23,293,24,10,43,151,35,16,68,213,31,23,50,084,20*7F,1746615426000
NMEA,$GPGSV,2,2,06,26,42,183,39,27,61,307,33*7B,1746615426000
NMEA,$GLGSV,1,1,01,79,56,256,26*5C,1746615426000
NMEA,$BDGSV,1,1,02,233,23,126,32,237,41,251,34*6F,1746615426000
NMEA,$GPGSA,A,3,16,27,10,26,08,,,,,,,,3.4,2.2,2.6*3E,1746615426000
NMEA,$BDGSA,A,3,237,,,,,,,,,,,,3.4,2.2,2.6*16,1746615426000
NMEA,$GPRMC,105706.000,A,4503.7616,N,00739.4701,E,0.0,42.1,070525,,,A*52,1746615426000
NMEA,$PSAMCLK,2365,29864400,6,9748081,3526893,298644000*44,1746615426000
NMEA,$PSAMCLK,2365,29864500,7,9748055,3588760,298645000*4B,1746615427000
NMEA,$GPGGA,105707.000,4503.7616,N,00739.4701,E,1,07,2.0,259.5,M,48.2,M,,*53,1746615427000
NMEA,$PSAMSA,105707.000,4503.7616,N,00739.4701,E,0,M,,*66,1746615427000
NMEA,$GPGLL,4503.7616,N,00739.4701,E,105707.000,A,A*56,1746615427000
NMEA,$GPVTG,42.1,T,,M,0.0,N,0.0,K,A*3A,1746615427000
NMEA,$GPGSV,2,1,06,08,23,293,24,10,43,151,35,16,68,213,31,23,50,084,20*7F,1746615427000
NMEA,$GPGSV,2,2,06,26,42,183,39,27,61,307,32*7A,1746615427000
NMEA,$GLGSV,1,1,01,79,56,256,26*5C,1746615427000
NMEA,$BDGSV,1,1,03,227,20,268,34,233,23,126,32,237,41,251,34*60,1746615427000
NMEA,$GPGSA,A,3,16,27,10,26,08,,,,,,,,3.2,2.0,2.4*38,1746615427000
NMEA,$GNGSA,A,3,79,,,,,,,,,,,,3.2,2.0,2.4*27,1746615427000
NMEA,$BDGSA,A,3,237,,,,,,,,,,,,3.2,2.0,2.4*10,1746615427000
NMEA,$GPRMC,105707.000,A,4503.7616,N,00739.4701,E,0.0,42.1,070525,,,A*53,1746615427000
NMEA,$PSAMCLK,2365,29864500,7,9748055,3588760,298645000*4B,1746615427000
NMEA,$PSAMCLK,2365,29864600,7,9748043,3650633,298646000*4D,1746615428000
NMEA,$GPGGA,105708.000,4503.7616,N,00739.4701,E,1,07,2.0,259.5,M,48.2,M,,*5C,1746615428000
NMEA,$PSAMSA,105708.000,4503.7616,N,00739.4701,E,0,M,,*69,1746615428000
NMEA,$GPGLL,4503.7616,N,00739.4701,E,105708.000,A,A*59,1746615428000
NMEA,$GPVTG,42.1,T,,M,0.0,N,0.0,K,A*3A,1746615428000
NMEA,$GPGSV,2,1,06,08,23,293,24,10,43,151,35,16,68,213,32,23,50,084,20*7C,1746615428000
NMEA,$GPGSV,2,2,06,26,42,183,39,27,62,307,32*79,1746615428000
NMEA,$GLGSV,1,1,01,79,56,256,26*5C,1746615428000
NMEA,$BDGSV,1,1,03,227,20,268,34,233,23,126,32,237,41,251,34*60,1746615428000
NMEA,$GPGSA,A,3,16,27,10,26,08,,,,,,,,3.2,2.0,2.4*38,1746615428000
NMEA,$GNGSA,A,3,79,,,,,,,,,,,,3.2,2.0,2.4*27,1746615428000
NMEA,$BDGSA,A,3,237,,,,,,,,,,,,3.2,2.0,2.4*10,1746615428000
NMEA,$GPRMC,105708.000,A,4503.7616,N,00739.4701,E,0.0,42.1,070525,,,A*5C,1746615428000
NMEA,$PSAMCLK,2365,29864600,7,9748043,3650633,298646000*4D,1746615428000
NMEA,$PSAMCLK,2365,29864700,7,9748023,3712508,298647000*47,1746615429000
NMEA,$GPGGA,105709.000,4503.7608,N,00739.4709,E,1,07,2.0,256.3,M,48.2,M,,*53,1746615429000
NMEA,$PSAMSA,105709.000,4503.7608,N,00739.4709,E,0,M,,*6F,1746615429000
NMEA,$GPGLL,4503.7608,N,00739.4709,E,105709.000,A,A*5F,1746615429000
NMEA,$GPVTG,42.1,T,,M,0.1,N,0.1,K,A*3A,1746615429000
NMEA,$GPGSV,2,1,06,08,23,293,24,10,43,151,35,16,68,213,32,23,50,084,20*7C,1746615429000
NMEA,$GPGSV,2,2,06,26,42,183,39,27,62,307,32*79,1746615429000
NMEA,$GLGSV,1,1,01,79,56,256,26*5C,1746615429000
NMEA,$BDGSV,1,1,03,227,20,268,34,233,23,126,33,237,41,251,34*61,1746615429000
NMEA,$GPGSA,A,3,16,27,10,26,08,,,,,,,,3.2,2.0,2.4*38,1746615429000
NMEA,$GNGSA,A,3,79,,,,,,,,,,,,3.2,2.0,2.4*27,1746615429000
NMEA,$BDGSA,A,3,237,,,,,,,,,,,,3.2,2.0,2.4*10,1746615429000
NMEA,$GPRMC,105709.000,A,4503.7608,N,00739.4709,E,0.1,42.1,070525,,,A*5B,1746615429000
NMEA,$PSAMCLK,2365,29864700,7,9748023,3712508,298647000*47,1746615429000
NMEA,$PSAMCLK,2365,29864800,7,9748044,3774383,298648000*43,1746615430000
NMEA,$GPGGA,105710.000,4503.7610,N,00739.4711,E,1,07,2.0,256.1,M,48.2,M,,*59,1746615430000
NMEA,$PSAMSA,105710.000,4503.7610,N,00739.4711,E,0,M,,*67,1746615430000
NMEA,$GPGLL,4503.7610,N,00739.4711,E,105710.000,A,A*57,1746615430000
NMEA,$GPVTG,42.1,T,,M,0.0,N,0.1,K,A*3B,1746615430000
NMEA,$GPGSV,2,1,06,08,23,293,24,10,43,151,35,16,68,213,32,23,50,084,20*7C,1746615430000
NMEA,$GPGSV,2,2,06,26,42,183,39,27,62,307,32*79,1746615430000
NMEA,$GLGSV,1,1,01,79,56,256,26*5C,1746615430000
NMEA,$BDGSV,1,1,03,227,20,268,34,233,23,126,33,237,41,251,35*60,1746615430000
NMEA,$GPGSA,A,3,16,27,10,26,08,,,,,,,,3.2,2.0,2.4*38,1746615430000
NMEA,$GNGSA,A,3,79,,,,,,,,,,,,3.2,2.0,2.4*27,1746615430000
NMEA,$BDGSA,A,3,237,,,,,,,,,,,,3.2,2.0,2.4*10,1746615430000
NMEA,$GPRMC,105710.000,A,4503.7610,N,00739.4711,E,0.0,42.1,070525,,,A*52,1746615430000
NMEA,$PSAMCLK,2365,29864800,7,9748044,3774383,298648000*43,1746615430000
NMEA,$PSAMCLK,2365,29864900,7,9748020,3836258,298649000*4F,1746615431000
NMEA,$GPGGA,105711.000,4503.7611,N,00739.4713,E,1,07,2.0,256.4,M,48.2,M,,*5E,1746615431000
NMEA,$PSAMSA,105711.000,4503.7611,N,00739.4713,E,0,M,,*65,1746615431000
NMEA,$GPGLL,4503.7611,N,00739.4713,E,105711.000,A,A*55,1746615431000
NMEA,$GPVTG,42.1,T,,M,0.0,N,0.1,K,A*3B,1746615431000
NMEA,$GPGSV,2,1,06,08,23,293,24,10,43,151,35,16,68,213,32,23,50,084,20*7C,1746615431000
NMEA,$GPGSV,2,2,06,26,42,183,39,27,62,307,32*79,1746615431000
NMEA,$GLGSV,1,1,01,79,56,256,26*5C,1746615431000
NMEA,$BDGSV,1,1,03,227,20,268,34,233,23,126,33,237,41,251,35*60,1746615431000
NMEA,$GPGSA,A,3,16,27,10,26,08,,,,,,,,3.2,2.0,2.4*38,1746615431000
NMEA,$GNGSA,A,3,79,,,,,,,,,,,,3.2,2.0,2.4*27,1746615431000
NMEA,$BDGSA,A,3,237,,,,,,,,,,,,3.2,2.0,2.4*10,1746615431000
NMEA,$GPRMC,105711.000,A,4503.7611,N,00739.4713,E,0.0,42.1,070525,,,A*50,1746615431000
NMEA,$PSAMCLK,2365,29864900,7,9748020,3836258,298649000*4F,1746615431000
NMEA,$PSAMCLK,2365,29865000,7,9748061,3898136,298650000*45,1746615432000
NMEA,$GPGGA,105712.000,4503.7611,N,00739.4713,E,1,07,2.0,256.9,M,48.2,M,,*50,1746615432000
NMEA,$PSAMSA,105712.000,4503.7611,N,00739.4713,E,0,M,,*66,1746615432000
NMEA,$GPGLL,4503.7611,N,00739.4713,E,105712.000,A,A*56,1746615432000
NMEA,$GPVTG,42.1,T,,M,0.0,N,0.0,K,A*3A,1746615432000
NMEA,$GPGSV,2,1,06,08,23,293,25,10,43,151,35,16,68,213,32,23,50,084,20*7D,1746615432000
NMEA,$GPGSV,2,2,06,26,42,183,39,27,62,307,32*79,1746615432000
NMEA,$GLGSV,1,1,01,79,56,256,26*5C,1746615432000
NMEA,$BDGSV,1,1,03,227,20,268,34,233,23,126,33,237,41,251,35*60,1746615432000
NMEA,$GPGSA,A,3,16,27,10,26,08,,,,,,,,3.2,2.0,2.4*38,1746615432000
NMEA,$GNGSA,A,3,79,,,,,,,,,,,,3.2,2.0,2.4*27,1746615432000
NMEA,$BDGSA,A,3,237,,,,,,,,,,,,3.2,2.0,2.4*10,1746615432000
NMEA,$GPRMC,105712.000,A,4503.7611,N,00739.4713,E,0.0,42.1,070525,,,A*53,1746615432000
NMEA,$PSAMCLK,2365,29865000,7,9748061,3898136,298650000*45,1746615432000
NMEA,$PSAMCLK,2365,29865100,7,9748045,3960011,298651000*41,1746615433000
NMEA,$GPGGA,105713.000,4503.7611,N,00739.4713,E,1,07,2.0,256.9,M,48.2,M,,*51,1746615433000
NMEA,$PSAMSA,105713.000,4503.7611,N,00739.4713,E,0,M,,*67,1746615433000
NMEA,$GPGLL,4503.7611,N,00739.4713,E,105713.000,A,A*57,1746615433000
NMEA,$GPVTG,42.1,T,,M,0.0,N,0.0,K,A*3A,1746615433000
NMEA,$GPGSV,2,1,06,08,23,293,25,10,43,151,35,16,68,213,32,23,50,084,20*7D,1746615433000
NMEA,$GPGSV,2,2,06,26,42,183,39,27,62,307,32*79,1746615433000
NMEA,$GLGSV,1,1,01,79,56,256,26*5C,1746615433000
NMEA,$BDGSV,1,1,03,227,20,268,34,233,23,126,33,237,41,251,35*60,1746615433000
NMEA,$GPGSA,A,3,16,27,10,26,08,,,,,,,,3.2,2.0,2.4*38,1746615433000
NMEA,$GNGSA,A,3,79,,,,,,,,,,,,3.2,2.0,2.4*27,1746615433000
NMEA,$BDGSA,A,3,237,,,,,,,,,,,,3.2,2.0,2.4*10,1746615433000
NMEA,$GPRMC,105713.000,A,4503.7611,N,00739.4713,E,0.0,42.1,070525,,,A*52,1746615433000
NMEA,$PSAMCLK,2365,29865100,7,9748045,3960011,298651000*41,1746615433000
NMEA,$PSAMCLK,2365,29865200,7,9748010,4021886,298652000*4C,1746615434000
NMEA,$GPGGA,105714.000,4503.7611,N,00739.4713,E,1,07,2.0,256.9,M,48.2,M,,*56,1746615434000
NMEA,$PSAMSA,105714.000,4503.7611,N,00739.4713,E,0,M,,*60,1746615434000
NMEA,$GPGLL,4503.7611,N,00739.4713,E,105714.000,A,A*50,1746615434000
NMEA,$GPVTG,42.1,T,,M,0.0,N,0.0,K,A*3A,1746615434000
NMEA,$GPGSV,2,1,06,08,23,293,24,10,43,151,35,16,68,213,32,23,50,084,20*7C,1746615434000
NMEA,$GPGSV,2,2,06,26,42,183,39,27,62,307,32*79,1746615434000
NMEA,$GLGSV,1,1,01,79,56,256,26*5C,1746615434000
NMEA,$BDGSV,1,1,03,227,20,268,34,233,23,126,33,237,41,251,35*60,1746615434000
NMEA,$GPGSA,A,3,16,27,10,26,08,,,,,,,,3.2,2.0,2.4*38,1746615434000
NMEA,$GNGSA,A,3,79,,,,,,,,,,,,3.2,2.0,2.4*27,1746615434000
NMEA,$BDGSA,A,3,237,,,,,,,,,,,,3.2,2.0,2.4*10,1746615434000
NMEA,$GPRMC,105714.000,A,4503.7611,N,00739.4713,E,0.0,42.1,070525,,,A*55,1746615434000
NMEA,$PSAMCLK,2365,29865200,7,9748010,4021886,298652000*4C,1746615434000
NMEA,$PSAMCLK,2365,29865300,7,9747997,4083761,298653000*4B,1746615435000
NMEA,$GPGGA,105715.000,4503.7611,N,00739.4713,E,1,07,2.0,256.9,M,48.2,M,,*57,1746615435000
NMEA,$PSAMSA,105715.000,4503.7611,N,00739.4713,E,1,M,,*60,1746615435000
NMEA,$GPGLL,4503.7611,N,00739.4713,E,105715.000,A,A*51,1746615435000
NMEA,$GPVTG,42.1,T,,M,0.0,N,0.0,K,A*3A,1746615435000
NMEA,$GPGSV,2,1,06,08,23,293,24,10,43,151,35,16,68,213,32,23,50,084,20*7C,1746615435000
NMEA,$GPGSV,2,2,06,26,42,183,38,27,62,307,32*78,1746615435000
NMEA,$GLGSV,1,1,01,79,56,256,26*5C,1746615435000
NMEA,$BDGSV,1,1,03,227,20,268,34,233,23,126,33,237,41,251,35*60,1746615435000
NMEA,$GPGSA,A,3,16,27,10,26,08,,,,,,,,3.2,2.0,2.4*38,1746615435000
NMEA,$GNGSA,A,3,79,,,,,,,,,,,,3.2,2.0,2.4*27,1746615435000
NMEA,$BDGSA,A,3,237,,,,,,,,,,,,3.2,2.0,2.4*10,1746615435000
NMEA,$GPRMC,105715.000,A,4503.7611,N,00739.4713,E,0.0,42.1,070525,,,A*54,1746615435000
NMEA,$PSAMCLK,2365,29865300,7,9747997,4083761,298653000*4B,1746615435000
NMEA,$PSAMCLK,2365,29865400,7,9748006,4145637,298654000*4C,1746615436000
NMEA,$GPGGA,105716.000,4503.7611,N,00739.4713,E,1,07,2.0,256.9,M,48.2,M,,*54,1746615436000
NMEA,$PSAMSA,105716.000,4503.7611,N,00739.4713,E,1,M,,*63,1746615436000
NMEA,$GPGLL,4503.7611,N,00739.4713,E,105716.000,A,A*52,1746615436000
NMEA,$GPVTG,42.1,T,,M,0.0,N,0.0,K,A*3A,1746615436000
NMEA,$GPGSV,2,1,06,08,23,293,24,10,43,151,35,16,68,213,32,23,50,084,20*7C,1746615436000
NMEA,$GPGSV,2,2,06,26,42,183,38,27,62,307,32*78,1746615436000
NMEA,$GLGSV,1,1,01,79,56,256,26*5C,1746615436000
NMEA,$BDGSV,1,1,03,227,20,268,34,233,23,126,33,237,41,251,34*61,1746615436000
NMEA,$GPGSA,A,3,16,27,10,26,08,,,,,,,,3.2,2.0,2.4*38,1746615436000
NMEA,$GNGSA,A,3,79,,,,,,,,,,,,3.2,2.0,2.4*27,1746615436000
NMEA,$BDGSA,A,3,237,,,,,,,,,,,,3.2,2.0,2.4*10,1746615436000
NMEA,$GPRMC,105716.000,A,4503.7611,N,00739.4713,E,0.0,42.1,070525,,,A*57,1746615436000
NMEA,$PSAMCLK,2365,29865400,7,9748006,4145637,298654000*4C,1746615436000
NMEA,$PSAMCLK,2365,29865500,7,9747994,4207512,298655000*40,1746615437000
NMEA,$GPGGA,105717.000,4503.7611,N,00739.4713,E,1,07,2.0,256.9,M,48.2,M,,*55,1746615437000
NMEA,$PSAMSA,105717.000,4503.7611,N,00739.4713,E,1,M,,*62,1746615437000
NMEA,$GPGLL,4503.7611,N,00739.4713,E,105717.000,A,A*53,1746615437000
NMEA,$GPVTG,42.1,T,,M,0.0,N,0.0,K,A*3A,1746615437000
NMEA,$GPGSV,2,1,06,08,23,293,24,10,43,151,35,16,68,213,33,23,50,084,20*7D,1746615437000
NMEA,$GPGSV,2,2,06,26,42,183,38,27,62,307,32*78,1746615437000
NMEA,$GLGSV,1,1,01,79,56,256,26*5C,1746615437000
