     4.01           OBSERVATION DATA    M                   RINEX VERSION / TYPE
GnssLogger          samsung 13          20250507 105633 UTC PGM / RUN BY / DATE
Google GnssLogger                                           MARKER NAME
Unknown                                                     MARKER NUMBER
Unknown             Unknown                                 OBSERVER / AGENCY
Unknown             GnssLogger          v3.1.0.4            REC # / TYPE / VERS
Unknown             Unknown                                 ANT # / TYPE
        0.0000        0.0000        0.0000                  ANTENNA: DELTA H/E/N
G    4 C1C L1C D1C S1C                                      SYS / # / OBS TYPES
R    4 C1C L1C D1C S1C                                      SYS / # / OBS TYPES
C    4 C2C L2C D2C S2C                                      SYS / # / OBS TYPES
  2025    05    07    10    56   33.0000000     GPS         TIME OF FIRST OBS
 1 R15  0                                                   GLONASS SLOT / FRQ #
samsung SM-A515F (Android 13) HW Year: 2016 HW Model:       COMMENT
S.LSI,K102                                                  COMMENT
                                                            END OF HEADER
> 2025 05 07 10 56 33.9999999  0 8                      
G10  22124006.46926      7835.04026      1298.93126        35.70026
G27  20501881.94215      1088.48215       178.01815        30.70015
G23  21287382.55214     -7571.91614     -1271.56114        29.10014
G26  22070825.08614    -24973.16814     -4171.27114        27.80014
G08  23012826.05214     10563.03514      1759.23714        26.50014
G16  20530677.60814    -14969.61114     -2504.73414        25.30014
C37  23551644.83614    -15185.93914     -2540.95314        28.70014
R15  19924732.29514    -13477.22014     -2211.50914        28.90014
> 2025 05 07 10 56 35.0000000  0 8                      
G10  22123555.28126      9139.48426      1298.34326        35.80026
G27  20501648.70415      1266.55615       169.68115        30.60015
G23  21287424.82214     -8835.51714     -1268.44714        29.10014
G26  22071400.98714    -29135.29014     -4166.93314        27.80014
G08  23012270.53714     12324.48014      1754.51314        26.70014
G16  20530936.92814    -17470.29814     -2507.55314        25.40014
C37  23551921.24414    -17722.86414     -2544.20914        28.70014
R15  19924926.26114    -15620.34314     -2216.04314        28.80014
> 2025 05 07 10 56 36.0000000  0 8                      
G10  22123069.31826     10443.56526      1298.03626        35.90026
G27  20501376.19315      1443.52215       170.54915        30.40015
G23  21287436.21514    -10099.15614     -1269.52014        29.00014
G26  22071951.10614    -33296.92514     -4167.25014        27.80014
G08  23011704.52814     14084.88814      1754.02514        27.20014
G16  20531175.56314    -19968.55314     -2502.90214        25.70014
C37  23552175.46814    -20259.06614     -2541.64814        28.70014
R15  19925089.94714    -17761.17714     -2224.17414        28.70014
> 2025 05 07 10 56 37.0000000  0 8                      
G10  22122574.36026     11747.17826      1297.51426        36.00026
G27  20501100.68315      1621.93115       173.26715        30.40015
G23  21287438.61314    -11361.86214     -1268.10214        29.10014
G26  22072513.51714    -37460.09114     -4169.79114        27.90014
G08  23011138.22014     15845.20814      1754.41114        27.40014
G16  20531420.49314    -22465.13214     -2501.60214        25.70014
C37  23552423.39714    -22791.78414     -2536.78514        28.90014
R15  19925262.32814    -19949.41014     -2220.33714        28.60014
> 2025 05 07 10 56 38.0000000  0 8                      
G10  22122104.88526     13050.44026      1297.16926        36.10026
G27  20500845.26015      1806.67015       181.98515        30.30015
G23  21287472.48915    -12627.34315     -1272.78615        29.50015
G26  22073089.11814    -41624.35214     -4170.72414        28.10014
G08  23010575.51014     17607.75114      1757.73514        27.40014
G16  20531680.41314    -24965.11814     -2507.60614        26.00014
C37  23552693.21015    -25324.54415     -2538.64315        30.10015
R15  19925455.39414    -22150.60414     -2221.09314        28.50014
> 2025 05 07 10 56 39.0000000  0 8                      
G10  22121622.22026     14353.38026      1296.93126        36.20026
G23  21287476.68715    -13894.81015     -1274.30415        30.10015
G27  20500582.34215      1985.14815       169.50315        30.20015
G26  22073650.03014    -45788.00214     -4169.18714        28.30014
G08  23009999.90914     19379.57114      1770.61114        27.30014
G16  20531918.74814    -27462.43214     -2501.82114        26.40014
C37  23552944.43615    -27858.71615     -2540.66715        30.50015
R15  19925642.46514    -24416.82714     -2216.86714        28.40014
> 2025 05 07 10 56 40.0000000  0 9                      
G10  22121139.55426     15655.85626      1296.38026        36.40026
G23  21287478.78515    -15159.89615     -1269.75715        30.50015
G27  20500305.63415      2163.35815       172.21215        30.20015
G26  22074205.24614    -49951.68914     -4169.56514        28.40014
G16  20532150.48814    -29961.77414     -2506.21714        26.90014
G08  23009412.31514     21154.34514      1770.38714        27.20014
C37  23553192.06415    -30392.83615     -2539.90215        31.00015
R15  19925806.15114    -26557.65914     -2225.91414        28.50014
C14  25392211.33814      3794.10114       760.73414        25.10014
> 2025 05 07 10 56 41.0000001  0 8                      
G10  22120687.46726     16957.93226      1296.01226        36.70026
G23  21287515.06015    -16427.00715     -1273.98615        30.80015
G27  20500054.70715      2341.21215       171.81315        30.10015
G26  22074785.34414    -54114.76014     -4168.62314        28.80014
G16  20532421.20114    -32459.43714     -2502.68514        27.00014
C37  23553469.97215    -32928.41815     -2542.12215        31.80015
R15  19926025.30014    -28835.34614     -2220.55514        28.50014
C14  25391837.49714      4562.27214       762.36014        24.60014
> 2025 05 07 10 56 41.9999998  0 8                      
G10  22120111.56526     18259.45526      1295.38326        37.10026
G23  21287436.51415    -17694.51315     -1273.56515        31.10015
G27  20499689.56015      2517.51115       169.65815        30.10015
G26  22075250.32214    -58280.48314     -4172.90814        29.30014
G16  20532562.70314    -34959.92514     -2507.76114        27.00014
C37  23553631.26015    -35463.96015     -2541.32915        32.50015
R15  19926099.94814    -30981.52914     -2219.01414        28.40014
C14  25391353.63214      5334.39014       768.28114        24.20014
> 2025 05 07 10 56 43.0000001  0 8                      
G10  22119734.42726     19560.67126      1295.14326        37.40026
G23  21287550.73515    -18963.53515     -1275.69715        31.40015
G27  20499539.06415      2694.37915       171.23415        30.00015
G26  22075912.86415    -62446.53415     -4172.13115        29.60015
G16  20532917.05714    -37462.01814     -2508.81214        27.40014
C37  23553991.01125    -37999.91825     -2542.02925        32.80025
R15  19926435.41614    -33463.33414     -2224.86814        28.30014
C14  25391066.43014      6109.66714       770.99214        23.80014
> 2025 05 07 10 56 43.9999998  0 8                      
G10  22119164.22126     20861.46626      1294.73826        37.40026
G23  21287464.09515    -20233.48115     -1276.25315        31.80015
G27  20499177.81515      2868.82915       167.39715        30.00015
G26  22076378.44115    -66612.87115     -4172.32215        29.80015
G16  20533072.35014    -39965.37614     -2509.83414        27.70014
C37  23554150.50125    -40536.51325     -2542.70325        32.80025
R15  19926497.17314    -35540.70614     -2230.91414        28.20014
C14  25390584.66413      6887.88713       773.89813        23.40013
> 2025 05 07 10 56 44.9999999  0 9                      
G10  22118708.23726     22161.84226      1294.30326        37.40026
G23  21287499.77115    -21504.52715     -1277.45815        32.10015
G26  22076971.73115    -70779.79515     -4173.07715        30.30015
G27  20498937.68115      3042.47915       167.38615        30.00015
G16  20533340.06414    -42469.16214     -2509.86014        28.20014
G08  23006548.39813     30026.62313      1749.50113        20.70013
C37  23554425.71025    -43073.60425     -2543.14725        32.80025
R15  19926697.73414    -37718.23014     -2227.53914        28.10014
C14  25390230.60913      7670.65013       779.22413        22.90013
> 2025 05 07 10 56 45.9999999  0 10                      
G10  22118227.96926     23461.48526      1293.41126        37.30026
G23  21287503.66825    -22775.71825     -1277.12525        32.10025
G26  22077530.54415    -74950.02815     -4177.74715        30.30015
G27  20498658.57415      3218.87015       171.89715        30.00015
G16  20533582.89614    -44974.31714     -2511.70214        28.60014
G08  23005977.29313     31782.01513      1746.34813        20.40013
C33  25459789.95415 -31209113.63115      1829.89315        32.40015
C37  23554676.63725    -45611.23825     -2543.71225        32.70025
R15  19926865.01814    -39878.94014     -2225.42114        28.00014
C14  25389848.37413      8454.50413       778.59013        22.50013
> 2025 05 07 10 56 46.9999999  0 10                      
G10  22117744.70426     24760.71126      1293.15426        37.20026
G23  21287514.46025    -24047.68025     -1278.21025        32.10025
G26  22078090.55615    -79117.31615     -4171.67615        30.60015
G27  20498393.85715      3396.58215       172.51115        29.90015
G16  20533831.12514    -47477.54614     -2508.12614        29.10014
G08  23005410.68613     33531.10913      1740.07913        20.40013
C33  25459196.96525 -31207279.52725      1828.29225        33.20025
C37  23554927.26325    -48149.66625     -2544.63325        32.70025
R15  19927060.78314    -42191.80414     -2225.89014        27.80014
C14  25389465.23913      9238.91913       778.88413        22.10013
> 2025 05 07 10 56 47.9999999  0 10                      
G26  22078646.37116    -83285.33116     -4174.23816        37.50016
G10  22117253.64426     26059.33326      1292.45626        37.10026
G23  21287514.46015    -25320.36815     -1278.91315        32.10015
G16  20534067.06115    -49983.03915     -2512.48715        29.50015
G27  20498123.74415      3571.81115       168.12315        29.80015
G08  23004838.38213     35279.17713      1741.69113        20.30013
C33  25458608.17225 -31205445.63225      1827.97925        33.50025
C37  23555179.38925    -50688.48025     -2544.81625        32.60025
R15  19927231.36514    -44370.86114     -2228.57214        27.70014
C14  25389078.80613     10023.61013       779.01913        21.70013
> 2025 05 07 10 56 49.0000000  0 9                      
G26  22079227.36926    -87453.14026     -4173.56626        40.30026
G10  22116796.46026     27357.98226      1292.79726        37.10026
G16  20534333.57715    -52489.95015     -2513.48015        29.80015
G27  20497890.50615      3745.58615       167.18515        29.70015
G08  23004291.26113     37028.12513      1743.52413        20.20013
C33  25458044.26325 -31203611.60925      1828.27525        33.50025
C37  23555460.59425    -53228.13825     -2545.88825        32.60025
R15  19927418.73514    -46480.34614     -2233.12414        27.60014
C14  25388710.96113     10808.78413       779.60413        21.30013
> 2025 05 07 10 56 49.9999999  0 10                      
G26  22079765.49626    -91621.47526     -4174.51426        40.30026
G10  22116300.30426     28655.75126      1291.41126        37.00026
G16  20534570.71315    -54996.24915     -2511.91015        29.90015
G27  20497608.70115      3919.71115       168.38215        29.70015
G23  21287528.25115    -27865.12515     -1277.89515        31.10015
G08  23003704.86713     38785.72013      1755.99713        20.70013
C33  25457444.67825 -31201777.96125      1827.59525        33.50025
C37  23555693.23325    -55768.05925     -2545.91525        32.50025
R15  19927612.10114    -48840.57414     -2233.36614        27.50014
C14  25388304.74213     11592.60513       777.27913        20.90013
> 2025 05 07 10 56 51.0000000  0 10                      
G26  22080354.58926    -95790.61426     -4175.38226        40.60026
G10  22115851.51516     29953.11116      1290.55916        36.80016
G16  20534841.12515    -57503.03815     -2512.87715        29.90015
G27  20497372.16515      4090.83415       163.77615        29.70015
G23  21287562.12715    -29139.10015     -1280.71815        29.80015
G08  23003166.13913     40549.61513      1761.20013        20.70013
C33  25456878.67015 -31199946.37215      1824.76615        33.40015
C37  23555971.14125    -58308.86125     -2547.03325        32.40025
R15  19927824.95414    -51086.91714     -2229.68014        27.50014
C14  25387934.79813     12377.04713       778.96113        20.60013
> 2025 05 07 10 56 51.9999999  0 10                      
G26  22080896.91326    -99960.07826     -4175.54126        40.60026
G10  22115360.75416     31247.51116      1287.25116        36.60016
G16  20535072.26515    -60011.98315     -2515.93915        29.90015
G27  20497095.75615      4259.01815       160.79715        29.60015
G23  21287549.23614    -30414.21614     -1281.60314        28.70014
G08  23002568.35313     42315.12513      1760.39813        20.70013
C33  25456282.68215 -31198116.23415      1823.54715        33.30015
C37  23556213.07325    -60850.12825     -2547.36025        32.30025
R15  19928016.82114    -53439.50414     -2231.76214        27.60014
C14  25387529.17913     13164.64713       783.31313        20.30013
> 2025 05 07 10 56 52.9999999  0 10                      
G26  22081454.52726   -104130.38626     -4176.57126        40.70026
G10  22114874.19116     32540.74616      1286.80716        36.40016
G16  20535307.30315    -62521.17515     -2515.15915        30.20015
G27  20496813.65115      4428.84015       164.79515        29.50015
G23  21287560.92814    -31692.52614     -1285.75114        27.60014
G08  23001999.64713     44079.87213      1758.51913        20.60013
C33  25455694.48915 -31196284.50615      1826.73015        33.20015
C37  23556466.99725    -63392.25325     -2548.34425        32.20025
R15  19928173.31314    -55543.63314     -2235.61914        27.70014
C14  25387138.25013     13956.83213       788.68513        20.00013
> 2025 05 07 10 56 54.0000000  0 9                      
G26  22082040.32226   -108301.44326     -4177.29326        40.70026
G10  22114417.90716     33835.65816      1289.88616        36.30016
G16  20535575.61715    -65032.15915     -2517.74115        30.50015
G23  21287608.29514    -32974.23314     -1289.26814        26.80014
G08  23001461.22013     45842.67613      1755.96813        20.80013
C33  25455130.88015 -31194452.64815      1826.11215        33.10015
C37  23556752.40015    -65935.30915     -2549.33015        32.20015
R15  19928378.07114    -57744.86314     -2232.92214        27.70014
C14  25386771.90413     14752.69413       791.89113        19.80013
> 2025 05 07 10 56 55.0000000  0 10                      
G26  22082599.73426   -112473.16026     -4177.90726        40.70026
G10  22113937.64026     35129.77726      1287.85826        36.10026
G16  20535810.35415    -67543.91115     -2517.99715        30.80015
G27  20496305.20314      4780.74814       174.76014        28.70014
G23  21287611.89314    -34253.74514     -1284.27614        26.10014
G08  23000884.41913     47602.15013      1751.94313        21.30013
C37  23557002.12725    -68479.10625     -2549.97525        32.50025
C33  25454548.08325 -31192621.16225      1825.48825        33.00025
R15  19928556.74714    -59965.98114     -2235.60214        27.70014
C14  25386377.67613     15553.34513       797.23313        19.50013
> 2025 05 07 10 56 56.0000000  0 10                      
G26  22083174.73626   -116645.56626     -4178.66526        40.70026
G10  22113478.35726     36423.06226      1286.95026        36.00026
G16  20536067.57615    -70056.32015     -2518.65315        31.10015
G27  20496051.57914      4958.06414       170.91114        27.70014
G23  21287628.38214    -35533.39314     -1285.63314        25.60014
G08  23000332.80113     49358.52513      1748.90713        21.50013
C37  23557273.73925    -71023.78625     -2550.98525        32.60025
C33  25453972.78125 -31190790.12325      1824.95025        32.90025
R15  19928730.62714    -62065.48714     -2243.08314        27.60014
C14  25386010.13113     16355.15813       796.53013        19.30013
> 2025 05 07 10 56 57.0000000  0 10                      
G26  22083731.75126   -120818.77826     -4179.45626        40.70026
G10  22112992.69426     37715.64326      1286.38226        35.80026
G16  20536314.90515    -72569.26315     -2519.05315        31.30015
G27  20495784.46414      5126.88514       158.72814        26.90014
G23  21287640.67314    -36815.14814     -1288.65214        25.20014
G08  22999769.19113     51112.27713      1746.59513        21.70013
C37  23557523.76625    -73569.43425     -2551.92125        32.60025
C33  25453378.89215 -31188959.79015      1824.18615        32.70015
R15  19928914.40014    -64314.12114     -2240.05714        27.50014
C14  25385618.30213     17160.30113       801.01513        19.00013
> 2025 05 07 10 56 58.0000000  0 9                      
G26  22084289.66426   -124992.57226     -4179.94526        40.70026
G10  22112502.53326     39007.40626      1285.49026        35.70026
G16  20536565.23215    -75082.63715     -2519.45015        31.30015
G27  20495517.94814      5292.75314       158.52814        26.40014
G23  21287655.96214    -38097.73214     -1288.86014        24.90014
G08  22999193.59013     52867.60013      1750.24313        21.80013
C37  23557779.78825    -76115.72025     -2552.41225        32.90025
C33  25452790.99915 -31187129.75415      1824.07715        32.60015
R15  19929111.06414    -66632.33714     -2239.50914        27.30014
> 2025 05 07 10 56 59.0000000  0 9                      
G26  22084846.37926   -129167.24726     -4180.97626        40.70026
G10  22112017.46926     40298.15626      1284.37826        35.60026
G16  20536808.36315    -77597.03715     -2520.77515        31.30015
G27  20495257.12914      5456.54714       156.89414        26.10014
G23  21287657.76114    -39379.67914     -1287.49114        24.70014
G08  22998624.58413     54623.42513      1750.21113        21.80013
C37  23558031.01425    -78663.07025     -2553.69125        33.00025
C33  25452209.40225 -31185300.21725      1823.47625        32.40025
R15  19929320.01914    -69015.54314     -2247.42914        27.20014
> 2025 05 07 10 57 00.0000000  0 9                      
G26  22085425.57826   -133342.53426     -4181.50826        40.60026
G10  22111560.58526     41588.27726      1283.88826        35.50026
G16  20537066.78515    -80111.59915     -2520.55915        31.20015
G27  20495007.40214      5623.15314       162.09414        26.00014
G23  21287688.64014    -40662.13214     -1288.62314        24.50014
G08  22998075.36413     56382.10013      1754.18113        22.30013
C37  23558298.72925    -81211.19125     -2554.36925        33.00025
C33  25451636.79825 -31183471.17525      1822.92825        32.20025
R15  19929566.14814    -71498.87014     -2241.72114        27.00014
> 2025 05 07 10 57 01.0000000  0 9                      
G26  22085982.89226   -137518.68526     -4182.42526        40.60026
G10  22111080.91725     42877.57525      1283.04125        35.40025
G16  20537297.32515    -82632.19015     -2529.44715        31.10015
G27  20494741.78514      5787.78814       157.80414        26.30014
G23  21287694.63614    -41944.57714     -1288.28514        24.40014
G08  22997517.75013     58138.17413      1748.92713        22.80013
C37  23558553.25325    -83760.17425     -2555.20425        33.00025
C33  25451043.50925 -31181642.96225      1822.00525        32.10025
R15  19929737.33014    -73680.98814     -2242.86314        26.80014
> 2025 05 07 10 57 02.0000001  0 9                      
G26  22086571.98426   -141695.25326     -4182.63626        40.50026
G10  22110631.52825     44166.11425      1282.29625        35.40025
G16  20537574.63315    -85152.40215     -2525.88515        31.00015
G27  20494504.94914      5953.60214       160.54014        26.80014
G23  21287730.31114    -43227.90014     -1289.62414        24.30014
G08  22996984.71913     59893.80313      1749.54113        23.20013
C37  23558831.76025    -86310.10825     -2556.21725        32.90025
C33  25450487.99425 -31179814.73725      1822.41925        31.90025
R15  19929900.71714    -75659.72014     -2234.08214        26.60014
> 2025 05 07 10 57 02.9999998  0 9                      
G26  22087040.26026   -145872.81726     -4183.92326        40.50026
G10  22110055.92725     45453.98825      1281.67625        35.30025
G16  20537726.32815    -87667.89415     -2518.99215        30.90015
G27  20494149.09614      6118.24614       158.19514        27.30014
G23  21287647.86814    -44510.55514     -1288.18414        24.20014
G08  22996319.47913     61647.88513      1747.44513        23.30013
C37  23558993.94825    -88860.74325     -2556.79325        32.80025
C33  25449814.06025 -31177987.28725      1821.25125        31.80025
R15  19929974.16614    -77799.78814     -2239.99914        26.40014
> 2025 05 07 10 57 03.9999998  0 9                      
G26  22087623.95626   -150050.78426     -4184.02926        40.40026
G10  22109598.14425     46741.12925      1280.91025        35.30025
G16  20537995.24215    -90186.01215     -2525.29315        30.80015
G27  20493899.96814      6281.96614       157.39414        27.70014
G23  21287683.54314    -45796.83614     -1293.95614        24.10014
G08  22995785.54913     63402.14013      1748.47613        23.40013
C37  23559273.95415    -91412.09015     -2557.51115        32.70015
C33  25449256.14725 -31176160.17325      1821.13525        31.60025
R15  19930203.50714    -80133.29714     -2247.06314        26.10014
> 2025 05 07 10 57 05.0000001  0 9                      
G26  22088259.51626   -154229.34726     -4184.77526        40.30026
G10  22109198.22125     48027.70425      1280.37325        35.20025
G16  20538319.31715    -92705.99115     -2526.82515        30.70015
G27  20493718.59414      6444.62614       156.21214        27.90014
G08  22995296.88714     65154.06214      1744.83714        24.10014
G23  21287778.27814    -47086.71314     -1297.59214        24.00014
C37  23559612.72015    -93964.00615     -2558.06315        32.60015
C33  25448746.49925 -31174333.24025      1820.97725        31.50025
R15  19930446.03914    -82277.91514     -2249.53914        25.80014
> 2025 05 07 10 57 05.9999998  0 9                      
G26  22088727.79226   -158408.30226     -4184.99226        40.20026
G10  22108628.31525     49313.72025      1279.89025        35.10025
G16  20538475.20915    -95229.86615     -2531.66615        30.80015
G27  20493357.34414      6604.15914       152.12414        28.10014
G08  22994640.04214     66905.48714      1745.32914        24.30014
G23  21287705.72814    -48378.22314     -1298.17014        24.00014
C37  23559778.50515    -96517.24615     -2559.69215        32.40015
C33  25448067.76915 -31172506.63315      1820.65115        31.40015
R15  19930551.26614    -84586.19314     -2254.61514        25.60014
> 2025 05 07 10 57 06.9999999  0 9                      
G26  22089316.88426   -162587.47226     -4185.13926        40.20026
G10  22108184.62225     50599.20325      1279.35325        35.00025
G16  20538748.32015    -97751.20715     -2525.93515        30.90015
G27  20493114.21214      6766.07514       157.24414        28.30014
G08  22994105.51214     68658.17414      1747.45414        24.30014
G23  21287751.89614    -49668.34714     -1295.29414        24.00014
C37  23560053.71415    -99072.63815     -2562.27515        32.10015
C33  25447497.26415 -31170677.00315      1825.33015        31.30015
R15  19930749.12914    -86750.72214     -2251.73614        25.40014
> 2025 05 07 10 57 07.9999999  0 9                      
G26  22089873.59926   -166766.90426     -4185.42226        40.10026
G10  22107702.85625     51884.67225      1279.59725        34.90025
G27  20492843.50014      6927.94814       155.98914        29.30014
G16  20538989.35415   -100272.66915     -2527.38315        31.00015
G08  22993525.41414     70412.11214      1748.69814        24.20014
G23  21287759.09114    -50956.23714     -1292.63414        23.90014
C37  23560310.93615   -101625.40715     -2557.26615        31.90015
C33  25446918.36515 -31168850.53515      1819.07615        31.20015
R15  19930949.69114    -89089.58214     -2249.86114        25.50014
> 2025 05 07 10 57 08.9999999  0 9                      
G26  22090433.91126   -170946.73626     -4185.89326        40.10026
G10  22107214.49425     53169.50325      1278.64725        34.80025
G27  20492576.38515      7089.89015       156.11315        33.20015
G16  20539234.28415   -102794.35515     -2527.66015        31.00015
G08  22992948.61314     72169.08014      1752.61914        24.20014
G23  21287778.27814    -52247.43014     -1298.70714        23.90014
C37  23560567.25915   -104179.95315     -2561.24315        31.80015
C33  25446329.27315 -31167024.31315      1820.28815        31.00015
R15  19931120.87214    -91270.93514     -2251.60214        25.70014
> 2025 05 07 10 57 09.9999999  0 9                      
G26  22091008.31326   -175126.72826     -4185.98726        40.00026
G10  22106748.91625     54454.13725      1278.61825        34.70025
G27  20492326.05825      7251.83225       156.02425        33.20025
G16  20539497.80215   -105318.97415     -2532.00115        31.00015
G08  22992387.40114     73929.59514      1756.37014        24.10014
G23  21287816.65114    -53538.68514     -1297.20414        23.80014
C37  23560834.67415   -106735.95515     -2562.59215        32.30015
C33  25445756.66915 -31165202.28115      1814.07115        30.80015
R15  19931340.62014    -93613.58314     -2255.49714        26.00014
> 2025 05 07 10 57 10.9999999  0 9                      
G26  22091567.42626   -179306.82626     -4185.99226        40.00026
G10  22106267.15025     55738.60625      1278.54025        34.60025
G27  20492058.34325      7413.60425       155.84125        33.10025
G16  20539739.13415   -107844.44315     -2531.73715        30.90015
G08  22991807.90314     75691.82514      1757.24114        24.00014
G23  21287819.64914    -54826.13214     -1291.38614        23.70014
C37  23561091.89515   -109290.37715     -2559.42315        32.80015
C33  25445179.26915 -31163377.93115      1819.71615        30.40015
R15  19931521.39514    -95847.68914     -2254.40214        26.30014
> 2025 05 07 10 57 11.9999999  0 9                      
G26  22092125.93926   -183487.22326     -4186.40626        39.90026
G10  22105783.88425     57022.64125      1277.95325        34.60025
G27  20491790.92825      7575.08525       155.47325        33.00025
G16  20539978.06915   -110369.68315     -2530.98615        30.80015
G08  22991240.09614     77452.82314      1754.51814        24.00014
G23  21287832.54014    -56114.64214     -1294.90414        23.70014
C37  23561342.82225   -111845.22125     -2560.86225        33.10025
C33  25444592.87515 -31161551.58515      1821.53215        30.80015
R15  19931696.17414    -98048.15614     -2249.44014        26.40014
> 2025 05 07 10 57 13.0000000  0 9                      
G26  22092715.93126   -187667.96626     -4186.77726        39.90026
G10  22105337.79325     58306.41525      1277.77925        34.50025
G27  20491561.58725      7736.32525       155.25525        33.00025
G16  20540255.37715   -112894.39115     -2530.30415        30.80015
G08  22990703.46714     79207.93714      1746.30714        23.90014
G23  21287874.81114    -57402.17514     -1292.90814        23.70014
C37  23561629.12425   -114400.50225     -2561.30825        33.20025
C33  25444035.56115 -31159725.22815      1820.55115        31.10015
R15  19931942.60314   -100471.88814     -2258.89514        26.40014
> 2025 05 07 10 57 14.0000000  0 9                      
G26  22093276.24326   -191848.85326     -4186.81826        39.80026
G10  22104850.63025     59589.84925      1277.39925        34.50025
G27  20491289.37625      7897.34825       155.05125        33.00025
G16  20540497.90915   -115420.31715     -2532.39715        30.80015
G08  22990144.65414     80959.31014      1743.63814        23.90014
G23  21287885.90314    -58694.55314     -1300.66114        23.60014
C37  23561882.44825   -116956.19425     -2561.70625        33.50025
C33  25443444.67015 -31157899.32415      1819.86715        31.30015
R15  19932074.51214   -102442.97814     -2260.45414        26.50014
> 2025 05 07 10 57 15.0000000  0 9                      
G26  22093853.34426   -196029.90326     -4187.04826        39.80026
G10  22104388.05125     60872.86625      1276.89025        34.50025
G27  20491044.44525      8057.86425       154.34425        32.90025
G16  20540757.52915   -117945.15215     -2530.20615        30.80015
G08  22989581.04414     82712.51914      1748.20714        23.90014
G23  21287905.09014    -59987.98314     -1299.87314        23.60014
C37  23562155.55925   -119512.07525     -2561.83825        34.00025
C33  25442882.25915 -31156072.17315      1821.90815        31.50015
R15  19932304.75314   -104842.20314     -2259.76714        26.60014
> 2025 05 07 10 57 16.0000000  0 9                      
G26  22094415.15526   -200211.29226     -4187.39926        39.70026
G10  22103910.48125     62155.66925      1276.84925        34.40025
G27  20490777.33025      8218.49825       154.84825        32.80025
G16  20541005.15815   -120470.09415     -2530.83715        30.90015
G08  22989014.43614     84469.51914      1753.05014        23.80014
G23  21287915.28314    -61279.53014     -1296.45014        23.50014
C37  23562405.58625   -122068.63125     -2562.68325        34.30025
C33  25442293.46715 -31154244.53915      1822.08215        31.50015
R15  19932505.01414   -107178.76514     -2260.65414        26.60014
> 2025 05 07 10 57 17.0000000  0 8                      
G26  22094976.66626   -204393.01826     -4187.75526        39.60026
G10  22103422.71925     63438.07925      1276.34925        34.40025
G27  20490505.11825      8378.51225       153.84125        32.80025
G16  20541244.69215   -122992.81515     -2527.47215        30.90015
G08  22988433.13914     86223.60014      1746.75714        23.80014
C37  23562661.90925   -124625.29225     -2562.52225        34.30025
C33  25441706.47315 -31152416.06715      1823.08115        31.50015
R15  19932694.48314   -109457.98814     -2256.77314        26.60014
> 2025 05 07 10 57 18.0000000  0 8                      
G26  22095528.88426   -208574.81626     -4187.69426        39.50026
G10  22102945.74925     64720.19425      1276.10225        34.40025
G27  20490243.69925      8538.42325       153.99625        32.70025
G16  20541487.22415   -125521.27215     -2537.18715        30.90015
G08  22987864.13314     87973.46214      1741.88814        23.80014
C37  23562918.23125   -127182.38925     -2563.12225        34.30025
C33  25441116.18215 -31150590.31315      1818.58315        31.50015
R15  19932842.58014   -111517.00514     -2257.53314        26.50014
> 2025 05 07 10 57 19.0000001  0 8                      
G26  22096119.17526   -212757.07126     -4188.34326        39.40026
G10  22102491.86325     66001.90825      1275.65025        34.40025
G27  20490003.86525      8697.95625       153.48125        32.60025
G16  20541763.63315   -128049.40415     -2533.83115        31.00015
G08  22987320.01014     89722.21414      1742.33214        23.90014
C37  23563200.63625   -129740.12525     -2563.86425        34.30025
C33  25440558.26815 -31148763.95415      1820.85115        31.50015
R15  19933084.51314   -113918.56114     -2263.50614        26.50014
> 2025 05 07 10 57 19.9999998  0 8                      
G26  22096588.95026   -216939.49826     -4188.37426        39.30026
G10  22101921.95825     67283.23525      1275.26825        34.50025
G27  20489654.90725      8857.32025       153.41525        32.60025
G16  20541915.92815   -130579.29115     -2536.62515        31.10015
G08  22986653.57114     91474.99014      1748.92314        24.10014
C37  23563368.81925   -132298.13125     -2563.94925        34.20025
C33  25439879.53815 -31146938.02015      1819.91115        31.60015
R15  19933174.75014   -116147.32014     -2259.89914        26.40014
> 2025 05 07 10 57 21.0000001  0 8                      
G26  22097254.18926   -221122.05426     -4188.53526        39.20026
G10  22101543.32025     68564.23125      1274.91325        34.60025
G27  20489481.92725      9016.36725       152.97225        32.50025
G16  20542266.08515   -133109.54415     -2536.35315        31.10015
G08  22986190.69114     93229.43414      1749.36014        24.10014
C37  23563726.47225   -134856.33025     -2564.15825        34.20025
C33  25439402.26815 -31145110.99015      1821.71115        31.60015
R15  19933458.95414   -118354.62914     -2262.11314        26.40014
> 2025 05 07 10 57 21.9999998  0 9                      
G26  22097723.06526   -225304.86326     -4188.77726        39.10026
G10  22100983.00825     69845.11825      1274.98625        34.60025
G27  20489126.67325      9175.16425       152.82525        32.40025
G16  20542424.97515   -135637.86515     -2533.19715        31.30015
G08  22985543.43914     94984.32214      1749.26314        24.10014
G23  21287904.79013     -1296.95713     -1300.64913        19.60013
C37  23563892.85625   -137415.08725     -2564.82625        34.10025
C33  25438725.93615 -31143284.65615      1820.19415        31.80015
R15  19933547.39214   -120574.97614     -2261.01614        26.40014
> 2025 05 07 10 57 22.9999999  0 8                      
G26  22098311.55726   -229487.99626     -4189.15526        39.00026
G10  22100533.91925     71125.67125      1274.52125        34.60025
G27  20488888.03825      9333.79725       152.68925        32.20025
G16  20542699.88515   -138166.63715     -2534.85915        31.30015
G08  22985008.31014     96739.74814      1749.83014        24.10014
C37  23564174.96125   -139974.21525     -2565.12225        34.00025
C33  25438168.02315 -31141458.42515      1820.36815        32.10015
R15  19933772.53614   -122884.77714     -2249.17814        26.30014
> 2025 05 07 10 57 23.9999999  0 8                      
G26  22098867.67226   -233671.42626     -4189.43926        38.80026
G10  22100051.85225     72405.69525      1273.89625        34.50025
G27  20488618.22525      9491.96125       152.06625        32.10025
G16  20542946.61415   -140696.48815     -2536.25215        31.30015
G08  22984445.59914     98496.69914      1751.84914        24.10014
C37  23564429.78525   -142533.72725     -2565.51225        34.00025
C33  25437578.03125 -31139632.25325      1820.33125        32.10025
R15  19933991.68514   -125321.50714     -2256.68814        26.20014
> 2025 05 07 10 57 24.9999998  0 8                      
G26  22099413.29526   -237854.95126     -4189.48626        38.70026
G10  22099556.29625     73685.48725      1273.75725        34.50025
G27  20488343.61515      9650.05815       152.14515        32.00015
G16  20543178.05415   -143227.35115     -2537.28515        31.40015
G08  22983859.80514    100253.00314      1750.06214        24.10014
C37  23564677.41325   -145093.47525     -2565.72725        34.00025
C33  25436979.34625 -31137806.16525      1820.17925        32.10025
R15  19934133.48714   -127409.55014     -2267.99714        26.00014
> 2025 05 07 10 57 25.9999999  0 8                      
G26  22100006.58426   -242038.85026     -4189.92826        38.50026
G10  22099100.91125     74964.98925      1273.51025        34.40025
G16  20543450.56515   -145758.52415     -2537.17115        31.50015
G27  20488109.17715      9808.62715       152.95915        31.90015
G08  22983324.07614    102009.80514      1751.20414        24.10014
C37  23564960.41725   -147653.82425     -2566.44025        34.20025
C33  25436422.33125 -31135980.17125      1820.15425        32.20025
R15  19934343.64114   -129639.06914     -2273.55414        25.80014
> 2025 05 07 10 57 26.9999999  0 8                      
G26  22100565.69726   -246222.95526     -4190.06926        38.40026
G10  22098623.34125     76244.01025      1272.91725        34.30025
G16  20543698.19415   -148290.01415     -2537.51015        31.60015
G27  20487839.96415      9967.21615       152.73615        31.80015
G08  22982752.07214    103765.63314      1749.47614        24.00014
C37  23565214.04225   -150214.51525     -2566.66925        34.30025
C33  25435834.43825 -31134154.07225      1820.34125        32.60025
R15  19934536.10814   -131934.34614     -2265.41514        25.60014
> 2025 05 07 10 57 27.9999999  0 8                      
G26  22101122.41126   -250407.44326     -4190.53926        38.20026
G10  22098144.27325     77522.60925      1272.52325        34.30025
G16  20543950.01915   -150823.14115     -2539.80615        31.70015
G27  20487563.85515     10124.72415       151.10515        31.70015
G08  22982179.16814    105522.47814      1751.48914        24.00014
C37  23565470.36425   -152775.71825     -2567.26825        34.50025
C33  25435248.34425 -31132328.31525      1819.77525        32.60025
R15  19934712.98514   -134145.51714     -2264.75214        25.50014
> 2025 05 07 10 57 28.9999999  0 8                      
G26  22101698.61226   -254592.12626     -4190.69626        38.10026
G10  22097682.29325     78801.01825      1272.39625        34.30025
G16  20544208.44015   -153357.09315     -2540.28215        31.90015
G27  20487313.22815     10281.90315       151.09615        31.70015
G08  22981624.25314    107278.20414      1749.24714        24.20014
C37  23565744.67425   -155337.10725     -2567.34525        34.50025
C33  25434677.53925 -31130502.49725      1819.98325        32.60025
R15  19934917.74414   -136409.41114     -2272.79514        25.40014
> 2025 05 07 10 57 29.9999999  0 8                      
G26  22102262.52226   -258777.29326     -4191.24926        37.90026
G10  22097205.92325     80078.82525      1271.65925        34.20025
G16  20544445.27615   -155891.85815     -2541.01315        32.00015
G27  20487055.70615     10437.41615       148.83515        31.60015
G08  22981048.35114    109027.67114      1740.49014        24.50014
C37  23565999.79825   -157899.32325     -2568.41825        34.50025
C33  25434089.94625 -31128676.78425      1819.86625        32.50025
R15  19935107.51214   -138689.39314     -2266.72714        25.30014
> 2025 05 07 10 57 30.9999999  0 8                      
G26  22102819.83626   -262962.59826     -4191.23426        37.80026
G10  22096722.05825     81356.37325      1271.55525        34.30025
G16  20544696.80215   -158427.58315     -2542.06615        32.00015
G27  20486787.39215     10592.80015       149.45715        31.60015
G08  22980473.94914    110772.23214      1736.24414        24.50014
C37  23566251.32425   -160461.74825     -2568.33925        34.50025
C33  25433502.95225 -31126851.17025      1819.75425        32.50025
R15  19935299.97914   -140984.67514     -2267.43614        25.20014
> 2025 05 07 10 57 32.0000000  0 8                      
G26  22103406.23026   -267148.22026     -4191.64126        37.60026
G10  22096275.06725     82633.59125      1271.18825        34.40025
G16  20544973.21115   -160962.60615     -2540.53415        32.00015
G27  20486551.75515     10748.92215       150.62815        31.80015
G08  22979945.11514    112517.16414      1739.25214        24.40014
C37  23566536.72625   -163024.59425     -2568.86525        34.50025
C33  25432940.84125 -31125025.52125      1819.85625        32.40025
R15  19935534.41714   -143344.94114     -2277.37014        25.10014
> 2025 05 07 10 57 33.0000000  0 8                      
G26  22103968.34126   -271334.10326     -4191.87426        37.50026
G10  22095796.89825     83910.47025      1270.84725        34.40025
G16  20545217.24225   -163498.16025     -2541.68125        32.20025
G27  20486294.53315     10906.13615       151.89615        31.80015
G08  22979371.91214    114268.41914      1748.55214        24.30014
C37  23566792.14925   -165587.74425     -2569.10925        34.40025
C33  25432355.94625 -31123199.96925      1819.69025        32.40025
R15  19935706.19814   -145529.35314     -2267.77314        25.00014
> 2025 05 07 10 57 34.0000000  0 8                      
G26  22104551.13826   -275520.27826     -4192.23726        37.40026
G10  22095333.11925     85186.91025      1270.30025        34.40025
G16  20545483.75825   -166034.21825     -2542.22725        32.40025
G27  20486038.81015     11059.77015       145.92515        31.80015
G08  22978820.59414    116023.44814      1750.99814        24.20014
C37  23567063.16225   -168151.54525     -2569.98925        34.40025
C33  25431785.14225 -31121374.59225      1819.42525        32.40025
R15  19935904.36114   -147757.31114     -2278.12514        25.20014
> 2025 05 07 10 57 35.0000000  0 8                      
G26  22105114.44826   -279706.75426     -4192.46826        37.30026
G10  22094845.05725     86462.93125      1269.96725        34.50025
G16  20545734.08425   -168570.90425     -2542.84225        32.50025
G27  20485777.39115     11215.60115       151.08515        31.80015
G08  22978243.79314    117784.63214      1758.41414        24.20014
C37  23567320.08425   -170715.65925     -2570.06225        34.30025
C33  25431199.34725 -31119549.12225      1819.72225        32.50025
R15  19936074.34314   -149932.54314     -2278.17114        25.40014
> 2025 05 07 10 57 36.0000000  0 8                      
G26  22105668.46426   -283893.42426     -4192.62726        37.20026
G10  22094369.28625     87738.71425      1269.79925        34.50025
G16  20545971.22025   -171107.99025     -2543.14825        32.70025
G27  20485507.27815     11370.55715       148.65615        31.90015
G08  22977686.47914    119544.62814      1753.53814        24.10014
C37  23567574.90725   -173280.04525     -2570.32825        34.20025
C33  25430617.75025 -31117723.78025      1819.46725        32.50025
R15  19936287.19614   -152337.15814     -2272.11314        25.40014
> 2025 05 07 10 57 37.0000000  0 8                      
G26  22106227.87726   -288080.65126     -4193.36526        37.10026
G10  22093887.82025     89014.01225      1269.19225        34.50025
G16  20546220.94725   -173646.27325     -2543.99225        32.80025
G27  20485232.66915     11524.63615       147.77615        32.00015
G08  22977121.96914    121305.13614      1754.89914        24.00014
C37  23567835.12725   -175845.24425     -2571.41425        34.10025
C33  25430033.15425 -31115898.72625      1819.09825        32.50025
R15  19936477.26414   -154619.43714     -2273.21714        25.60014
> 2025 05 07 10 57 38.0000000  0 8                      
G26  22106802.57926   -292268.13526     -4193.52826        37.00026
G10  22093427.03925     90288.67325      1268.42225        34.60025
G16  20546485.96425   -176184.83725     -2544.87225        32.80025
G27  20484985.34025     11678.31525       147.56225        32.10025
G08  22976570.95114    123062.37614      1749.68814        23.90014
C37  23568107.63925   -178410.87025     -2571.70325        34.00025
C33  25429461.15025 -31114073.81225      1818.97925        32.80025
R15  19936688.31814   -156916.20614     -2274.11814        25.70014
> 2025 05 07 10 57 39.0000000  0 8                      
G26  22107364.39026   -296456.13526     -4194.10026        37.00026
G10  22092947.07125     91562.97425      1268.27625        34.70025
G16  20546738.08925   -178723.98125     -2545.27625        32.90025
G27  20484723.62125     11831.63025       147.28725        32.10025
G08  22975998.04814    124818.76414      1750.11514        23.80014
C37  23568366.06025   -180976.95025     -2572.09625        33.90025
C33  25428876.55525 -31112249.03925      1818.90825        32.80025
R15  19936871.79114   -159164.07914     -2273.38714        25.90014
> 2025 05 07 10 57 40.0000001  0 8                      
G26  22107957.08026   -300644.47426     -4194.36826        36.90026
G10  22092500.08025     92836.76525      1267.67125        34.80025
G16  20547015.69725   -181263.83725     -2546.07425        33.00025
G27  20484491.28225     11984.62525       146.97325        32.20025
G08  22975449.72714    126571.19014      1744.58114        23.70014
C37  23568646.96525   -183543.67625     -2572.85725        33.80025
C33  25428321.04025 -31110424.38825      1818.78025        32.80025
R15  19937081.04614   -161389.01714     -2278.50814        26.10014
> 2025 05 07 10 57 41.0000001  0 8                      
G26  22108514.39426   -304833.14626     -4194.69826        36.80026
G10  22092020.41325     94110.00825      1267.10525        34.90025
G16  20547262.12625   -183804.33725     -2546.68325        33.10025
G27  20484221.76825     12137.01025       146.21525        32.20025
G08  22974875.92414    128325.56614      1749.48514        23.80014
C37  23568902.68825   -186110.81525     -2573.15425        33.70025
C33  25427733.74625 -31108600.10725      1818.28525        32.80025
R15  19937278.01014   -163707.23214     -2277.69114        26.20014
> 2025 05 07 10 57 41.9999998  0 9                      
G26  22108986.56726   -309022.23426     -4195.15726        36.70026
G10  22091454.10525     95382.95025      1266.92825        35.10025
G16  20547418.31825   -186345.38825     -2547.18825        33.10025
G27  20483860.81825     12289.04325       145.99425        32.30025
G08  22974214.88214    130078.66514      1746.59714        24.10014
G23  21288191.09213    -27477.29913     -1318.01213        20.20013
C37  23569068.17425   -188678.53725     -2573.82025        33.70025
C33  25427055.61625 -31106775.79025      1818.52325        32.90025
R15  19937378.14014   -165989.51114     -2284.15314        26.50014
> 2025 05 07 10 57 43.0000001  0 9                      
G26  22109651.50726   -313211.91826     -4195.89726        36.70026
G10  22091085.95925     96655.09425      1265.82525        35.20025
G16  20547770.57425   -188887.42625     -2548.44825        33.10025
G27  20483703.12725     12440.67425       145.51225        32.30025
G08  22973744.20814    131831.31914      1746.51214        24.30014
G23  21288319.10313    -28791.97213     -1320.57213        20.60013
C37  23569431.82225   -191247.00325     -2574.70125        33.60025
C33  25426576.54725 -31104951.94225      1817.74825        33.00025
R15  19937674.03514   -168260.28514     -2284.48414        26.70014
> 2025 05 07 10 57 43.9999998  0 9                      
G26  22110125.47926   -317401.93626     -4196.02726        36.60026
G10  22090515.75425     97926.98325      1265.91625        35.30025
G16  20547934.56125   -191429.85925     -2548.47425        33.10025
G27  20483352.97025     12591.65625       144.81225        32.30025
G08  22973098.75514    133582.77114      1745.00414        24.30014
G23  21288252.25013    -30105.58413     -1318.92513        20.80013
C37  23569597.00825   -193815.89925     -2574.90125        33.60025
C33  25425899.31625 -31103128.13425      1817.99425        33.20025
R15  19937778.96314   -170568.55914     -2281.14614        26.70014
> 2025 05 07 10 57 44.9999999  0 9                      
G26  22110718.46826   -321592.15826     -4196.18426        36.60026
G10  22090065.76625     99198.30425      1265.17325        35.40025
G16  20548212.46925   -193972.91725     -2549.23125        33.00025
G27  20483109.83825     12742.59225       145.04925        32.30025
G08  22972543.83914    135336.36314      1748.79714        24.50014
G23  21288294.22113    -31419.30913     -1319.64513        21.20013
C33  25425341.10325 -31101304.41825      1817.86025        33.30025
C37  23569882.41025   -196385.24025     -2575.37325        33.60025
R15  19937984.32114   -172771.32114     -2283.04414        26.70014
> 2025 05 07 10 57 45.9999999  0 10                      
G26  22111278.18126   -325782.62326     -4196.44526        36.50026
G10  22089589.09626    100469.38826      1265.10126        35.60026
G16  20548448.70525   -196516.51825     -2549.73425        33.00025
G27  20482848.11925     12892.98725       144.26125        32.20025
G08  22971962.84114    137089.01114      1746.31314        24.60014
G23  21288306.51213    -32730.35613     -1315.56913        21.30013
C27  24863449.99215 -31194201.34415      1314.59315        34.50015
C33  25424754.40925 -31099480.89825      1817.61025        33.50025
C37  23570136.33425   -198954.88525     -2575.60425        33.60025
R15  19938188.18014   -175130.06014     -2278.90014        26.70014
> 2025 05 07 10 57 46.9999999  0 10                      
G26  22111855.28126   -329973.60726     -4197.16026        36.40026
G10  22089127.11626    101740.01026      1264.47126        35.80026
G16  20548716.42025   -199060.72725     -2550.43125        32.90025
G27  20482598.09225     13043.17525       144.16625        32.30025
G08  22971412.72214    138840.37314      1744.79814        24.60014
G23  21288337.39113    -34042.75613     -1318.99513        21.40013
C27  24862976.61925 -31192880.55125      1314.94625        34.50025
C33  25424185.40325 -31097657.37525      1817.65825        33.60025
C37  23570413.34225   -201525.14725     -2576.43425        33.50025
R15  19938424.11614   -177558.34014     -2287.68214        26.60014
> 2025 05 07 10 57 47.9999999  0 10                      
G10  22088645.94926    103010.31726      1264.30426        36.10026
G26  22112418.59126   -334164.82526     -4197.17626        36.40026
G16  20548970.34425   -201605.52725     -2550.93825        32.80025
G27  20482335.47425     13192.93725       143.70525        32.30025
G08  22970840.41814    140589.90314      1742.76914        24.50014
G23  21288357.77713    -35353.48213     -1315.73213        21.50013
C27  24862485.26025 -31191559.76025      1314.99825        34.50025
C33  25423596.31125 -31095833.97325      1817.54825        33.90025
C37  23570672.36325   -204095.77325     -2576.59725        33.70025
R15  19938594.39814   -179736.63314     -2288.91414        26.60014
> 2025 05 07 10 57 48.9999999  0 10                      
G10  22088170.47826    104279.90926      1263.37026        36.20026
G26  22112979.20326   -338356.44926     -4197.68726        36.30026
G27  20482068.95925     13342.19425       143.14125        32.30025
G16  20549208.37925   -204151.02025     -2551.69925        32.70025
G08  22970285.80214    142338.33514      1742.01714        24.50014
G23  21288365.57113    -36665.98013     -1319.24713        21.50013
C27  24861990.90225 -31190239.25925      1314.54525        34.40025
C33  25423007.21825 -31094010.86825      1817.14525        34.10025
C37  23570928.38625   -206667.08825     -2577.46725        33.70025
R15  19938772.47514   -181954.68714     -2285.81614        26.60014
> 2025 05 07 10 57 49.9999999  0 9                      
G26  22113542.81326   -342548.44926     -4198.04826        36.30026
G10  22087695.90626    105549.13026      1263.17126        36.20026
G27  20481808.13925     13491.16025       142.95625        32.30025
G16  20549457.50725   -206697.14925     -2552.31025        32.60025
G08  22969717.09614    144085.18714      1740.19814        24.40014
C27  24861501.34125 -31188918.71325      1314.75725        34.40025
C33  25422423.82225 -31092187.87725      1817.12325        34.10025
C37  23571191.00415   -209238.90815     -2577.88015        33.70015
R15  19938965.84114   -184255.31514     -2285.17814        26.60014
> 2025 05 07 10 57 51.0000000  0 9                      
G26  22114127.40826   -346740.89526     -4198.52926        36.30026
G10  22087246.81726    106817.93926      1262.73826        36.20026
G27  20481571.60325     13639.73325       142.51425        32.40025
G16  20549737.21315   -209245.21815     -2555.64915        32.50015
G08  22969165.47814    145833.73114      1743.52514        24.30014
C33  25421865.00925 -31090365.08525      1816.88125        34.10025
C27  24861044.45725 -31187598.36625      1314.43725        34.30025
C37  23571475.50715   -211811.22115     -2578.36815        33.60015
R15  19939169.70014   -186450.43014     -2282.83714        26.60014
> 2025 05 07 10 57 51.9999999  0 9                      
G26  22114680.82526   -350933.70226     -4198.90326        36.30026
G10  22086759.35526    108086.09726      1261.91326        36.20026
G27  20481292.19625     13787.80225       141.89825        32.50025
G16  20549968.35315   -211794.54615     -2555.62415        32.40015
G08  22968587.77814    147584.23114      1745.55814        24.10014
C27  24860541.70525 -31186278.23325      1314.16025        34.20025
C33  25421270.52125 -31088542.53525      1816.56325        34.00025
C37  23571720.13815   -214381.51715     -2575.15015        33.50015
R15  19939351.97414   -188754.08214     -2284.13014        26.60014
> 2025 05 07 10 57 53.0000000  0 9                      
G26  22115276.51326   -355126.73626     -4198.99026        36.20026
G10  22086309.06626    109354.09526      1262.07326        36.10026
G27  20481061.05625     13935.67125       141.92425        32.50025
G16  20550249.85815   -214344.50415     -2556.11715        32.20015
G08  22968052.04814    149337.98314      1749.53314        24.10014
C27  24860078.22625 -31184958.02225      1314.45825        34.10025
C33  25420712.60725 -31086719.79925      1817.03725        33.90025
C37  23572002.54215   -216955.17915     -2581.13515        33.30015
R15  19939562.42814   -190985.13314     -2289.28614        26.50014
> 2025 05 07 10 57 54.0000000  0 9                      
G26  22115835.92526   -359320.20626     -4199.54826        36.20026
G10  22085835.39426    110621.56326      1261.33826        36.10026
G27  20480793.34225     14083.07925       141.31425        32.50025
G16  20550493.58915   -216893.47615     -2554.33915        32.00015
G08  22967486.04014    151092.86114      1749.57514        24.00014
C27  24859592.56225 -31183637.89625      1314.27225        34.00025
C33  25420121.11625 -31084897.52425      1816.23325        33.90025
C37  23572263.06215   -219528.98015     -2579.67915        33.20015
R15  19939755.19514   -193281.94114     -2289.77514        26.50014
> 2025 05 07 10 57 55.0000000  0 9                      
G26  22116399.23526   -363514.05826     -4199.90326        36.20026
G10  22085357.52526    111888.54126      1260.86926        36.10026
G27  20480525.32725     14229.95025       140.74025        32.40025
G16  20550744.51615   -219440.74715     -2552.28315        31.80015
G08  22966918.23314    152845.05514      1744.98814        23.90014
C27  24859100.60325 -31182318.07825      1313.85325        33.90025
C33  25419533.52315 -31083075.23015      1816.49215        33.80015
C37  23572524.18125   -222103.21325     -2580.25725        33.10025
R15  19939961.75214   -195652.14614     -2288.86214        26.60014
> 2025 05 07 10 57 56.0000000  0 9                      
G10  22084898.84326    113154.78126      1259.95226        36.10026
G26  22116973.33826   -367708.44326     -4200.56726        36.20026
G27  20480278.59825     14376.35925       140.25925        32.40025
G16  20551006.83415   -221987.81115     -2552.87615        31.60015
G08  22966355.22314    154595.98314      1744.37614        23.90014
C27  24858626.33125 -31180998.38725      1313.76225        33.90025
C33  25418967.81525 -31081253.31425      1815.86125        33.70025
C37  23572794.29425   -224678.17125     -2581.18325        33.00025
R15  19940150.32114   -197829.64214     -2292.05414        26.70014
> 2025 05 07 10 57 57.0000000  0 9                      
G10  22084420.07426    114420.65426      1259.84326        36.10026
G26  22117534.54926   -371903.18226     -4200.75626        36.10026
G27  20480020.47725     14522.52325       140.19725        32.40025
G16  20551243.97015   -224538.03015     -2557.64015        31.40015
G08  22965785.61714    156345.18114      1742.48614        23.80014
C27  24858136.77025 -31179678.79725      1313.74725        33.90025
C33  25418382.32025 -31079431.59825      1815.82325        33.60025
C37  23573059.91025   -227253.65225     -2581.53225        33.00025
R15  19940330.49614   -200058.39914     -2298.03614        26.70014
> 2025 05 07 10 57 58.0000000  0 9                      
G10  22083943.40426    115686.12326      1259.40226        36.10026
G26  22118097.85926   -376098.22426     -4201.05526        36.10026
G27  20479755.46025     14668.00225       139.27125        32.40025
G16  20551498.49415   -227090.87815     -2560.02415        31.20015
G08  22965213.91314    158095.41514      1744.88714        24.00014
C27  24857643.61125 -31178359.35925      1313.55125        34.10025
C33  25417795.62625 -31077609.95825      1815.79025        33.60025
C37  23573315.93325   -229829.51125     -2581.85625        32.90025
R15  19940535.55414   -202421.72414     -2288.89014        26.70014
> 2025 05 07 10 57 59.0000000  0 9                      
G10  22083471.83126    116951.13626      1258.92126        36.10026
G26  22118656.97226   -380293.75326     -4201.63226        36.10026
G27  20479485.34725     14813.24325       139.26025        32.50025
G16  20551752.11815   -229645.46215     -2561.31315        31.00015
G08  22964649.70414    159844.90114      1743.24814        24.30014
C27  24857154.95025 -31177039.95325      1313.57925        34.10025
C33  25417210.43125 -31075788.57725      1815.44125        33.50025
C37  23573570.75725   -232406.01325     -2582.63025        32.70025
R15  19940740.91214   -204785.05214     -2294.12514        26.80014
> 2025 05 07 10 58 00.0000001  0 9                      
G10  22083021.84226    118215.63926      1258.38526        36.10026
G26  22119246.96426   -384489.53626     -4201.77126        36.00026
G27  20479248.81125     14958.10425       138.80825        32.60025
G16  20552029.72615   -232200.11915     -2560.55615        30.80015
G08  22964115.77314    161591.96514      1739.98814        24.40014
C27  24856694.46825 -31175720.73225      1313.31825        34.10025
C33  25416652.51825 -31073967.31125      1815.39725        33.60025
C37  23573859.75625   -234982.83325     -2582.78725        32.60025
R15  19940929.78214   -206902.18014     -2301.10714        26.90014
> 2025 05 07 10 58 00.9999998  0 9                      
G10  22082452.83626    119479.80426      1258.13126        36.10026
G26  22119717.93826   -388685.71426     -4202.23426        36.00026
G27  20478897.45425     15102.56025       138.38925        32.80025
G16  20552180.52115   -234752.92015     -2557.73315        30.60015
G08  22963454.43114    163338.50914      1740.42014        24.60014
C27  24856113.47125 -31174401.62825      1313.23525        34.10025
C33  25415976.18625 -31072146.22025      1815.19125        33.70025
C37  23574028.83925   -237560.38925     -2583.73225        32.50025
R15  19941064.68814   -209370.25514     -2299.27514        26.90014
> 2025 05 07 10 58 02.0000001  0 9                      
G10  22082082.89226    120743.45126      1257.46926        36.10026
G26  22120392.47126   -392882.23626     -4202.61026        36.00026
G27  20478741.56225     15246.80025       138.21525        32.80025
G16  20552543.27015   -237307.90615     -2561.99615        30.40015
G08  22962989.45314    165086.36414      1742.59114        24.60014
C27  24855730.63625 -31173082.51625      1313.25025        34.10025
C33  25415500.11525 -31070325.07225      1815.31225        33.80025
C37  23574394.88625   -240138.23125     -2583.84825        32.40025
R15  19941348.59214   -211576.03514     -2293.19414        26.90014
> 2025 05 07 10 58 02.9999998  0 9                      
G10  22081515.68526    122006.63826      1257.11126        36.10026
G26  22120860.44726   -397079.18226     -4202.99926        35.90026
G27  20478388.40725     15390.40525       137.44225        32.80025
G16  20552710.85415   -239863.34415     -2561.50615        30.20015
G08  22962334.40714    166833.12914      1740.37314        24.60014
C27  24855154.13525 -31171763.56425      1313.07925        34.10025
C33  25414822.88425 -31068504.24925      1814.86625        33.80025
