NMEA,$GPGGA,081615.980,,,,,0,,,,,,,,*72,1746260175000
NMEA,$PSAMSA,,,,,,0,,,,,,,,*2D,1746260175000
NMEA,$GPGLL,4503.6745,N,00741.8784,E,081615.980,V,N*48,1746260175000
NMEA,$GPVTG,0.0,T,,M,1.8,N,3.3,K,N*0B,1746260175000
NMEA,$GPGSV,2,1,07,05,18,078,44,18,51,170,33,25,33,117,38,26,43,302,33*7C,1746260175000
NMEA,$GPGSV,2,2,07,28,47,217,32,29,61,050,40,31,53,261,30*4D,1746260175000
NMEA,$GLGSV,1,1,03,73,79,134,39,74,50,323,34,80,21,137,34*5A,1746260175000
NMEA,$BDGSV,1,1,03,229,82,079,27,230,27,052,32,236,28,148,31*63,1746260175000
NMEA,$GPRMC,081615.980,V,,,,,,,030525,,,N*46,1746260175000
NMEA,$PSAMCLK,2364,54819398,7,9744347,1602975,548193980*4F,1746260175000
NMEA,$PSAMCLK,2364,54819398,7,9744347,1602975,548193980*4F,1746260175000
NMEA,$GPGGA,081616.998,4503.6802,N,00741.8857,E,1,11,1.0,241.3,M,48.2,M,,*59,1746260176000
NMEA,$PSAMSA,081616.998,4503.6802,N,00741.8857,E,0,M,,*67,1746260176000
NMEA,$GPGLL,4503.6802,N,00741.8857,E,081616.998,A,A*57,1746260176000
NMEA,$GPVTG,128.6,T,,M,3.5,N,6.4,K,A*04,1746260176000
NMEA,$GPGSV,2,1,07,05,18,078,44,18,51,170,33,25,33,117,38,26,43,302,33*7C,1746260176000
NMEA,$GPGSV,2,2,07,28,47,217,32,29,61,050,40,31,53,261,30*4D,1746260176000
NMEA,$GLGSV,1,1,03,73,79,134,39,74,50,323,34,80,21,137,34*5A,1746260176000
NMEA,$BDGSV,1,1,03,229,82,079,32,230,27,052,36,236,28,148,31*63,1746260176000
NMEA,$GPGSA,A,3,29,31,18,28,25,,,,,,,,2.0,1.0,1.8*35,1746260176000
NMEA,$GNGSA,A,3,73,74,80,,,,,,,,,,2.0,1.0,1.8*29,1746260176000
NMEA,$BDGSA,A,3,229,230,236,,,,,,,,,,2.0,1.0,1.8*16,1746260176000
NMEA,$GPRMC,081616.998,A,4503.6802,N,00741.8857,E,3.5,128.6,030525,,,A*6A,1746260176000
NMEA,$PSAMCLK,2364,54819500,11,9743755,3309794,548194998*7C,1746260176000
NMEA,$PSAMCLK,2364,54819500,11,9743755,3309794,548194998*7C,1746260176000
NMEA,$GPGGA,081618.014,4503.6782,N,00741.8910,E,1,10,1.2,215.5,M,48.2,M,,*5B,1746260177000
NMEA,$PSAMSA,081618.014,4503.6782,N,00741.8910,E,0,M,,*61,1746260177000
NMEA,$GPGLL,4503.6782,N,00741.8910,E,081618.014,A,A*51,1746260177000
NMEA,$GPVTG,137.0,T,,M,3.3,N,6.1,K,A*0F,1746260177000
NMEA,$GPGSV,2,1,07,05,18,078,44,18,51,170,34,25,33,117,38,26,43,302,33*7B,1746260177000
NMEA,$GPGSV,2,2,07,28,47,217,32,29,61,050,41,31,53,261,30*4C,1746260177000
NMEA,$GLGSV,1,1,03,73,79,134,39,74,50,323,33,80,21,137,34*5D,1746260177000
NMEA,$BDGSV,1,1,03,229,82,079,34,230,27,052,38,236,28,148,33*69,1746260177000
NMEA,$GPGSA,A,3,29,18,28,25,,,,,,,,,2.2,1.2,1.8*37,1746260177000
NMEA,$GNGSA,A,3,73,74,80,,,,,,,,,,2.2,1.2,1.8*29,1746260177000
NMEA,$BDGSA,A,3,229,230,236,,,,,,,,,,2.2,1.2,1.8*16,1746260177000
NMEA,$GPRMC,081618.014,A,4503.6782,N,00741.8910,E,3.3,137.0,030525,,,A*62,1746260177000
NMEA,$PSAMCLK,2364,54819601,10,9745611,-10256876,548196014*60,1746260177000
NMEA,$PSAMCLK,2364,54819601,10,9745611,-10256876,548196014*60,1746260177000
NMEA,$GPGGA,081618.991,4503.6751,N,00741.8869,E,1,11,1.0,229.6,M,48.2,M,,*51,1746260178000
NMEA,$PSAMSA,081618.991,4503.6751,N,00741.8869,E,0,M,,*64,1746260178000
NMEA,$GPGLL,4503.6751,N,00741.8869,E,081618.991,A,A*54,1746260178000
NMEA,$GPVTG,141.5,T,,M,1.5,N,2.7,K,A*0D,1746260178000
NMEA,$GPGSV,2,1,07,05,18,078,43,18,51,170,35,25,33,117,38,26,43,302,33*7D,1746260178000
NMEA,$GPGSV,2,2,07,28,47,217,32,29,61,050,41,31,53,261,30*4C,1746260178000
NMEA,$GLGSV,1,1,03,73,79,134,38,74,50,323,33,80,21,137,34*5C,1746260178000
NMEA,$BDGSV,1,1,03,229,82,079,35,230,27,052,39,236,28,148,34*6E,1746260178000
NMEA,$GPGSA,A,3,29,31,18,28,25,,,,,,,,2.0,1.0,1.8*35,1746260178000
NMEA,$GNGSA,A,3,73,74,80,,,,,,,,,,2.0,1.0,1.8*29,1746260178000
NMEA,$BDGSA,A,3,229,230,236,,,,,,,,,,2.0,1.0,1.8*16,1746260178000
NMEA,$GPRMC,081618.991,A,4503.6751,N,00741.8869,E,1.5,141.5,030525,,,A*67,1746260178000
NMEA,$PSAMCLK,2364,54819699,11,9746284,-955940,548196991*62,1746260178000
NMEA,$PSAMCLK,2364,54819699,11,9746284,-955940,548196991*62,1746260178000
NMEA,$GPGGA,081619.497,4503.6724,N,00741.8836,E,1,11,1.0,226.5,M,48.2,M,,*5F,1746260178000
NMEA,$PSAMSA,081619.497,4503.6724,N,00741.8836,E,0,M,,*66,1746260178000
NMEA,$GPGLL,4503.6724,N,00741.8836,E,081619.497,A,A*56,1746260178000
NMEA,$GPVTG,143.8,T,,M,0.4,N,0.8,K,A*0F,1746260178000
NMEA,$GPGSV,2,1,07,05,18,078,42,18,51,170,38,25,33,117,38,26,43,302,33*71,1746260178000
NMEA,$GPGSV,2,2,07,28,47,217,32,29,61,050,40,31,53,261,30*4D,1746260178000
NMEA,$GLGSV,1,1,03,73,79,134,38,74,50,323,33,80,21,137,34*5C,1746260178000
NMEA,$BDGSV,1,1,03,229,82,078,35,230,27,052,40,236,28,148,35*60,1746260178000
NMEA,$GPGSA,A,3,29,31,18,28,25,,,,,,,,2.0,1.0,1.8*35,1746260178000
NMEA,$GNGSA,A,3,73,74,80,,,,,,,,,,2.0,1.0,1.8*29,1746260178000
NMEA,$BDGSA,A,3,229,230,236,,,,,,,,,,2.0,1.0,1.8*16,1746260178000
NMEA,$GPRMC,081619.497,A,4503.6724,N,00741.8836,E,0.4,143.8,030525,,,A*6A,1746260178000
NMEA,$PSAMCLK,2364,54819750,11,9746991,31498,548197497*7D,1746260178000
NMEA,$PSAMCLK,2364,54819750,11,9746991,31498,548197497*7D,1746260178000
NMEA,$GPGGA,081619.697,4503.6715,N,00741.8832,E,1,10,1.0,231.6,M,48.2,M,,*5F,1746260179000
NMEA,$PSAMSA,081619.697,4503.6715,N,00741.8832,E,0,M,,*62,1746260179000
NMEA,$GPGLL,4503.6715,N,00741.8832,E,081619.697,A,A*52,1746260179000
NMEA,$GPVTG,159.1,T,,M,2.3,N,4.3,K,A*07,1746260179000
NMEA,$GPGSV,2,1,07,05,18,078,42,18,51,170,39,25,33,117,38,26,43,302,33*70,1746260179000
NMEA,$GPGSV,2,2,07,28,47,217,32,29,61,050,40,31,53,261,30*4D,1746260179000
NMEA,$GLGSV,1,1,03,73,79,134,38,74,50,323,33,80,21,137,34*5C,1746260179000
NMEA,$BDGSV,1,1,03,229,82,078,35,230,27,052,40,236,28,148,35*60,1746260179000
NMEA,$GPGSA,A,3,29,31,18,28,25,,,,,,,,2.2,1.0,2.0*3C,1746260179000
NMEA,$GNGSA,A,3,73,74,,,,,,,,,,,2.2,1.0,2.0*28,1746260179000
NMEA,$BDGSA,A,3,229,230,236,,,,,,,,,,2.2,1.0,2.0*1F,1746260179000
NMEA,$GPRMC,081619.697,A,4503.6715,N,00741.8832,E,2.3,159.1,030525,,,A*69,1746260179000
NMEA,$PSAMCLK,2364,54819770,10,9745605,43876,548197697*74,1746260179000
NMEA,$PSAMCLK,2364,54819770,10,9745605,43876,548197697*74,1746260179000
NMEA,$GPGGA,081621.000,4503.6714,N,00741.8821,E,1,11,1.0,228.5,M,48.2,M,,*55,1746260180000
NMEA,$PSAMSA,081621.000,4503.6714,N,00741.8821,E,0,M,,*62,1746260180000
NMEA,$GPGLL,4503.6714,N,00741.8821,E,081621.000,A,A*52,1746260180000
NMEA,$GPVTG,170.7,T,,M,2.5,N,4.6,K,A*09,1746260180000
NMEA,$GPGSV,2,1,08,05,18,078,41,18,51,170,40,20,13,042,36,25,33,117,38*73,1746260180000
NMEA,$GPGSV,2,2,08,26,43,302,33,28,47,217,32,29,61,050,40,31,53,261,30*70,1746260180000
NMEA,$GLGSV,1,1,03,73,79,134,38,74,50,323,33,80,21,137,34*5C,1746260180000
NMEA,$BDGSV,1,1,03,229,82,078,35,230,27,052,40,236,28,148,35*60,1746260180000
NMEA,$GPGSA,A,3,29,31,18,28,25,,,,,,,,2.0,1.0,1.8*35,1746260180000
NMEA,$GNGSA,A,3,73,74,80,,,,,,,,,,2.0,1.0,1.8*29,1746260180000
NMEA,$BDGSA,A,3,229,230,236,,,,,,,,,,2.0,1.0,1.8*16,1746260180000
NMEA,$GPRMC,081621.000,A,4503.6714,N,00741.8821,E,2.5,170.7,030525,,,A*62,1746260180000
NMEA,$PSAMCLK,2364,54819900,11,9745590,80562,548199000*72,1746260180000
NMEA,$PSAMCLK,2364,54819900,11,9745590,80562,548199000*72,1746260180000
NMEA,$GPGGA,081622.000,4503.6709,N,00741.8819,E,1,11,1.0,227.6,M,48.2,M,,*5D,1746260181000
NMEA,$PSAMSA,081622.000,4503.6709,N,00741.8819,E,0,M,,*66,1746260181000
NMEA,$GPGLL,4503.6709,N,00741.8819,E,081622.000,A,A*56,1746260181000
NMEA,$GPVTG,200.2,T,,M,2.8,N,5.1,K,A*03,1746260181000
NMEA,$GPGSV,2,1,08,05,18,078,41,18,51,170,40,20,13,042,37,25,33,117,38*72,1746260181000
NMEA,$GPGSV,2,2,08,26,43,302,33,28,47,217,32,29,61,050,40,31,53,261,30*70,1746260181000
NMEA,$GLGSV,1,1,03,73,79,134,38,74,50,323,33,80,21,137,36*5E,1746260181000
NMEA,$BDGSV,1,1,03,229,82,078,35,230,27,052,40,236,28,148,35*60,1746260181000
NMEA,$GPGSA,A,3,29,31,18,28,25,,,,,,,,2.0,1.0,1.8*35,1746260181000
NMEA,$GNGSA,A,3,73,74,80,,,,,,,,,,2.0,1.0,1.8*29,1746260181000
NMEA,$BDGSA,A,3,229,230,236,,,,,,,,,,2.0,1.0,1.8*16,1746260181000
NMEA,$GPRMC,081622.000,A,4503.6709,N,00741.8819,E,2.8,200.2,030525,,,A*6A,1746260181000
NMEA,$PSAMCLK,2364,54820000,11,9745552,142421,548200000*45,1746260181000
NMEA,$PSAMCLK,2364,54820000,11,9745552,142421,548200000*45,1746260181000
NMEA,$GPGGA,081623.000,4503.6702,N,00741.8820,E,1,11,1.0,227.6,M,48.2,M,,*5D,1746260182000
NMEA,$PSAMSA,081623.000,4503.6702,N,00741.8820,E,0,M,,*66,1746260182000
NMEA,$GPGLL,4503.6702,N,00741.8820,E,081623.000,A,A*56,1746260182000
NMEA,$GPVTG,211.3,T,,M,1.2,N,2.3,K,A*0E,1746260182000
NMEA,$GPGSV,2,1,08,05,18,078,41,18,51,170,40,20,13,042,37,25,33,117,38*72,1746260182000
NMEA,$GPGSV,2,2,08,26,43,302,33,28,47,217,33,29,61,050,40,31,53,261,30*71,1746260182000
NMEA,$GLGSV,1,1,03,73,79,134,38,74,50,323,33,80,21,137,37*5F,1746260182000
NMEA,$BDGSV,1,1,04,213,27,080,34,229,82,078,35,230,27,052,40,236,28,148,35*6D,1746260182000
NMEA,$GPGSA,A,3,29,31,18,28,25,,,,,,,,2.0,1.0,1.8*35,1746260182000
NMEA,$GNGSA,A,3,73,74,80,,,,,,,,,,2.0,1.0,1.8*29,1746260182000
NMEA,$BDGSA,A,3,229,230,236,,,,,,,,,,2.0,1.0,1.8*16,1746260182000
NMEA,$GPRMC,081623.000,A,4503.6702,N,00741.8820,E,1.2,211.3,030525,,,A*62,1746260182000
NMEA,$PSAMCLK,2364,54820100,11,9745622,204281,548201000*4C,1746260182000
NMEA,$PSAMCLK,2364,54820100,11,9745622,204281,548201000*4C,1746260182000
NMEA,$GPGGA,081624.000,4503.6702,N,00741.8820,E,1,11,1.0,228.2,M,48.2,M,,*51,1746260183000
NMEA,$PSAMSA,081624.000,4503.6702,N,00741.8820,E,0,M,,*61,1746260183000
NMEA,$GPGLL,4503.6702,N,00741.8820,E,081624.000,A,A*51,1746260183000
NMEA,$GPVTG,203.8,T,,M,2.1,N,3.9,K,A*0D,1746260183000
NMEA,$GPGSV,2,1,08,05,18,078,41,18,51,170,40,20,13,042,37,25,33,117,39*73,1746260183000
NMEA,$GPGSV,2,2,08,26,43,302,32,28,47,217,33,29,61,050,40,31,53,261,30*70,1746260183000
NMEA,$GLGSV,1,1,03,73,79,134,38,74,50,323,33,80,21,137,38*50,1746260183000
NMEA,$BDGSV,1,1,04,213,27,080,35,229,82,078,35,230,27,052,40,236,28,148,35*6C,1746260183000
NMEA,$GPGSA,A,3,29,31,18,28,25,,,,,,,,2.0,1.0,1.8*35,1746260183000
NMEA,$GNGSA,A,3,73,74,80,,,,,,,,,,2.0,1.0,1.8*29,1746260183000
NMEA,$BDGSA,A,3,229,230,236,,,,,,,,,,2.0,1.0,1.8*16,1746260183000
NMEA,$GPRMC,081624.000,A,4503.6702,N,00741.8820,E,2.1,203.8,030525,,,A*6D,1746260183000
NMEA,$PSAMCLK,2364,54820200,11,9745623,266141,548202000*46,1746260183000
NMEA,$PSAMCLK,2364,54820200,11,9745623,266141,548202000*46,1746260183000
NMEA,$GPGGA,081625.000,4503.6698,N,00741.8824,E,1,11,1.0,228.9,M,48.2,M,,*5D,1746260184000
NMEA,$PSAMSA,081625.000,4503.6698,N,00741.8824,E,0,M,,*66,1746260184000
NMEA,$GPGLL,4503.6698,N,00741.8824,E,081625.000,A,A*56,1746260184000
NMEA,$GPVTG,204.6,T,,M,1.4,N,2.6,K,A*0C,1746260184000
NMEA,$GPGSV,2,1,08,05,18,078,41,18,51,170,40,20,13,042,37,25,33,117,42*7F,1746260184000
NMEA,$GPGSV,2,2,08,26,43,302,32,28,47,217,33,29,61,050,40,31,53,261,31*71,1746260184000
NMEA,$GLGSV,1,1,03,73,79,134,38,74,50,323,33,80,21,137,39*51,1746260184000
NMEA,$BDGSV,1,1,04,213,27,080,35,229,82,078,35,230,27,052,40,236,28,148,35*6C,1746260184000
NMEA,$GPGSA,A,3,29,31,18,28,25,,,,,,,,2.0,1.0,1.8*35,1746260184000
NMEA,$GNGSA,A,3,73,74,80,,,,,,,,,,2.0,1.0,1.8*29,1746260184000
NMEA,$BDGSA,A,3,229,230,236,,,,,,,,,,2.0,1.0,1.8*16,1746260184000
NMEA,$GPRMC,081625.000,A,4503.6698,N,00741.8824,E,1.4,204.6,030525,,,A*65,1746260184000
NMEA,$PSAMCLK,2364,54820300,11,9745637,328003,548203000*4F,1746260184000
NMEA,$PSAMCLK,2364,54820300,11,9745637,328003,548203000*4F,1746260184000
NMEA,$GPGGA,081626.000,4503.6694,N,00741.8817,E,1,11,1.0,230.6,M,48.2,M,,*54,1746260185000
NMEA,$PSAMSA,081626.000,4503.6694,N,00741.8817,E,0,M,,*69,1746260185000
NMEA,$GPGLL,4503.6694,N,00741.8817,E,081626.000,A,A*59,1746260185000
NMEA,$GPVTG,213.6,T,,M,1.1,N,2.0,K,A*09,1746260185000
NMEA,$GPGSV,2,1,08,05,18,078,41,18,51,170,40,20,13,042,36,25,33,117,41*7D,1746260185000
NMEA,$GPGSV,2,2,08,26,43,302,32,28,47,217,36,29,61,050,40,31,53,261,31*74,1746260185000
NMEA,$GLGSV,1,1,03,73,79,134,37,74,50,323,33,80,21,137,39*5E,1746260185000
NMEA,$BDGSV,1,1,04,213,27,080,34,229,82,078,35,230,27,052,40,236,28,148,35*6D,1746260185000
NMEA,$GPGSA,A,3,29,31,18,28,25,,,,,,,,2.0,1.0,1.8*35,1746260185000
NMEA,$GNGSA,A,3,73,74,80,,,,,,,,,,2.0,1.0,1.8*29,1746260185000
NMEA,$BDGSA,A,3,229,230,236,,,,,,,,,,2.0,1.0,1.8*16,1746260185000
NMEA,$GPRMC,081626.000,A,4503.6694,N,00741.8817,E,1.1,213.6,030525,,,A*69,1746260185000
NMEA,$PSAMCLK,2364,54820400,11,9745713,389864,548204000*4A,1746260185000
NMEA,$PSAMCLK,2364,54820400,11,9745713,389864,548204000*4A,1746260185000
NMEA,$GPGGA,081627.000,4503.6686,N,00741.8817,E,1,11,1.0,231.8,M,48.2,M,,*59,1746260186000
NMEA,$PSAMSA,081627.000,4503.6686,N,00741.8817,E,0,M,,*6B,1746260186000
NMEA,$GPGLL,4503.6686,N,00741.8817,E,081627.000,A,A*5B,1746260186000
NMEA,$GPVTG,196.0,T,,M,2.9,N,5.4,K,A*09,1746260186000
NMEA,$GPGSV,2,1,08,05,18,078,41,18,51,170,40,20,13,042,36,25,33,117,41*7D,1746260186000
NMEA,$GPGSV,2,2,08,26,43,302,32,28,47,217,40,29,61,050,39,31,53,261,32*78,1746260186000
NMEA,$GLGSV,1,1,03,73,79,134,37,74,50,323,33,80,21,137,39*5E,1746260186000
NMEA,$BDGSV,1,1,04,213,27,080,34,229,82,078,35,230,27,052,39,236,28,148,34*62,1746260186000
NMEA,$GPGSA,A,3,29,31,18,28,25,,,,,,,,2.0,1.0,1.8*35,1746260186000
NMEA,$GNGSA,A,3,73,74,80,,,,,,,,,,2.0,1.0,1.8*29,1746260186000
NMEA,$BDGSA,A,3,229,230,236,,,,,,,,,,2.0,1.0,1.8*16,1746260186000
NMEA,$GPRMC,081627.000,A,4503.6686,N,00741.8817,E,2.9,196.0,030525,,,A*68,1746260186000
NMEA,$PSAMCLK,2364,54820500,11,9745803,451728,548205000*41,1746260186000
NMEA,$PSAMCLK,2364,54820500,11,9745803,451728,548205000*41,1746260186000
NMEA,$GPGGA,081628.000,4503.6675,N,00741.8816,E,1,11,1.0,231.8,M,48.2,M,,*5B,1746260187000
NMEA,$PSAMSA,081628.000,4503.6675,N,00741.8816,E,0,M,,*69,1746260187000
NMEA,$GPGLL,4503.6675,N,00741.8816,E,081628.000,A,A*59,1746260187000
NMEA,$GPVTG,193.0,T,,M,2.6,N,4.8,K,A*0E,1746260187000
NMEA,$GPGSV,2,1,08,05,18,078,41,18,51,170,40,20,13,042,36,25,33,117,41*7D,1746260187000
NMEA,$GPGSV,2,2,08,26,43,302,32,28,47,217,41,29,61,050,39,31,53,261,32*79,1746260187000
NMEA,$GLGSV,1,1,03,73,79,134,37,74,50,323,32,80,21,137,40*51,1746260187000
NMEA,$BDGSV,1,1,04,213,27,080,35,229,82,078,36,230,27,052,38,236,28,148,34*61,1746260187000
NMEA,$GPGSA,A,3,29,31,18,28,25,,,,,,,,2.0,1.0,1.8*35,1746260187000
NMEA,$GNGSA,A,3,73,74,80,,,,,,,,,,2.0,1.0,1.8*29,1746260187000
NMEA,$BDGSA,A,3,229,230,236,,,,,,,,,,2.0,1.0,1.8*16,1746260187000
NMEA,$GPRMC,081628.000,A,4503.6675,N,00741.8816,E,2.6,193.0,030525,,,A*60,1746260187000
NMEA,$PSAMCLK,2364,54820600,11,9745544,513588,548206000*40,1746260187000
NMEA,$PSAMCLK,2364,54820600,11,9745544,513588,548206000*40,1746260187000
NMEA,$GPGGA,081629.000,4503.6665,N,00741.8816,E,1,11,1.0,232.2,M,48.2,M,,*52,1746260188000
NMEA,$PSAMSA,081629.000,4503.6665,N,00741.8816,E,0,M,,*69,1746260188000
NMEA,$GPGLL,4503.6665,N,00741.8816,E,081629.000,A,A*59,1746260188000
NMEA,$GPVTG,185.1,T,,M,2.6,N,4.8,K,A*08,1746260188000
NMEA,$GPGSV,2,1,08,05,18,078,41,18,51,170,40,20,13,042,35,25,33,117,41*7E,1746260188000
NMEA,$GPGSV,2,2,08,26,43,302,32,28,47,217,41,29,61,050,38,31,53,261,32*78,1746260188000
NMEA,$GLGSV,1,1,03,73,79,134,37,74,50,323,32,80,21,137,40*51,1746260188000
NMEA,$BDGSV,1,1,04,213,27,080,36,229,82,078,37,230,27,052,38,236,28,148,33*64,1746260188000
NMEA,$GPGSA,A,3,29,31,18,28,25,,,,,,,,2.0,1.0,1.8*35,1746260188000
NMEA,$GNGSA,A,3,73,74,80,,,,,,,,,,2.0,1.0,1.8*29,1746260188000
NMEA,$BDGSA,A,3,229,230,236,,,,,,,,,,2.0,1.0,1.8*16,1746260188000
NMEA,$GPRMC,081629.000,A,4503.6665,N,00741.8816,E,2.6,185.1,030525,,,A*66,1746260188000
NMEA,$PSAMCLK,2364,54820700,11,9745751,575449,548207000*4A,1746260188000
NMEA,$PSAMCLK,2364,54820700,11,9745751,575449,548207000*4A,1746260188000
NMEA,$GPGGA,081630.000,4503.6660,N,00741.8811,E,1,11,1.0,231.4,M,48.2,M,,*5D,1746260189000
NMEA,$PSAMSA,081630.000,4503.6660,N,00741.8811,E,0,M,,*63,1746260189000
NMEA,$GPGLL,4503.6660,N,00741.8811,E,081630.000,A,A*53,1746260189000
NMEA,$GPVTG,192.0,T,,M,1.7,N,3.1,K,A*03,1746260189000
NMEA,$GPGSV,2,1,08,05,18,078,42,18,51,170,40,20,13,042,34,25,33,117,41*7C,1746260189000
NMEA,$GPGSV,2,2,08,26,43,302,32,28,47,217,42,29,61,050,38,31,53,261,33*7A,1746260189000
NMEA,$GLGSV,1,1,03,73,79,134,38,74,50,323,32,80,21,137,40*5E,1746260189000
NMEA,$BDGSV,2,1,05,208,26,062,37,213,27,080,37,229,82,078,38,230,27,052,40*69,1746260189000
NMEA,$BDGSV,2,2,05,236,28,148,33*6D,1746260189000
NMEA,$GPGSA,A,3,29,31,18,28,25,,,,,,,,2.0,1.0,1.8*35,1746260189000
NMEA,$GNGSA,A,3,73,74,80,,,,,,,,,,2.0,1.0,1.8*29,1746260189000
NMEA,$BDGSA,A,3,229,230,236,,,,,,,,,,2.0,1.0,1.8*16,1746260189000
NMEA,$GPRMC,081630.000,A,4503.6660,N,00741.8811,E,1.7,192.0,030525,,,A*69,1746260189000
NMEA,$PSAMCLK,2364,54820800,11,9745792,637308,548208000*42,1746260189000
NMEA,$PSAMCLK,2364,54820800,11,9745792,637308,548208000*42,1746260189000
NMEA,$GPGGA,081631.000,4503.6657,N,00741.8802,E,1,10,1.0,229.7,M,48.2,M,,*51,1746260190000
NMEA,$PSAMSA,081631.000,4503.6657,N,00741.8802,E,0,M,,*64,1746260190000
NMEA,$GPGLL,4503.6657,N,00741.8802,E,081631.000,A,A*54,1746260190000
NMEA,$GPVTG,187.1,T,,M,2.1,N,3.9,K,A*0B,1746260190000
NMEA,$GPGSV,2,1,08,05,18,078,42,18,51,170,40,20,13,042,34,25,33,117,41*7C,1746260190000
NMEA,$GPGSV,2,2,08,26,43,302,32,28,47,217,42,29,61,050,38,31,53,261,33*7A,1746260190000
NMEA,$GLGSV,1,1,03,73,79,134,38,74,50,323,32,80,21,137,39*50,1746260190000
NMEA,$BDGSV,2,1,05,208,26,062,37,213,27,080,37,229,82,078,38,230,27,052,42*6B,1746260190000
NMEA,$BDGSV,2,2,05,236,28,148,33*6D,1746260190000
NMEA,$GPGSA,A,3,29,31,18,28,25,,,,,,,,2.2,1.0,1.8*37,1746260190000
NMEA,$GNGSA,A,3,73,74,80,,,,,,,,,,2.2,1.0,1.8*2B,1746260190000
NMEA,$BDGSA,A,3,229,230,,,,,,,,,,,2.2,1.0,1.8*23,1746260190000
NMEA,$GPRMC,081631.000,A,4503.6657,N,00741.8802,E,2.1,187.1,030525,,,A*6E,1746260190000
NMEA,$PSAMCLK,2364,54820900,10,9746016,699166,548209000*45,1746260190000
NMEA,$PSAMCLK,2364,54820900,10,9746016,699166,548209000*45,1746260190000
NMEA,$GPGGA,081632.000,4503.6653,N,00741.8803,E,1,11,1.0,229.5,M,48.2,M,,*54,1746260191000
NMEA,$PSAMSA,081632.000,4503.6653,N,00741.8803,E,0,M,,*62,1746260191000
NMEA,$GPGLL,4503.6653,N,00741.8803,E,081632.000,A,A*52,1746260191000
NMEA,$GPVTG,189.7,T,,M,2.4,N,4.5,K,A*0D,1746260191000
NMEA,$GPGSV,2,1,08,05,18,078,42,18,51,170,40,20,13,042,34,25,33,117,41*7C,1746260191000
NMEA,$GPGSV,2,2,08,26,43,302,36,28,47,217,41,29,61,050,38,31,53,261,33*7D,1746260191000
NMEA,$GLGSV,1,1,03,73,79,134,38,74,50,323,32,80,21,137,39*50,1746260191000
NMEA,$BDGSV,2,1,05,208,26,062,37,213,27,080,38,229,82,078,38,230,27,052,42*64,1746260191000
NMEA,$BDGSV,2,2,05,236,28,148,32*6C,1746260191000
NMEA,$GPGSA,A,3,29,31,18,28,25,,,,,,,,2.0,1.0,1.8*35,1746260191000
NMEA,$GNGSA,A,3,73,74,80,,,,,,,,,,2.0,1.0,1.8*29,1746260191000
NMEA,$BDGSA,A,3,229,230,236,,,,,,,,,,2.0,1.0,1.8*16,1746260191000
NMEA,$GPRMC,081632.000,A,4503.6653,N,00741.8803,E,2.4,189.7,030525,,,A*65,1746260191000
NMEA,$PSAMCLK,2364,54821000,11,9745902,761028,548210000*46,1746260191000
NMEA,$PSAMCLK,2364,54821000,11,9745902,761028,548210000*46,1746260191000
NMEA,$GPGGA,081633.000,4503.6647,N,00741.8803,E,1,11,1.0,229.4,M,48.2,M,,*51,1746260192000
NMEA,$PSAMSA,081633.000,4503.6647,N,00741.8803,E,0,M,,*66,1746260192000
NMEA,$GPGLL,4503.6647,N,00741.8803,E,081633.000,A,A*56,1746260192000
NMEA,$GPVTG,184.2,T,,M,2.5,N,4.7,K,A*06,1746260192000
NMEA,$GPGSV,2,1,08,05,18,078,42,18,51,170,40,20,13,042,38,25,33,117,41*70,1746260192000
NMEA,$GPGSV,2,2,08,26,43,302,40,28,47,217,41,29,61,050,41,31,53,261,33*72,1746260192000
NMEA,$GLGSV,1,1,03,73,79,134,38,74,50,323,31,80,21,137,39*53,1746260192000
NMEA,$BDGSV,2,1,06,208,26,062,38,213,27,080,39,226,33,309,37,229,82,078,39*65,1746260192000
NMEA,$BDGSV,2,2,06,230,27,052,42,236,28,148,32*6A,1746260192000
NMEA,$GPGSA,A,3,29,31,18,28,25,,,,,,,,2.0,1.0,1.8*35,1746260192000
NMEA,$GNGSA,A,3,73,74,80,,,,,,,,,,2.0,1.0,1.8*29,1746260192000
NMEA,$BDGSA,A,3,229,230,236,,,,,,,,,,2.0,1.0,1.8*16,1746260192000
NMEA,$GPRMC,081633.000,A,4503.6647,N,00741.8803,E,2.5,184.2,030525,,,A*68,1746260192000
NMEA,$PSAMCLK,2364,54821100,11,9745969,822890,548211000*48,1746260192000
NMEA,$PSAMCLK,2364,54821100,11,9745969,822890,548211000*48,1746260192000
NMEA,$GPGGA,081634.000,4503.6639,N,00741.8805,E,1,11,1.0,228.8,M,48.2,M,,*54,1746260193000
NMEA,$PSAMSA,081634.000,4503.6639,N,00741.8805,E,0,M,,*6E,1746260193000
NMEA,$GPGLL,4503.6639,N,00741.8805,E,081634.000,A,A*5E,1746260193000
NMEA,$GPVTG,174.9,T,,M,3.2,N,5.9,K,A*0B,1746260193000
NMEA,$GPGSV,2,1,08,05,18,078,41,18,51,170,40,20,13,042,39,25,33,117,41*72,1746260193000
NMEA,$GPGSV,2,2,08,26,43,302,40,28,47,217,40,29,61,050,41,31,53,261,33*73,1746260193000
NMEA,$GLGSV,1,1,03,73,79,134,39,74,50,323,31,80,21,137,39*52,1746260193000
NMEA,$BDGSV,2,1,06,208,26,062,38,213,27,080,39,226,33,309,38,229,82,078,39*6A,1746260193000
NMEA,$BDGSV,2,2,06,230,27,052,42,236,28,148,32*6A,1746260193000
NMEA,$GPGSA,A,3,29,31,18,28,25,,,,,,,,2.0,1.0,1.8*35,1746260193000
NMEA,$GNGSA,A,3,73,74,80,,,,,,,,,,2.0,1.0,1.8*29,1746260193000
NMEA,$BDGSA,A,3,229,230,236,,,,,,,,,,2.0,1.0,1.8*16,1746260193000
NMEA,$GPRMC,081634.000,A,4503.6639,N,00741.8805,E,3.2,174.9,030525,,,A*62,1746260193000
NMEA,$PSAMCLK,2364,54821200,11,9745971,884754,548212000*4A,1746260193000
NMEA,$PSAMCLK,2364,54821200,11,9745971,884754,548212000*4A,1746260193000
NMEA,$GPGGA,081635.000,4503.6632,N,00741.8809,E,1,11,1.0,229.1,M,48.2,M,,*5A,1746260194000
NMEA,$PSAMSA,081635.000,4503.6632,N,00741.8809,E,0,M,,*68,1746260194000
NMEA,$GPGLL,4503.6632,N,00741.8809,E,081635.000,A,A*58,1746260194000
NMEA,$GPVTG,172.1,T,,M,2.8,N,5.2,K,A*05,1746260194000
NMEA,$GPGSV,2,1,08,05,18,078,41,18,51,170,40,20,13,042,39,25,33,117,41*72,1746260194000
NMEA,$GPGSV,2,2,08,26,43,302,40,28,47,217,40,29,61,050,42,31,53,261,34*77,1746260194000
NMEA,$GLGSV,1,1,03,73,79,134,39,74,50,323,31,80,21,137,39*52,1746260194000
NMEA,$BDGSV,2,1,06,208,26,062,38,213,27,080,39,226,33,309,38,229,82,078,40*64,1746260194000
NMEA,$BDGSV,2,2,06,230,27,052,43,236,28,148,32*6B,1746260194000
NMEA,$GPGSA,A,3,29,31,18,28,25,,,,,,,,2.0,1.0,1.8*35,1746260194000
NMEA,$GNGSA,A,3,73,74,80,,,,,,,,,,2.0,1.0,1.8*29,1746260194000
NMEA,$BDGSA,A,3,229,230,236,,,,,,,,,,2.0,1.0,1.8*16,1746260194000
NMEA,$GPRMC,081635.000,A,4503.6632,N,00741.8809,E,2.8,172.1,030525,,,A*61,1746260194000
NMEA,$PSAMCLK,2364,54821300,11,9746085,946618,548213000*4D,1746260194000
NMEA,$PSAMCLK,2364,54821300,11,9746085,946618,548213000*4D,1746260194000
NMEA,$GPGGA,081636.000,4503.6624,N,00741.8812,E,1,11,1.0,228.9,M,48.2,M,,*5D,1746260195000
NMEA,$PSAMSA,081636.000,4503.6624,N,00741.8812,E,0,M,,*66,1746260195000
NMEA,$GPGLL,4503.6624,N,00741.8812,E,081636.000,A,A*56,1746260195000
NMEA,$GPVTG,170.4,T,,M,2.6,N,4.8,K,A*07,1746260195000
NMEA,$GPGSV,2,1,08,05,18,078,41,18,51,170,41,20,13,042,39,25,33,117,41*73,1746260195000
NMEA,$GPGSV,2,2,08,26,43,302,40,28,47,217,39,29,61,050,42,31,53,261,34*79,1746260195000
NMEA,$GLGSV,1,1,03,73,79,134,39,74,50,323,31,80,21,137,39*52,1746260195000
NMEA,$BDGSV,2,1,06,208,26,062,38,213,27,080,39,226,33,309,38,229,82,078,40*64,1746260195000
NMEA,$BDGSV,2,2,06,230,27,052,43,236,28,148,31*68,1746260195000
NMEA,$GPGSA,A,3,29,31,18,28,25,,,,,,,,2.0,1.0,1.8*35,1746260195000
NMEA,$GNGSA,A,3,73,74,80,,,,,,,,,,2.0,1.0,1.8*29,1746260195000
NMEA,$BDGSA,A,3,229,230,236,,,,,,,,,,2.0,1.0,1.8*16,1746260195000
NMEA,$GPRMC,081636.000,A,4503.6624,N,00741.8812,E,2.6,170.4,030525,,,A*66,1746260195000
NMEA,$PSAMCLK,2364,54821400,11,9745919,1008481,548214000*72,1746260195000
NMEA,$PSAMCLK,2364,54821400,11,9745919,1008481,548214000*72,1746260195000
NMEA,$GPGGA,081637.000,4503.6618,N,00741.8814,E,1,11,1.0,228.6,M,48.2,M,,*5A,1746260196000
NMEA,$PSAMSA,081637.000,4503.6618,N,00741.8814,E,0,M,,*6E,1746260196000
NMEA,$GPGLL,4503.6618,N,00741.8814,E,081637.000,A,A*5E,1746260196000
NMEA,$GPVTG,167.7,T,,M,2.8,N,5.1,K,A*04,1746260196000
NMEA,$GPGSV,2,1,08,05,18,078,41,18,51,170,41,20,13,042,39,25,33,117,41*73,1746260196000
NMEA,$GPGSV,2,2,08,26,43,302,40,28,47,217,39,29,61,050,42,31,53,261,34*79,1746260196000
NMEA,$GLGSV,1,1,03,73,79,134,39,74,50,323,31,80,21,137,39*52,1746260196000
NMEA,$BDGSV,2,1,06,208,26,062,38,213,27,080,39,226,33,309,38,229,82,078,40*64,1746260196000
NMEA,$BDGSV,2,2,06,230,27,052,44,236,28,148,31*6F,1746260196000
NMEA,$GPGSA,A,3,29,31,18,28,25,,,,,,,,2.0,1.0,1.8*35,1746260196000
NMEA,$GNGSA,A,3,73,74,80,,,,,,,,,,2.0,1.0,1.8*29,1746260196000
NMEA,$BDGSA,A,3,229,230,236,,,,,,,,,,2.0,1.0,1.8*16,1746260196000
NMEA,$GPRMC,081637.000,A,4503.6618,N,00741.8814,E,2.8,167.7,030525,,,A*65,1746260196000
NMEA,$PSAMCLK,2364,54821500,11,9746044,1070345,548215000*70,1746260196000
NMEA,$PSAMCLK,2364,54821500,11,9746044,1070345,548215000*70,1746260196000
NMEA,$GPGGA,081638.000,4503.6614,N,00741.8817,E,1,11,1.0,228.6,M,48.2,M,,*5A,1746260197000
NMEA,$PSAMSA,081638.000,4503.6614,N,00741.8817,E,0,M,,*6E,1746260197000
NMEA,$GPGLL,4503.6614,N,00741.8817,E,081638.000,A,A*5E,1746260197000
NMEA,$GPVTG,176.0,T,,M,2.6,N,4.9,K,A*04,1746260197000
NMEA,$GPGSV,2,1,08,05,18,078,41,18,51,170,40,20,13,042,39,25,33,117,41*72,1746260197000
NMEA,$GPGSV,2,2,08,26,43,302,40,28,47,217,38,29,61,050,42,31,53,261,35*79,1746260197000
NMEA,$GLGSV,1,1,03,73,79,134,39,74,50,323,31,80,21,137,39*52,1746260197000
NMEA,$BDGSV,2,1,06,208,26,062,38,213,27,080,38,226,33,309,39,229,82,078,40*64,1746260197000
NMEA,$BDGSV,2,2,06,230,27,052,44,236,28,148,31*6F,1746260197000
NMEA,$GPGSA,A,3,29,31,18,28,25,,,,,,,,2.0,1.0,1.8*35,1746260197000
NMEA,$GNGSA,A,3,73,74,80,,,,,,,,,,2.0,1.0,1.8*29,1746260197000
NMEA,$BDGSA,A,3,229,230,236,,,,,,,,,,2.0,1.0,1.8*16,1746260197000
NMEA,$GPRMC,081638.000,A,4503.6614,N,00741.8817,E,2.6,176.0,030525,,,A*6C,1746260197000
NMEA,$PSAMCLK,2364,54821600,11,9746055,1132207,548216000*70,1746260197000
NMEA,$PSAMCLK,2364,54821600,11,9746055,1132207,548216000*70,1746260197000
NMEA,$GPGGA,081639.000,4503.6609,N,00741.8818,E,1,11,1.0,227.8,M,48.2,M,,*59,1746260198000
NMEA,$PSAMSA,081639.000,4503.6609,N,00741.8818,E,0,M,,*6C,1746260198000
NMEA,$GPGLL,4503.6609,N,00741.8818,E,081639.000,A,A*5C,1746260198000
NMEA,$GPVTG,175.0,T,,M,2.5,N,4.7,K,A*0A,1746260198000
NMEA,$GPGSV,2,1,08,05,18,078,41,18,51,170,40,20,13,042,39,25,33,117,41*72,1746260198000
NMEA,$GPGSV,2,2,08,26,43,302,40,28,47,217,38,29,61,050,42,31,53,261,35*79,1746260198000
NMEA,$GLGSV,1,1,03,73,79,134,39,74,50,323,31,80,21,137,39*52,1746260198000
NMEA,$BDGSV,2,1,06,208,26,062,38,213,27,080,39,226,33,309,39,229,82,078,40*65,1746260198000
NMEA,$BDGSV,2,2,06,230,27,052,44,236,28,148,31*6F,1746260198000
NMEA,$GPGSA,A,3,29,31,18,28,25,,,,,,,,2.0,1.0,1.8*35,1746260198000
NMEA,$GNGSA,A,3,73,74,80,,,,,,,,,,2.0,1.0,1.8*29,1746260198000
NMEA,$BDGSA,A,3,229,230,236,,,,,,,,,,2.0,1.0,1.8*16,1746260198000
NMEA,$GPRMC,081639.000,A,4503.6609,N,00741.8818,E,2.5,175.0,030525,,,A*6E,1746260198000
NMEA,$PSAMCLK,2364,54821700,11,9745879,1194069,548217000*73,1746260198000
NMEA,$PSAMCLK,2364,54821700,11,9745879,1194069,548217000*73,1746260198000
NMEA,$GPGGA,081640.000,4503.6603,N,00741.8819,E,1,11,1.0,227.5,M,48.2,M,,*51,1746260199000
NMEA,$PSAMSA,081640.000,4503.6603,N,00741.8819,E,0,M,,*69,1746260199000
NMEA,$GPGLL,4503.6603,N,00741.8819,E,081640.000,A,A*59,1746260199000
NMEA,$GPVTG,177.0,T,,M,2.7,N,5.0,K,A*0C,1746260199000
NMEA,$GPGSV,2,1,08,05,18,078,41,18,51,170,40,20,13,042,39,25,33,117,41*72,1746260199000
NMEA,$GPGSV,2,2,08,26,43,302,40,28,47,217,37,29,61,050,42,31,53,261,35*76,1746260199000
NMEA,$GLGSV,1,1,03,73,79,134,39,74,50,323,32,80,21,137,39*51,1746260199000
NMEA,$BDGSV,2,1,06,208,26,062,38,213,27,080,39,226,33,309,39,229,82,078,41*64,1746260199000
NMEA,$BDGSV,2,2,06,230,27,052,44,236,28,148,31*6F,1746260199000
NMEA,$GPGSA,A,3,29,31,18,28,25,,,,,,,,2.0,1.0,1.8*35,1746260199000
NMEA,$GNGSA,A,3,73,74,80,,,,,,,,,,2.0,1.0,1.8*29,1746260199000
NMEA,$BDGSA,A,3,229,230,236,,,,,,,,,,2.0,1.0,1.8*16,1746260199000
NMEA,$GPRMC,081640.000,A,4503.6603,N,00741.8819,E,2.7,177.0,030525,,,A*6B,1746260199000
NMEA,$PSAMCLK,2364,54821800,11,9746013,1255932,548218000*7D,1746260199000
NMEA,$PSAMCLK,2364,54821800,11,9746013,1255932,548218000*7D,1746260199000
NMEA,$GPGGA,081641.000,4503.6597,N,00741.8821,E,1,11,1.0,227.6,M,48.2,M,,*56,1746260200000
NMEA,$PSAMSA,081641.000,4503.6597,N,00741.8821,E,0,M,,*6D,1746260200000
NMEA,$GPGLL,4503.6597,N,00741.8821,E,081641.000,A,A*5D,1746260200000
NMEA,$GPVTG,182.3,T,,M,2.4,N,4.5,K,A*02,1746260200000
NMEA,$GPGSV,2,1,08,05,18,078,42,18,51,170,40,20,13,042,38,25,33,117,41*70,1746260200000
NMEA,$GPGSV,2,2,08,26,43,302,40,28,47,217,37,29,61,050,42,31,53,261,35*76,1746260200000
NMEA,$GLGSV,1,1,03,73,79,134,39,74,50,323,37,80,21,137,38*55,1746260200000
NMEA,$BDGSV,2,1,06,208,26,062,38,213,27,080,39,226,33,309,39,229,82,078,41*64,1746260200000
NMEA,$BDGSV,2,2,06,230,27,052,44,236,28,148,30*6E,1746260200000
NMEA,$GPGSA,A,3,29,31,18,28,25,,,,,,,,2.0,1.0,1.8*35,1746260200000
NMEA,$GNGSA,A,3,73,74,80,,,,,,,,,,2.0,1.0,1.8*29,1746260200000
NMEA,$BDGSA,A,3,229,230,236,,,,,,,,,,2.0,1.0,1.8*16,1746260200000
NMEA,$GPRMC,081641.000,A,4503.6597,N,00741.8821,E,2.4,182.3,030525,,,A*65,1746260200000
NMEA,$PSAMCLK,2364,54821900,11,9746121,1317798,548219000*74,1746260200000
NMEA,$PSAMCLK,2364,54821900,11,9746121,1317798,548219000*74,1746260200000
NMEA,$GPGGA,081642.000,4503.6589,N,00741.8824,E,1,11,1.0,228.0,M,48.2,M,,*56,1746260201000
NMEA,$PSAMSA,081642.000,4503.6589,N,00741.8824,E,0,M,,*64,1746260201000
NMEA,$GPGLL,4503.6589,N,00741.8824,E,081642.000,A,A*54,1746260201000
NMEA,$GPVTG,185.0,T,,M,2.7,N,5.0,K,A*01,1746260201000
NMEA,$GPGSV,2,1,08,05,18,078,42,18,51,170,39,20,13,042,38,25,33,117,41*7E,1746260201000
NMEA,$GPGSV,2,2,08,26,43,302,40,28,47,217,36,29,61,050,42,31,53,261,35*77,1746260201000
NMEA,$GLGSV,1,1,03,73,79,134,39,74,50,323,37,80,21,137,38*55,1746260201000
NMEA,$BDGSV,2,1,06,208,26,062,38,213,27,080,39,226,33,309,39,229,82,078,41*64,1746260201000
NMEA,$BDGSV,2,2,06,230,27,052,44,236,28,148,30*6E,1746260201000
NMEA,$GPGSA,A,3,29,31,18,28,25,,,,,,,,2.0,1.0,1.8*35,1746260201000
NMEA,$GNGSA,A,3,73,74,80,,,,,,,,,,2.0,1.0,1.8*29,1746260201000
NMEA,$BDGSA,A,3,229,230,236,,,,,,,,,,2.0,1.0,1.8*16,1746260201000
NMEA,$GPRMC,081642.000,A,4503.6589,N,00741.8824,E,2.7,185.0,030525,,,A*6B,1746260201000
NMEA,$PSAMCLK,2364,54822000,11,9746362,1379666,548220000*79,1746260201000
NMEA,$PSAMCLK,2364,54822000,11,9746362,1379666,548220000*79,1746260201000
NMEA,$GPGGA,081643.000,4503.6582,N,00741.8826,E,1,11,1.0,227.9,M,48.2,M,,*58,1746260202000
NMEA,$PSAMSA,081643.000,4503.6582,N,00741.8826,E,0,M,,*6C,1746260202000
NMEA,$GPGLL,4503.6582,N,00741.8826,E,081643.000,A,A*5C,1746260202000
NMEA,$GPVTG,185.4,T,,M,2.5,N,4.6,K,A*00,1746260202000
NMEA,$GPGSV,2,1,08,05,18,078,42,18,51,170,39,20,13,042,38,25,33,117,41*7E,1746260202000
NMEA,$GPGSV,2,2,08,26,43,302,40,28,47,217,36,29,61,050,42,31,53,261,35*77,1746260202000
NMEA,$GLGSV,1,1,03,73,79,134,39,74,50,323,37,80,21,137,37*5A,1746260202000
NMEA,$BDGSV,2,1,07,205,32,139,36,208,26,062,38,213,27,080,40,226,33,309,39*6A,1746260202000
NMEA,$BDGSV,2,2,07,229,82,078,40,230,27,052,44,236,28,148,30*67,1746260202000
NMEA,$GPGSA,A,3,29,31,18,28,25,,,,,,,,2.0,1.0,1.8*35,1746260202000
NMEA,$GNGSA,A,3,73,74,80,,,,,,,,,,2.0,1.0,1.8*29,1746260202000
NMEA,$BDGSA,A,3,229,230,236,,,,,,,,,,2.0,1.0,1.8*16,1746260202000
NMEA,$GPRMC,081643.000,A,4503.6582,N,00741.8826,E,2.5,185.4,030525,,,A*65,1746260202000
NMEA,$PSAMCLK,2364,54822100,11,9746363,1441536,548221000*72,1746260202000
NMEA,$PSAMCLK,2364,54822100,11,9746363,1441536,548221000*72,1746260202000
NMEA,$GPGGA,081644.000,4503.6574,N,00741.8827,E,1,11,1.0,227.8,M,48.2,M,,*56,1746260203000
NMEA,$PSAMSA,081644.000,4503.6574,N,00741.8827,E,0,M,,*63,1746260203000
NMEA,$GPGLL,4503.6574,N,00741.8827,E,081644.000,A,A*53,1746260203000
NMEA,$GPVTG,195.6,T,,M,3.1,N,5.7,K,A*06,1746260203000
NMEA,$GPGSV,2,1,08,05,18,078,43,18,51,170,39,20,13,042,38,25,33,117,40*7E,1746260203000
NMEA,$GPGSV,2,2,08,26,43,302,40,28,47,217,36,29,61,050,42,31,53,261,34*76,1746260203000
NMEA,$GLGSV,1,1,03,73,79,134,38,74,50,323,37,80,21,137,37*5B,1746260203000
NMEA,$BDGSV,2,1,07,205,32,139,36,208,26,062,38,213,27,080,40,226,33,309,39*6A,1746260203000
NMEA,$BDGSV,2,2,07,229,82,078,40,230,27,052,44,236,28,148,30*67,1746260203000
NMEA,$GPGSA,A,3,29,31,18,28,25,,,,,,,,2.0,1.0,1.8*35,1746260203000
NMEA,$GNGSA,A,3,73,74,80,,,,,,,,,,2.0,1.0,1.8*29,1746260203000
NMEA,$BDGSA,A,3,229,230,236,,,,,,,,,,2.0,1.0,1.8*16,1746260203000
NMEA,$GPRMC,081644.000,A,4503.6574,N,00741.8827,E,3.1,195.6,030525,,,A*6C,1746260203000
NMEA,$PSAMCLK,2364,54822200,11,9746325,1503401,548222000*72,1746260203000
NMEA,$PSAMCLK,2364,54822200,11,9746325,1503401,548222000*72,1746260203000
NMEA,$GPGGA,081645.000,4503.6568,N,00741.8825,E,1,11,1.0,227.6,M,48.2,M,,*56,1746260204000
NMEA,$PSAMSA,081645.000,4503.6568,N,00741.8825,E,0,M,,*6D,1746260204000
NMEA,$GPGLL,4503.6568,N,00741.8825,E,081645.000,A,A*5D,1746260204000
NMEA,$GPVTG,198.7,T,,M,1.5,N,2.8,K,A*04,1746260204000
NMEA,$GPGSV,2,1,08,05,18,078,44,18,51,170,39,20,13,042,38,25,33,117,39*77,1746260204000
NMEA,$GPGSV,2,2,08,26,43,302,39,28,47,217,38,29,61,050,42,31,53,261,34*76,1746260204000
NMEA,$GLGSV,1,1,03,73,79,134,38,74,50,323,37,80,21,137,37*5B,1746260204000
NMEA,$BDGSV,2,1,07,205,32,139,36,208,26,062,38,213,27,080,40,226,33,309,39*6A,1746260204000
NMEA,$BDGSV,2,2,07,229,82,078,40,230,27,052,44,236,28,148,30*67,1746260204000
NMEA,$GPGSA,A,3,29,31,18,28,25,,,,,,,,2.0,1.0,1.8*35,1746260204000
NMEA,$GNGSA,A,3,73,74,80,,,,,,,,,,2.0,1.0,1.8*29,1746260204000
NMEA,$BDGSA,A,3,229,230,236,,,,,,,,,,2.0,1.0,1.8*16,1746260204000
NMEA,$GPRMC,081645.000,A,4503.6568,N,00741.8825,E,1.5,198.7,030525,,,A*68,1746260204000
NMEA,$PSAMCLK,2364,54822300,11,9746413,1565267,548223000*76,1746260204000
NMEA,$PSAMCLK,2364,54822300,11,9746413,1565267,548223000*76,1746260204000
NMEA,$GPGGA,081646.000,4503.6564,N,00741.8823,E,1,11,1.0,227.3,M,48.2,M,,*5A,1746260205000
NMEA,$PSAMSA,081646.000,4503.6564,N,00741.8823,E,0,M,,*64,1746260205000
NMEA,$GPGLL,4503.6564,N,00741.8823,E,081646.000,A,A*54,1746260205000
NMEA,$GPVTG,193.8,T,,M,1.5,N,2.7,K,A*0F,1746260205000
NMEA,$GPGSV,2,1,08,05,18,078,44,18,51,170,38,20,13,042,38,25,33,117,39*76,1746260205000
NMEA,$GPGSV,2,2,08,26,43,302,39,28,47,217,39,29,61,050,42,31,53,261,34*77,1746260205000
NMEA,$GLGSV,1,1,03,73,79,134,37,74,50,323,37,80,21,137,36*55,1746260205000
NMEA,$BDGSV,2,1,07,205,32,139,35,208,26,062,38,213,27,080,40,226,33,309,38*68,1746260205000
NMEA,$BDGSV,2,2,07,229,82,078,39,230,27,052,44,236,28,148,30*69,1746260205000
NMEA,$GPGSA,A,3,29,31,18,28,25,,,,,,,,2.0,1.0,1.8*35,1746260205000
NMEA,$GNGSA,A,3,73,74,80,,,,,,,,,,2.0,1.0,1.8*29,1746260205000
NMEA,$BDGSA,A,3,229,230,236,,,,,,,,,,2.0,1.0,1.8*16,1746260205000
NMEA,$GPRMC,081646.000,A,4503.6564,N,00741.8823,E,1.5,193.8,030525,,,A*65,1746260205000
NMEA,$PSAMCLK,2364,54822400,11,9746351,1627132,548224000*71,1746260205000
NMEA,$PSAMCLK,2364,54822400,11,9746351,1627132,548224000*71,1746260205000
NMEA,$GPGGA,081647.000,4503.6558,N,00741.8821,E,1,11,1.0,227.2,M,48.2,M,,*57,1746260206000
NMEA,$PSAMSA,081647.000,4503.6558,N,00741.8821,E,0,M,,*68,1746260206000
NMEA,$GPGLL,4503.6558,N,00741.8821,E,081647.000,A,A*58,1746260206000
NMEA,$GPVTG,188.2,T,,M,1.9,N,3.6,K,A*03,1746260206000
NMEA,$GPGSV,2,1,08,05,18,078,44,18,51,170,38,20,13,042,41,25,33,117,38*79,1746260206000
NMEA,$GPGSV,2,2,08,26,43,302,38,28,47,217,39,29,61,050,41,31,53,261,34*75,1746260206000
NMEA,$GLGSV,1,1,03,73,79,134,37,74,50,323,36,80,21,137,36*54,1746260206000
NMEA,$BDGSV,2,1,07,205,32,139,35,208,26,062,38,213,27,080,40,226,33,309,38*68,1746260206000
NMEA,$BDGSV,2,2,07,229,82,078,38,230,27,052,44,236,28,148,30*68,1746260206000
NMEA,$GPGSA,A,3,29,31,18,28,25,,,,,,,,2.0,1.0,1.8*35,1746260206000
NMEA,$GNGSA,A,3,73,74,80,,,,,,,,,,2.0,1.0,1.8*29,1746260206000
NMEA,$BDGSA,A,3,229,230,236,,,,,,,,,,2.0,1.0,1.8*16,1746260206000
NMEA,$GPRMC,081647.000,A,4503.6558,N,00741.8821,E,1.9,188.2,030525,,,A*65,1746260206000
NMEA,$PSAMCLK,2364,54822500,11,9746428,1688995,548225000*78,1746260206000
NMEA,$PSAMCLK,2364,54822500,11,9746428,1688995,548225000*78,1746260206000
NMEA,$GPGGA,081648.000,4503.6554,N,00741.8820,E,1,11,1.0,226.9,M,48.2,M,,*5F,1746260207000
NMEA,$PSAMSA,081648.000,4503.6554,N,00741.8820,E,0,M,,*6A,1746260207000
NMEA,$GPGLL,4503.6554,N,00741.8820,E,081648.000,A,A*5A,1746260207000
NMEA,$GPVTG,188.9,T,,M,1.7,N,3.1,K,A*01,1746260207000
NMEA,$GPGSV,2,1,08,05,18,078,44,18,51,170,38,20,13,042,41,25,33,117,38*79,1746260207000
NMEA,$GPGSV,2,2,08,26,43,302,38,28,47,217,39,29,61,050,41,31,53,261,34*75,1746260207000
NMEA,$GLGSV,1,1,03,73,79,134,37,74,50,323,36,80,21,137,36*54,1746260207000
NMEA,$BDGSV,2,1,07,205,32,139,33,208,26,062,38,213,27,080,40,226,33,309,38*6E,1746260207000
NMEA,$BDGSV,2,2,07,229,82,078,38,230,27,052,43,236,28,148,30*6F,1746260207000
NMEA,$GPGSA,A,3,29,31,18,28,25,,,,,,,,2.0,1.0,1.8*35,1746260207000
NMEA,$GNGSA,A,3,73,74,80,,,,,,,,,,2.0,1.0,1.8*29,1746260207000
NMEA,$BDGSA,A,3,229,230,236,,,,,,,,,,2.0,1.0,1.8*16,1746260207000
NMEA,$GPRMC,081648.000,A,4503.6554,N,00741.8820,E,1.7,188.9,030525,,,A*62,1746260207000
NMEA,$PSAMCLK,2364,54822600,11,9746373,1750861,548226000*7F,1746260207000
NMEA,$PSAMCLK,2364,54822600,11,9746373,1750861,548226000*7F,1746260207000
NMEA,$GPGGA,081649.000,4503.6550,N,00741.8821,E,1,11,1.0,226.9,M,48.2,M,,*5B,1746260208000
NMEA,$PSAMSA,081649.000,4503.6550,N,00741.8821,E,0,M,,*6E,1746260208000
NMEA,$GPGLL,4503.6550,N,00741.8821,E,081649.000,A,A*5E,1746260208000
NMEA,$GPVTG,184.5,T,,M,1.3,N,2.4,K,A*01,1746260208000
NMEA,$GPGSV,2,1,08,05,18,078,44,18,51,170,38,20,13,042,41,25,33,117,37*76,1746260208000
NMEA,$GPGSV,2,2,08,26,43,302,37,28,47,217,39,29,61,050,40,31,53,261,34*7B,1746260208000
NMEA,$GLGSV,1,1,03,73,79,134,36,74,50,323,36,80,21,137,36*55,1746260208000
NMEA,$BDGSV,2,1,07,205,32,139,32,208,26,062,38,213,27,080,39,226,33,309,38*61,1746260208000
NMEA,$BDGSV,2,2,07,229,82,078,38,230,27,052,43,236,28,148,30*6F,1746260208000
NMEA,$GPGSA,A,3,29,31,18,28,25,,,,,,,,2.0,1.0,1.8*35,1746260208000
NMEA,$GNGSA,A,3,73,74,80,,,,,,,,,,2.0,1.0,1.8*29,1746260208000
NMEA,$BDGSA,A,3,229,230,236,,,,,,,,,,2.0,1.0,1.8*16,1746260208000
NMEA,$GPRMC,081649.000,A,4503.6550,N,00741.8821,E,1.3,184.5,030525,,,A*62,1746260208000
NMEA,$PSAMCLK,2364,54822700,11,9746496,1812729,548227000*79,1746260208000
NMEA,$PSAMCLK,2364,54822700,11,9746496,1812729,548227000*79,1746260208000
NMEA,$GPGGA,081650.000,4503.6545,N,00741.8820,E,1,11,1.0,226.7,M,48.2,M,,*58,1746260209000
NMEA,$PSAMSA,081650.000,4503.6545,N,00741.8820,E,0,M,,*63,1746260209000
NMEA,$GPGLL,4503.6545,N,00741.8820,E,081650.000,A,A*53,1746260209000
NMEA,$GPVTG,183.4,T,,M,2.8,N,5.2,K,A*0E,1746260209000
NMEA,$GPGSV,2,1,08,05,18,078,44,18,51,170,38,20,13,042,41,25,33,117,37*76,1746260209000
NMEA,$GPGSV,2,2,08,26,43,302,37,28,47,217,39,29,61,050,40,31,53,261,34*7B,1746260209000
NMEA,$GLGSV,1,1,03,73,78,134,36,74,50,323,36,80,21,137,35*57,1746260209000
NMEA,$BDGSV,2,1,07,205,32,139,30,208,26,062,38,213,27,080,39,226,33,309,38*63,1746260209000
NMEA,$BDGSV,2,2,07,229,82,077,37,230,27,052,43,236,28,148,30*6F,1746260209000
NMEA,$GPGSA,A,3,29,31,18,28,25,,,,,,,,2.0,1.0,1.8*35,1746260209000
NMEA,$GNGSA,A,3,73,74,80,,,,,,,,,,2.0,1.0,1.8*29,1746260209000
NMEA,$BDGSA,A,3,229,230,236,,,,,,,,,,2.0,1.0,1.8*16,1746260209000
NMEA,$GPRMC,081650.000,A,4503.6545,N,00741.8820,E,2.8,183.4,030525,,,A*61,1746260209000
NMEA,$PSAMCLK,2364,54822800,11,9746547,1874597,548228000*73,1746260209000
NMEA,$PSAMCLK,2364,54822800,11,9746547,1874597,548228000*73,1746260209000
NMEA,$GPGGA,081651.000,4503.6539,N,00741.8816,E,1,11,1.0,225.9,M,48.2,M,,*5A,1746260210000
NMEA,$PSAMSA,081651.000,4503.6539,N,00741.8816,E,0,M,,*6C,1746260210000
NMEA,$GPGLL,4503.6539,N,00741.8816,E,081651.000,A,A*5C,1746260210000
NMEA,$GPVTG,177.1,T,,M,3.0,N,5.5,K,A*0E,1746260210000
NMEA,$GPGSV,2,1,08,05,18,078,43,18,51,170,38,20,13,042,41,25,33,118,37*7E,1746260210000
NMEA,$GPGSV,2,2,08,26,43,302,37,28,47,217,39,29,61,050,39,31,53,261,34*75,1746260210000
NMEA,$GLGSV,1,1,03,73,78,134,36,74,50,323,36,80,21,137,35*57,1746260210000
NMEA,$BDGSV,2,1,07,205,32,139,29,208,26,062,38,213,27,080,38,226,33,309,38*6A,1746260210000
NMEA,$BDGSV,2,2,07,229,82,077,37,230,27,052,43,236,28,149,30*6E,1746260210000
NMEA,$GPGSA,A,3,29,31,18,28,25,,,,,,,,2.0,1.0,1.8*35,1746260210000
NMEA,$GNGSA,A,3,73,74,80,,,,,,,,,,2.0,1.0,1.8*29,1746260210000
NMEA,$BDGSA,A,3,229,230,236,,,,,,,,,,2.0,1.0,1.8*16,1746260210000
NMEA,$GPRMC,081651.000,A,4503.6539,N,00741.8816,E,3.0,177.1,030525,,,A*69,1746260210000
NMEA,$PSAMCLK,2364,54822900,11,9746605,1936466,548229000*7E,1746260210000
NMEA,$PSAMCLK,2364,54822900,11,9746605,1936466,548229000*7E,1746260210000
NMEA,$GPGGA,081652.000,4503.6532,N,00741.8818,E,1,11,1.0,226.0,M,48.2,M,,*56,1746260211000
NMEA,$PSAMSA,081652.000,4503.6532,N,00741.8818,E,0,M,,*6A,1746260211000
NMEA,$GPGLL,4503.6532,N,00741.8818,E,081652.000,A,A*5A,1746260211000
NMEA,$GPVTG,171.2,T,,M,1.9,N,3.5,K,A*06,1746260211000
NMEA,$GPGSV,2,1,08,05,18,078,43,18,51,170,37,20,13,042,41,25,33,118,36*70,1746260211000
NMEA,$GPGSV,2,2,08,26,43,302,36,28,47,217,39,29,61,051,39,31,53,260,34*74,1746260211000
NMEA,$GLGSV,1,1,03,73,78,134,35,74,50,323,36,80,21,137,35*54,1746260211000
NMEA,$BDGSV,2,1,07,205,32,139,27,208,26,062,37,213,27,080,38,226,33,309,37*64,1746260211000
NMEA,$BDGSV,2,2,07,229,82,077,37,230,27,052,42,236,28,149,30*6F,1746260211000
NMEA,$GPGSA,A,3,29,31,18,28,25,,,,,,,,2.0,1.0,1.8*35,1746260211000
NMEA,$GNGSA,A,3,73,74,80,,,,,,,,,,2.0,1.0,1.8*29,1746260211000
NMEA,$BDGSA,A,3,229,230,236,,,,,,,,,,2.0,1.0,1.8*16,1746260211000
NMEA,$GPRMC,081652.000,A,4503.6532,N,00741.8818,E,1.9,171.2,030525,,,A*61,1746260211000
NMEA,$PSAMCLK,2364,54823000,11,9746591,1998332,548230000*72,1746260211000
NMEA,$PSAMCLK,2364,54823000,11,9746591,1998332,548230000*72,1746260211000
NMEA,$GPGGA,081653.000,4503.6526,N,00741.8819,E,1,11,1.0,226.1,M,48.2,M,,*52,1746260212000
NMEA,$PSAMSA,081653.000,4503.6526,N,00741.8819,E,0,M,,*6F,1746260212000
NMEA,$GPGLL,4503.6526,N,00741.8819,E,081653.000,A,A*5F,1746260212000
NMEA,$GPVTG,170.9,T,,M,1.2,N,2.3,K,A*00,1746260212000
NMEA,$GPGSV,2,1,08,05,18,078,42,18,51,170,37,20,13,042,40,25,33,118,36*70,1746260212000
NMEA,$GPGSV,2,2,08,26,43,302,36,28,47,217,39,29,61,051,38,31,53,260,34*75,1746260212000
NMEA,$GLGSV,1,1,03,73,78,134,35,74,50,323,36,80,21,137,35*54,1746260212000
NMEA,$BDGSV,2,1,07,205,32,139,26,208,26,062,37,213,27,080,37,226,33,309,37*6A,1746260212000
NMEA,$BDGSV,2,2,07,229,82,077,36,230,27,052,41,236,28,149,30*6D,1746260212000
NMEA,$GPGSA,A,3,29,31,18,28,25,,,,,,,,2.0,1.0,1.8*35,1746260212000
NMEA,$GNGSA,A,3,73,74,80,,,,,,,,,,2.0,1.0,1.8*29,1746260212000
NMEA,$BDGSA,A,3,229,230,236,,,,,,,,,,2.0,1.0,1.8*16,1746260212000
NMEA,$GPRMC,081653.000,A,4503.6526,N,00741.8819,E,1.2,170.9,030525,,,A*65,1746260212000
NMEA,$PSAMCLK,2364,54823100,11,9746642,2060199,548231000*71,1746260212000
NMEA,$PSAMCLK,2364,54823100,11,9746642,2060199,548231000*71,1746260212000
NMEA,$GPGGA,081654.000,4503.6521,N,00741.8820,E,1,11,1.0,226.7,M,48.2,M,,*5E,1746260213000
NMEA,$PSAMSA,081654.000,4503.6521,N,00741.8820,E,0,M,,*65,1746260213000
NMEA,$GPGLL,4503.6521,N,00741.8820,E,081654.000,A,A*55,1746260213000
NMEA,$GPVTG,179.8,T,,M,1.9,N,3.5,K,A*04,1746260213000
NMEA,$GPGSV,2,1,08,05,18,078,42,18,51,170,37,20,13,042,40,25,33,118,36*70,1746260213000
NMEA,$GPGSV,2,2,08,26,43,302,36,28,47,217,38,29,61,051,38,31,53,260,35*75,1746260213000
NMEA,$GLGSV,1,1,03,73,78,134,35,74,50,323,36,80,21,137,35*54,1746260213000
NMEA,$BDGSV,2,1,07,205,32,139,24,208,26,062,36,213,27,080,37,226,33,309,37*69,1746260213000
NMEA,$BDGSV,2,2,07,229,82,077,36,230,27,052,41,236,28,149,30*6D,1746260213000
NMEA,$GPGSA,A,3,29,31,18,28,25,,,,,,,,2.0,1.0,1.8*35,1746260213000
NMEA,$GNGSA,A,3,73,74,80,,,,,,,,,,2.0,1.0,1.8*29,1746260213000
NMEA,$BDGSA,A,3,229,230,236,,,,,,,,,,2.0,1.0,1.8*16,1746260213000
NMEA,$GPRMC,081654.000,A,4503.6521,N,00741.8820,E,1.9,179.8,030525,,,A*6C,1746260213000
NMEA,$PSAMCLK,2364,54823200,11,9746592,2122064,548232000*7B,1746260213000
NMEA,$PSAMCLK,2364,54823200,11,9746592,2122064,548232000*7B,1746260213000
NMEA,$GPGGA,081655.000,4503.6514,N,00741.8824,E,1,11,1.0,227.2,M,48.2,M,,*59,1746260214000
NMEA,$PSAMSA,081655.000,4503.6514,N,00741.8824,E,0,M,,*66,1746260214000
NMEA,$GPGLL,4503.6514,N,00741.8824,E,081655.000,A,A*56,1746260214000
NMEA,$GPVTG,181.0,T,,M,1.5,N,2.8,K,A*0B,1746260214000
NMEA,$GPGSV,2,1,08,05,18,078,45,18,51,170,36,20,13,042,40,25,33,118,36*76,1746260214000
NMEA,$GPGSV,2,2,08,26,43,302,36,28,47,217,38,29,61,051,38,31,53,260,35*75,1746260214000
NMEA,$GLGSV,1,1,03,73,78,134,35,74,50,323,36,80,21,137,35*54,1746260214000
NMEA,$BDGSV,2,1,07,205,32,139,23,208,26,062,35,213,27,080,37,226,33,309,37*6D,1746260214000
NMEA,$BDGSV,2,2,07,229,82,077,36,230,27,052,40,236,28,149,30*6C,1746260214000
NMEA,$GPGSA,A,3,29,31,18,28,25,,,,,,,,2.0,1.0,1.8*35,1746260214000
NMEA,$GNGSA,A,3,73,74,80,,,,,,,,,,2.0,1.0,1.8*29,1746260214000
NMEA,$BDGSA,A,3,229,230,236,,,,,,,,,,2.0,1.0,1.8*16,1746260214000
NMEA,$GPRMC,081655.000,A,4503.6514,N,00741.8824,E,1.5,181.0,030525,,,A*6C,1746260214000
NMEA,$PSAMCLK,2364,54823300,11,9746608,2183931,548233000*79,1746260214000
NMEA,$PSAMCLK,2364,54823300,11,9746608,2183931,548233000*79,1746260214000
NMEA,$GPGGA,081656.000,4503.6509,N,00741.8826,E,1,11,1.0,227.1,M,48.2,M,,*57,1746260215000
NMEA,$PSAMSA,081656.000,4503.6509,N,00741.8826,E,0,M,,*6B,1746260215000
NMEA,$GPGLL,4503.6509,N,00741.8826,E,081656.000,A,A*5B,1746260215000
NMEA,$GPVTG,185.1,T,,M,1.9,N,3.5,K,A*0E,1746260215000
NMEA,$GPGSV,2,1,08,05,18,078,45,18,51,170,36,20,13,042,40,25,33,118,36*76,1746260215000
NMEA,$GPGSV,2,2,08,26,43,302,36,28,47,217,38,29,61,051,37,31,53,260,35*7A,1746260215000
NMEA,$GLGSV,1,1,03,73,78,134,34,74,50,323,36,80,21,137,34*54,1746260215000
NMEA,$BDGSV,2,1,07,205,32,139,21,208,26,062,35,213,27,080,36,226,33,309,37*6E,1746260215000
NMEA,$BDGSV,2,2,07,229,82,077,36,230,27,052,39,236,28,149,30*62,1746260215000
NMEA,$GPGSA,A,3,29,31,18,28,25,,,,,,,,2.0,1.0,1.8*35,1746260215000
NMEA,$GNGSA,A,3,73,74,80,,,,,,,,,,2.0,1.0,1.8*29,1746260215000
NMEA,$BDGSA,A,3,229,230,236,,,,,,,,,,2.0,1.0,1.8*16,1746260215000
NMEA,$GPRMC,081656.000,A,4503.6509,N,00741.8826,E,1.9,185.1,030525,,,A*68,1746260215000
NMEA,$PSAMCLK,2364,54823400,11,9746580,2245796,548234000*70,1746260215000
NMEA,$PSAMCLK,2364,54823400,11,9746580,2245796,548234000*70,1746260215000
NMEA,$GPGGA,081657.000,4503.6504,N,00741.8826,E,1,11,1.0,226.6,M,48.2,M,,*5D,1746260216000
NMEA,$PSAMSA,081657.000,4503.6504,N,00741.8826,E,0,M,,*67,1746260216000
NMEA,$GPGLL,4503.6504,N,00741.8826,E,081657.000,A,A*57,1746260216000
NMEA,$GPVTG,189.3,T,,M,2.1,N,3.9,K,A*07,1746260216000
NMEA,$GPGSV,2,1,08,05,18,078,45,18,51,170,36,20,13,042,40,25,33,118,35*75,1746260216000
NMEA,$GPGSV,2,2,08,26,43,302,36,28,47,217,38,29,61,051,37,31,53,260,35*7A,1746260216000
NMEA,$GLGSV,1,1,03,73,78,134,34,74,50,323,35,80,21,137,34*57,1746260216000
NMEA,$BDGSV,2,1,07,205,32,139,20,208,26,062,35,213,27,080,36,226,33,309,37*6F,1746260216000
NMEA,$BDGSV,2,2,07,229,82,077,35,230,27,052,39,236,28,149,31*60,1746260216000
NMEA,$GPGSA,A,3,29,31,18,28,25,,,,,,,,2.0,1.0,1.8*35,1746260216000
NMEA,$GNGSA,A,3,73,74,80,,,,,,,,,,2.0,1.0,1.8*29,1746260216000
NMEA,$BDGSA,A,3,229,230,236,,,,,,,,,,2.0,1.0,1.8*16,1746260216000
NMEA,$GPRMC,081657.000,A,4503.6504,N,00741.8826,E,2.1,189.3,030525,,,A*61,1746260216000
NMEA,$PSAMCLK,2364,54823500,11,9746609,2307664,548235000*79,1746260216000
NMEA,$PSAMCLK,2364,54823500,11,9746609,2307664,548235000*79,1746260216000
NMEA,$GPGGA,081658.000,4503.6501,N,00741.8823,E,1,11,1.0,226.5,M,48.2,M,,*51,1746260217000
NMEA,$PSAMSA,081658.000,4503.6501,N,00741.8823,E,0,M,,*68,1746260217000
NMEA,$GPGLL,4503.6501,N,00741.8823,E,081658.000,A,A*58,1746260217000
NMEA,$GPVTG,193.9,T,,M,1.4,N,2.6,K,A*0E,1746260217000
NMEA,$GPGSV,2,1,08,05,18,078,45,18,51,170,35,20,13,042,40,25,33,118,35*76,1746260217000
NMEA,$GPGSV,2,2,08,26,43,302,35,28,47,217,38,29,61,051,37,31,53,260,36*7A,1746260217000
NMEA,$GLGSV,1,1,03,73,78,134,34,74,50,323,35,80,21,137,34*57,1746260217000
NMEA,$BDGSV,2,1,07,205,32,139,18,208,26,062,34,213,27,080,36,226,33,309,36*64,1746260217000
NMEA,$BDGSV,2,2,07,229,82,077,35,230,27,052,38,236,28,149,31*61,1746260217000
NMEA,$GPGSA,A,3,29,31,18,28,25,,,,,,,,2.0,1.0,1.8*35,1746260217000
NMEA,$GNGSA,A,3,73,74,80,,,,,,,,,,2.0,1.0,1.8*29,1746260217000
NMEA,$BDGSA,A,3,229,230,236,,,,,,,,,,2.0,1.0,1.8*16,1746260217000
NMEA,$GPRMC,081658.000,A,4503.6501,N,00741.8823,E,1.4,193.9,030525,,,A*69,1746260217000
NMEA,$PSAMCLK,2364,54823600,11,9746687,2369533,548236000*76,1746260217000
NMEA,$PSAMCLK,2364,54823600,11,9746687,2369533,548236000*76,1746260217000
NMEA,$GPGGA,081659.000,4503.6496,N,00741.8822,E,1,11,1.0,226.4,M,48.2,M,,*5F,1746260218000
NMEA,$PSAMSA,081659.000,4503.6496,N,00741.8822,E,0,M,,*67,1746260218000
NMEA,$GPGLL,4503.6496,N,00741.8822,E,081659.000,A,A*57,1746260218000
NMEA,$GPVTG,191.5,T,,M,1.4,N,2.7,K,A*01,1746260218000
NMEA,$GPGSV,2,1,08,05,18,078,45,18,51,170,35,20,13,042,39,25,33,118,35*78,1746260218000
NMEA,$GPGSV,2,2,08,26,43,302,35,28,47,217,38,29,61,051,36,31,53,260,36*7B,1746260218000
NMEA,$GLGSV,1,1,03,73,78,134,34,74,50,323,34,80,21,137,34*56,1746260218000
NMEA,$BDGSV,2,1,07,205,32,139,17,208,26,062,34,213,27,080,36,226,33,309,36*6B,1746260218000
NMEA,$BDGSV,2,2,07,229,82,077,35,230,27,052,38,236,28,149,31*61,1746260218000
NMEA,$GPGSA,A,3,29,31,18,28,25,,,,,,,,2.0,1.0,1.8*35,1746260218000
NMEA,$GNGSA,A,3,73,74,80,,,,,,,,,,2.0,1.0,1.8*29,1746260218000
NMEA,$BDGSA,A,3,229,230,236,,,,,,,,,,2.0,1.0,1.8*16,1746260218000
NMEA,$GPRMC,081659.000,A,4503.6496,N,00741.8822,E,1.4,191.5,030525,,,A*68,1746260218000
NMEA,$PSAMCLK,2364,54823700,11,9746825,2431403,548237000*78,1746260218000
NMEA,$PSAMCLK,2364,54823700,11,9746825,2431403,548237000*78,1746260218000
NMEA,$GPGGA,081700.000,4503.6490,N,00741.8820,E,1,11,1.0,226.3,M,48.2,M,,*51,1746260219000
NMEA,$PSAMSA,081700.000,4503.6490,N,00741.8820,E,0,M,,*6E,1746260219000
NMEA,$GPGLL,4503.6490,N,00741.8820,E,081700.000,A,A*5E,1746260219000
NMEA,$GPVTG,192.7,T,,M,0.9,N,1.7,K,A*0F,1746260219000
NMEA,$GPGSV,2,1,08,05,18,078,44,18,51,170,35,20,13,042,38,25,33,118,35*78,1746260219000
NMEA,$GPGSV,2,2,08,26,43,302,35,28,47,217,37,29,61,051,36,31,53,260,36*74,1746260219000
NMEA,$GLGSV,1,1,03,73,78,134,34,74,50,323,34,80,21,137,34*56,1746260219000
NMEA,$BDGSV,2,1,07,205,32,139,15,208,26,062,34,213,27,080,36,226,33,309,36*69,1746260219000
NMEA,$BDGSV,2,2,07,229,82,077,35,230,27,052,38,236,28,149,31*61,1746260219000
NMEA,$GPGSA,A,3,29,31,18,28,25,,,,,,,,2.0,1.0,1.8*35,1746260219000
NMEA,$GNGSA,A,3,73,74,80,,,,,,,,,,2.0,1.0,1.8*29,1746260219000
NMEA,$BDGSA,A,3,229,230,236,,,,,,,,,,2.0,1.0,1.8*16,1746260219000
NMEA,$GPRMC,081700.000,A,4503.6490,N,00741.8820,E,0.9,192.7,030525,,,A*6C,1746260219000
NMEA,$PSAMCLK,2364,54823800,11,9746728,2493272,548238000*72,1746260219000
NMEA,$PSAMCLK,2364,54823800,11,9746728,2493272,548238000*72,1746260219000
NMEA,$GPGGA,081701.000,4503.6487,N,00741.8820,E,1,11,1.0,227.2,M,48.2,M,,*56,1746260220000
NMEA,$PSAMSA,081701.000,4503.6487,N,00741.8820,E,0,M,,*69,1746260220000
NMEA,$GPGLL,4503.6487,N,00741.8820,E,081701.000,A,A*59,1746260220000
NMEA,$GPVTG,207.4,T,,M,1.0,N,1.9,K,A*05,1746260220000
NMEA,$GPGSV,2,1,08,05,18,078,44,18,51,170,34,20,13,042,38,25,33,118,35*79,1746260220000
NMEA,$GPGSV,2,2,08,26,43,302,35,28,47,217,37,29,61,051,36,31,53,260,36*74,1746260220000
NMEA,$GLGSV,1,1,03,73,78,134,37,74,50,323,34,80,21,137,34*55,1746260220000
NMEA,$BDGSV,2,1,07,205,32,139,14,208,26,062,34,213,27,080,36,226,33,309,36*68,1746260220000
NMEA,$BDGSV,2,2,07,229,82,077,35,230,27,052,38,236,28,149,30*60,1746260220000
NMEA,$GPGSA,A,3,29,31,18,28,25,,,,,,,,2.0,1.0,1.8*35,1746260220000
NMEA,$GNGSA,A,3,73,74,80,,,,,,,,,,2.0,1.0,1.8*29,1746260220000
NMEA,$BDGSA,A,3,229,230,236,,,,,,,,,,2.0,1.0,1.8*16,1746260220000
NMEA,$GPRMC,081701.000,A,4503.6487,N,00741.8820,E,1.0,207.4,030525,,,A*6F,1746260220000
NMEA,$PSAMCLK,2364,54823900,11,9746720,2555139,548239000*7D,1746260220000
NMEA,$PSAMCLK,2364,54823900,11,9746720,2555139,548239000*7D,1746260220000
NMEA,$GPGGA,081702.000,4503.6485,N,00741.8819,E,1,11,1.0,228.1,M,48.2,M,,*51,1746260221000
NMEA,$PSAMSA,081702.000,4503.6485,N,00741.8819,E,0,M,,*62,1746260221000
NMEA,$GPGLL,4503.6485,N,00741.8819,E,081702.000,A,A*52,1746260221000
NMEA,$GPVTG,204.8,T,,M,1.0,N,1.8,K,A*0B,1746260221000
NMEA,$GPGSV,2,1,08,05,18,078,44,18,51,170,34,20,13,042,37,25,33,118,35*76,1746260221000
NMEA,$GPGSV,2,2,08,26,43,302,35,28,47,217,37,29,61,051,36,31,53,260,36*74,1746260221000
NMEA,$GLGSV,1,1,03,73,78,134,39,74,50,323,33,80,21,137,34*5C,1746260221000
NMEA,$BDGSV,2,1,07,205,32,139,13,208,26,062,34,213,27,080,35,226,33,309,36*6C,1746260221000
NMEA,$BDGSV,2,2,07,229,82,077,35,230,27,052,37,236,28,149,30*6F,1746260221000
NMEA,$GPGSA,A,3,29,31,18,28,25,,,,,,,,2.0,1.0,1.8*35,1746260221000
NMEA,$GNGSA,A,3,73,74,80,,,,,,,,,,2.0,1.0,1.8*29,1746260221000
NMEA,$BDGSA,A,3,229,230,236,,,,,,,,,,2.0,1.0,1.8*16,1746260221000
NMEA,$GPRMC,081702.000,A,4503.6485,N,00741.8819,E,1.0,204.8,030525,,,A*6B,1746260221000
NMEA,$PSAMCLK,2364,54824000,11,9746758,2617006,548240000*7A,1746260221000
NMEA,$PSAMCLK,2364,54824000,11,9746758,2617006,548240000*7A,1746260221000
NMEA,$GPGGA,081703.000,4503.6482,N,00741.8817,E,1,11,1.0,228.3,M,48.2,M,,*5B,1746260222000
NMEA,$PSAMSA,081703.000,4503.6482,N,00741.8817,E,0,M,,*6A,1746260222000
NMEA,$GPGLL,4503.6482,N,00741.8817,E,081703.000,A,A*5A,1746260222000
NMEA,$GPVTG,210.2,T,,M,1.0,N,1.8,K,A*04,1746260222000
NMEA,$GPGSV,2,1,08,05,18,078,43,18,51,170,34,20,13,042,37,25,33,118,35*71,1746260222000
NMEA,$GPGSV,2,2,08,26,43,302,35,28,47,217,37,29,61,051,36,31,53,260,36*74,1746260222000
NMEA,$GLGSV,1,1,03,73,78,134,39,74,50,323,33,80,21,137,34*5C,1746260222000
NMEA,$BDGSV,2,1,07,205,32,139,12,208,26,062,34,213,27,080,35,226,33,309,36*6D,1746260222000
NMEA,$BDGSV,2,2,07,229,82,077,35,230,27,052,37,236,28,149,30*6F,1746260222000
NMEA,$GPGSA,A,3,29,31,18,28,25,,,,,,,,2.0,1.0,1.8*35,1746260222000
NMEA,$GNGSA,A,3,73,74,80,,,,,,,,,,2.0,1.0,1.8*29,1746260222000
NMEA,$BDGSA,A,3,229,230,236,,,,,,,,,,2.0,1.0,1.8*16,1746260222000
NMEA,$GPRMC,081703.000,A,4503.6482,N,00741.8817,E,1.0,210.2,030525,,,A*6C,1746260222000
NMEA,$PSAMCLK,2364,54824100,11,9746675,2678875,548241000*71,1746260222000
NMEA,$PSAMCLK,2364,54824100,11,9746675,2678875,548241000*71,1746260222000
NMEA,$GPGGA,081704.000,4503.6482,N,00741.8816,E,1,11,1.0,228.5,M,48.2,M,,*5B,1746260223000
NMEA,$PSAMSA,081704.000,4503.6482,N,00741.8816,E,0,M,,*6C,1746260223000
NMEA,$GPGLL,4503.6482,N,00741.8816,E,081704.000,A,A*5C,1746260223000
NMEA,$GPVTG,213.8,T,,M,0.4,N,0.8,K,A*09,1746260223000
NMEA,$GPGSV,2,1,08,05,18,078,43,18,51,170,34,20,13,042,38,25,33,118,34*7F,1746260223000
NMEA,$GPGSV,2,2,08,26,43,302,35,28,47,217,37,29,61,051,35,31,53,260,36*77,1746260223000
NMEA,$GLGSV,1,1,03,73,78,134,39,74,50,323,33,80,21,137,34*5C,1746260223000
NMEA,$BDGSV,2,1,06,208,26,062,33,213,27,080,35,226,33,309,36,229,82,077,35*60,1746260223000
NMEA,$BDGSV,2,2,06,230,27,052,37,236,28,149,30*6B,1746260223000
NMEA,$GPGSA,A,3,29,31,18,28,25,,,,,,,,2.0,1.0,1.8*35,1746260223000
NMEA,$GNGSA,A,3,73,74,80,,,,,,,,,,2.0,1.0,1.8*29,1746260223000
NMEA,$BDGSA,A,3,229,230,236,,,,,,,,,,2.0,1.0,1.8*16,1746260223000
NMEA,$GPRMC,081704.000,A,4503.6482,N,00741.8816,E,0.4,213.8,030525,,,A*66,1746260223000
NMEA,$PSAMCLK,2364,54824200,11,9746620,2740743,548242000*71,1746260223000
NMEA,$PSAMCLK,2364,54824200,11,9746620,2740743,548242000*71,1746260223000
NMEA,$GPGGA,081705.000,4503.6480,N,00741.8817,E,1,11,1.0,229.1,M,48.2,M,,*5C,1746260224000
NMEA,$PSAMSA,081705.000,4503.6480,N,00741.8817,E,0,M,,*6E,1746260224000
NMEA,$GPGLL,4503.6480,N,00741.8817,E,081705.000,A,A*5E,1746260224000
NMEA,$GPVTG,214.6,T,,M,0.6,N,1.1,K,A*0A,1746260224000
NMEA,$GPGSV,2,1,08,05,18,078,42,18,51,170,34,20,13,042,38,25,33,118,34*7E,1746260224000
NMEA,$GPGSV,2,2,08,26,43,302,36,28,47,217,37,29,61,051,35,31,53,260,36*74,1746260224000
NMEA,$GLGSV,1,1,03,73,78,134,39,74,50,323,33,80,21,137,34*5C,1746260224000
NMEA,$BDGSV,2,1,06,208,26,062,33,213,27,080,35,226,33,309,36,229,82,077,36*63,1746260224000
NMEA,$BDGSV,2,2,06,230,27,052,37,236,28,149,30*6B,1746260224000
NMEA,$GPGSA,A,3,29,31,18,28,25,,,,,,,,2.0,1.0,1.8*35,1746260224000
NMEA,$GNGSA,A,3,73,74,80,,,,,,,,,,2.0,1.0,1.8*29,1746260224000
NMEA,$BDGSA,A,3,229,230,236,,,,,,,,,,2.0,1.0,1.8*16,1746260224000
NMEA,$GPRMC,081705.000,A,4503.6480,N,00741.8817,E,0.6,214.6,030525,,,A*6F,1746260224000
NMEA,$PSAMCLK,2364,54824300,11,9746683,2802610,548243000*76,1746260224000
NMEA,$PSAMCLK,2364,54824300,11,9746683,2802610,548243000*76,1746260224000
NMEA,$GPGGA,081706.000,4503.6477,N,00741.8816,E,1,11,1.0,228.8,M,48.2,M,,*5E,1746260225000
NMEA,$PSAMSA,081706.000,4503.6477,N,00741.8816,E,0,M,,*64,1746260225000
NMEA,$GPGLL,4503.6477,N,00741.8816,E,081706.000,A,A*54,1746260225000
NMEA,$GPVTG,215.2,T,,M,1.6,N,2.9,K,A*05,1746260225000
NMEA,$GPGSV,2,1,08,05,18,078,41,18,51,170,34,20,13,042,38,25,33,118,34*7D,1746260225000
NMEA,$GPGSV,2,2,08,26,43,302,36,28,47,217,37,29,61,051,35,31,53,260,36*74,1746260225000
NMEA,$GLGSV,1,1,03,73,78,134,39,74,50,323,33,80,21,137,33*5B,1746260225000
NMEA,$BDGSV,2,1,06,208,26,062,33,213,27,080,35,226,33,309,37,229,82,077,36*62,1746260225000
NMEA,$BDGSV,2,2,06,230,27,052,37,236,28,149,30*6B,1746260225000
NMEA,$GPGSA,A,3,29,31,18,28,25,,,,,,,,2.0,1.0,1.8*35,1746260225000
NMEA,$GNGSA,A,3,73,74,80,,,,,,,,,,2.0,1.0,1.8*29,1746260225000
NMEA,$BDGSA,A,3,229,230,236,,,,,,,,,,2.0,1.0,1.8*16,1746260225000
NMEA,$GPRMC,081706.000,A,4503.6477,N,00741.8816,E,1.6,215.2,030525,,,A*61,1746260225000
NMEA,$PSAMCLK,2364,54824400,11,9746712,2864479,548244000*72,1746260225000
NMEA,$PSAMCLK,2364,54824400,11,9746712,2864479,548244000*72,1746260225000
NMEA,$GPGGA,081707.000,4503.6472,N,00741.8814,E,1,11,1.0,228.9,M,48.2,M,,*59,1746260226000
NMEA,$PSAMSA,081707.000,4503.6472,N,00741.8814,E,0,M,,*62,1746260226000
NMEA,$GPGLL,4503.6472,N,00741.8814,E,081707.000,A,A*52,1746260226000
NMEA,$GPVTG,206.1,T,,M,1.6,N,2.9,K,A*04,1746260226000
NMEA,$GPGSV,2,1,08,05,18,078,41,18,51,170,33,20,13,042,37,25,33,118,34*75,1746260226000
NMEA,$GPGSV,2,2,08,26,43,302,36,28,47,217,36,29,61,051,35,31,53,260,35*76,1746260226000
NMEA,$GLGSV,1,1,03,73,78,134,39,74,50,323,33,80,21,137,33*5B,1746260226000
NMEA,$BDGSV,2,1,06,208,26,062,33,213,27,080,35,226,33,309,37,229,82,077,36*62,1746260226000
NMEA,$BDGSV,2,2,06,230,27,052,37,236,28,149,31*6A,1746260226000
NMEA,$GPGSA,A,3,29,31,18,28,25,,,,,,,,2.0,1.0,1.8*35,1746260226000
NMEA,$GNGSA,A,3,73,74,80,,,,,,,,,,2.0,1.0,1.8*29,1746260226000
NMEA,$BDGSA,A,3,229,230,236,,,,,,,,,,2.0,1.0,1.8*16,1746260226000
NMEA,$GPRMC,081707.000,A,4503.6472,N,00741.8814,E,1.6,206.1,030525,,,A*66,1746260226000
NMEA,$PSAMCLK,2364,54824500,11,9746739,2926347,548245000*76,1746260226000
NMEA,$PSAMCLK,2364,54824500,11,9746739,2926347,548245000*76,1746260226000
NMEA,$GPGGA,081708.000,4503.6465,N,00741.8813,E,1,11,1.0,229.1,M,48.2,M,,*5E,1746260227000
NMEA,$PSAMSA,081708.000,4503.6465,N,00741.8813,E,0,M,,*6C,1746260227000
NMEA,$GPGLL,4503.6465,N,00741.8813,E,081708.000,A,A*5C,1746260227000
NMEA,$GPVTG,193.4,T,,M,2.2,N,4.1,K,A*07,1746260227000
NMEA,$GPGSV,2,1,08,05,18,078,40,18,51,170,33,20,13,042,37,25,33,118,34*74,1746260227000
NMEA,$GPGSV,2,2,08,26,43,302,36,28,47,217,36,29,61,051,35,31,53,260,35*76,1746260227000
NMEA,$GLGSV,1,1,03,73,78,134,38,74,50,323,33,80,21,137,33*5A,1746260227000
NMEA,$BDGSV,2,1,06,208,26,062,33,213,27,080,35,226,33,309,37,229,82,077,36*62,1746260227000
NMEA,$BDGSV,2,2,06,230,27,052,37,236,28,149,32*69,1746260227000
NMEA,$GPGSA,A,3,29,31,18,28,25,,,,,,,,2.0,1.0,1.8*35,1746260227000
NMEA,$GNGSA,A,3,73,74,80,,,,,,,,,,2.0,1.0,1.8*29,1746260227000
NMEA,$BDGSA,A,3,229,230,236,,,,,,,,,,2.0,1.0,1.8*16,1746260227000
NMEA,$GPRMC,081708.000,A,4503.6465,N,00741.8813,E,2.2,193.4,030525,,,A*65,1746260227000
NMEA,$PSAMCLK,2364,54824600,11,9746792,2988214,548246000*74,1746260227000
NMEA,$PSAMCLK,2364,54824600,11,9746792,2988214,548246000*74,1746260227000
NMEA,$GPGGA,081709.000,4503.6458,N,00741.8811,E,1,11,1.0,228.9,M,48.2,M,,*5A,1746260228000
NMEA,$PSAMSA,081709.000,4503.6458,N,00741.8811,E,0,M,,*61,1746260228000
NMEA,$GPGLL,4503.6458,N,00741.8811,E,081709.000,A,A*51,1746260228000
NMEA,$GPVTG,195.0,T,,M,2.1,N,3.8,K,A*08,1746260228000
NMEA,$GPGSV,2,1,08,05,18,078,40,18,51,170,33,20,13,042,37,25,33,118,34*74,1746260228000
NMEA,$GPGSV,2,2,08,26,43,302,36,28,47,217,36,29,61,051,35,31,53,260,35*76,1746260228000
