     4.01           OBSERVATION DATA    M                   RINEX VERSION / TYPE
GnssLogger          samsung 13          20250503 081637 UTC PGM / RUN BY / DATE
Google GnssLogger                                           MARKER NAME
Unknown                                                     MARKER NUMBER
Unknown             Unknown                                 OBSERVER / AGENCY
Unknown             GnssLogger          v3.1.0.4            REC # / TYPE / VERS
Unknown             Unknown                                 ANT # / TYPE
        0.0000        0.0000        0.0000                  ANTENNA: DELTA H/E/N
G    4 C1C D1C S1C L1C                                      SYS / # / OBS TYPES
R    4 C1C D1C S1C L1C                                      SYS / # / OBS TYPES
C    4 C2C D2C S2C L2C                                      SYS / # / OBS TYPES
  2025    05    03    08    16   37.0000000     GPS         TIME OF FIRST OBS
 3 R09 -2 R10 -7 R16 -1                                     GLONASS SLOT / FRQ #
samsung SM-A515F (Android 13) HW Year: 2016 HW Model:       COMMENT
S.LSI,K102                                                  COMMENT
                                                            END OF HEADER
> 2025 05 03 08 16 37.4974065  0 12                      
G18  21593933.83126      1200.74726        37.60026
G29  20900535.16126     -2728.29226        40.40026
G25  22356346.82326     -4202.96126        38.00026
G26  21675456.69425      1201.97525        32.70025
G28  21703858.73125     -3382.21425        31.60025
G31  21239599.53125     -1775.11525        30.00025
C30  24350789.00026     -3979.07926        39.70026
R09  19126978.86826     -1908.78626        36.90026
C36  24194731.43625     -4210.55625        34.80025
C29  21442597.69925     -1491.06725        34.80025
R10  20407569.33425      1454.28925        33.20025
R16  22433629.72125     -5041.47625        33.60025
> 2025 05 03 08 16 37.6974064  0 12                      
G18  21593821.70816      1198.10016        39.10016       240.82816
G29  20900571.73516     -2728.79416        40.20016      -544.70116
G25  22356442.45716     -4204.32016        38.00016      -839.44616
G05  23757220.01916       227.27516        39.20016        46.74516
G26  21675345.77015      1203.02515        32.60015       241.59115
G28  21703921.08815     -3383.23315        31.70015      -675.41215
G31  21239611.22315     -1773.45615        30.00015      -353.62915
C30  24350876.83916     -3977.73016        39.70016      -794.39016
R09  19126974.37116     -1912.39016        36.70016      -330.53016
C36  24194823.47215     -4209.64515        34.90015      -840.56215
C29  21442586.60615     -1491.28415        34.90015      -297.03615
R10  20407446.71915      1453.15115        33.20015       300.05415
> 2025 05 03 08 16 38.9999998  0 14                      
G05  23756832.68726       225.21226        38.70026                
G18  21593201.43826      1198.76526        40.20026                
G29  20900926.09026     -2732.06726        40.10026                
G25  22357161.05926     -4206.24426        38.00026                
G20  24366654.61626     -2170.01826        36.00026                
G28  21704435.23225     -3382.81425        32.30025                
G26  21674741.08925      1202.19625        32.50025                
G31  21239707.15725     -1775.88425        29.90025                
C30  24351543.87726     -3979.83626        39.70026                
R09  19127118.87126     -1909.82726        36.60026                
R16  22434637.32425     -5002.11925        34.00025                
C36  24195555.86525     -4211.23625        35.00025                
C29  21442635.17325     -1493.97625        34.90025                
R10  20406762.89225      1456.92125        33.10025                
> 2025 05 03 08 16 39.9999999  0 14                      
G05  23756586.85716       219.66916        41.00016       227.21116
G29  20901236.67526     -2735.34226        39.90026     -2728.49026
G18  21592766.43916      1194.95916        40.10016      1201.97616
G25  22357750.75116     -4211.43316        38.30016     -4204.00216
G20  24366861.77316     -2172.01316        36.70016     -2166.15216
G28  21704874.72815     -3382.82415        32.30015     -3377.08915
G26  21674306.99015      1205.99715        32.40015      1210.12415
G31  21239839.96515     -1778.58415        30.00015     -1771.14615
C30  24352101.19116     -3983.33216        40.00016     -3976.07716
R09  19127270.56616     -1914.28816        36.50016     -1916.22316
R16  22435371.81516     -5008.20116        35.60016     -5029.98016
C36  24196156.05015     -4219.47315        35.00015     -4209.94115
C29  21442718.51515     -1497.21815        34.80015     -1490.17315
R10  20406282.32515      1447.56815        32.90015      1457.57015
> 2025 05 03 08 16 40.9999999  0 15                      
G05  23756305.65216       221.13716        41.10016       454.28216
G18  21592298.16316      1193.80316        39.90016      2402.41216
G29  20901519.67926     -2733.27326        39.80026     -5456.26126
G25  22358314.36126     -4210.24226        38.40026     -8408.25726
G20  24367046.44516     -2170.98716        36.60016     -4331.61916
G28  21705281.24615     -3386.93415        32.70015     -6756.83415
G26  21673836.31515      1199.74515        32.20015      2417.23915
G31  21239942.49415     -1782.88515        30.10015     -3546.21015
C30  24352628.22616     -3979.33916        40.00016     -7948.42016
R16  22436068.23316     -5009.15416        37.40016    -10017.15716
R09  19127390.18316     -1918.53916        36.80016     -3820.98416
C13  39050436.44525       286.08525        33.80025                
C29  21442767.08115     -1496.17115        34.80015     -2979.38815
C36  24196732.25115     -4216.77215        34.90015     -8421.84215
R10  20405778.67315      1441.47515        32.60015      2879.30415
> 2025 05 03 08 16 41.9999999  0 15                      
G05  23756047.23116       221.00416        41.10016       681.25416
G25  22358896.55826     -4211.67026        38.80026    -12613.51226
G18  21591851.77216      1192.37116        39.70016      3601.41816
G29  20901815.57426     -2736.52826        39.60026     -8185.92526
G20  24367233.51516     -2165.65816        36.50016     -6493.26916
G28  21705706.35215     -3386.11415        33.00015    -10136.88115
G26  21673381.83015      1197.57015        32.10015      3621.93615
G31  21240064.80915     -1781.57515        30.40015     -5321.67015
C30  24353171.45016     -3985.07816        39.90016    -11922.38116
R16  22436788.93426     -5013.01426        38.40026    -15035.63426
R09  19127540.67916     -1912.86016        36.80016     -5793.70916
C29  21442828.83815     -1499.61815        35.00015     -4472.21715
C36  24197319.24415     -4221.12015        34.80015    -12633.80615
C13  39050155.54015       284.08915        34.50015       289.93615
R10  20405274.42215      1454.27215        32.30015      4400.22515
> 2025 05 03 08 16 42.9999999  0 15                      
G05  23755763.02716       216.88416        41.00016       905.39716
G25  22359457.17027     -4210.96127        41.50027    -16818.67627
G18  21591387.09416      1191.69416        39.60016      4799.44716
G29  20902098.27816     -2732.19816        39.40016    -10913.38416
G20  24367410.99216     -2176.16016        36.30016     -8660.69716
G28  21706117.06815     -3391.18015        33.30015    -13520.45615
G26  21672929.74315      1203.54015        31.90015      4829.75915
G31  21240164.04015     -1779.74315        30.70015     -7096.09015
R16  22437490.74816     -5010.33616        38.60016    -20050.32616
C30  24353700.88416     -3982.26316        39.60016    -15900.25716
R09  19127661.49516     -1919.32116        36.70016     -7703.82016
C29  21442879.50315     -1498.24015        35.00015     -5964.75715
C13  39049868.33915       284.90915        34.40015       580.38215
C36  24197894.24615     -4217.35915        34.60015    -16843.57515
R10  20404780.06515      1449.17415        32.10015      5772.37715
> 2025 05 03 08 16 43.9999998  0 15                      
G25  22360007.88926     -4214.82926        41.30026    -21026.34126
G05  23755471.32916       216.13116        40.90016      1128.14416
G28  21706507.99716     -3386.68516        36.30016    -16902.16016
G18  21590910.72416      1189.88716        39.50016      5995.99416
G20  24367579.77616     -2176.95216        36.10016    -10830.53116
G29  20902370.19016     -2736.17416        39.00016    -13642.70916
G31  21240241.98615     -1782.18215        31.00015     -8871.74015
G26  21672447.07715      1200.24215        31.80015      6036.47415
R16  22438186.26716     -5011.95816        39.00016    -25094.78916
R09  19127752.03316     -1918.08316        36.60016     -9516.09316
C29  21442919.97515     -1503.66015        35.00015     -7458.95515
C30  24354222.82216     -3982.83216        39.10016    -19877.14016
C13  39049563.45015       282.47215        34.30015       869.42115
R10  20404253.32915      1450.40215        31.80015      7253.63615
C36  24198453.65915     -4218.30815        34.10015    -21055.46615
> 2025 05 03 08 16 44.9999999  0 15                      
G25  22360602.97726     -4213.31026        41.10026    -25233.87426
G28  21706943.89516     -3389.20816        40.00016    -20284.97216
G05  23755224.30016       214.73016        40.80016      1349.44316
G18  21590475.42526      1191.47626        39.60026      7193.05726
G29  20902688.87016     -2740.97416        38.10016    -16375.90516
G31  21240378.69215     -1784.52115        31.60015    -10649.40815
G26  21672007.28215      1192.75515        31.60015      7237.78015
G20  24367792.92816     -2175.56416        35.60016    -13000.28816
R16  22438910.56516     -5011.02116        39.30016    -30069.73716
R09  19127909.12416     -1922.00616        36.60016    -11459.82116
C29  21442995.52315     -1501.65115        35.00015     -8954.17315
C13  39049299.63215       280.66615        34.30015      1156.74015
C30  24354779.23716     -3986.25616        37.80016    -23854.15516
R10  20403790.15015      1441.68015        31.60015      8618.92515
C36  24199058.94015     -4218.57515        33.10015    -25267.23315
> 2025 05 03 08 16 45.9999998  0 15                      
G28  21707339.62116     -3392.02316        41.30016    -23669.98116
G25  22361153.09626     -4212.96026        41.10026    -29441.08226
G05  23754930.50416       217.36316        40.70016      1572.06416
G18  21589995.15726      1189.80626        39.90026      8389.22826
G29  20902955.38516     -2741.21916        37.00016    -19110.50616
G31  21240471.92715     -1784.20415        32.00015    -12427.48915
G26  21671537.20715      1195.01315        31.40015      8438.83615
G20  24367956.31515     -2179.05915        34.40015    -15172.30315
R16  22439599.48926     -5010.93326        39.50026    -35078.27726
R09  19128023.34526     -1921.36026        36.90026    -13398.92826
C29  21443034.49616     -1503.76216        35.70016    -10449.90216
C13  39048997.74125       282.23225        35.00025      1444.57725
C30  24355294.88016     -3982.50416        36.60016    -27830.88416
R10  20403268.81115      1445.81615        31.30015     10072.72515
C36  24199615.05515     -4219.93015        32.20015    -29479.27815
> 2025 05 03 08 16 46.9999999  0 15                      
G05  23754683.47516       214.76216        41.10016      1793.34216
G28  21707775.22026     -3391.72726        41.40026    -27055.57426
G25  22361749.68316     -4212.52116        41.00016    -33647.93816
G18  21589559.55916      1189.67416        40.10016      9584.96516
G29  20903267.46916     -2737.68016        36.30016    -21843.26416
G31  21240599.93915     -1787.60815        32.40015    -14208.02515
G26  21671101.30915      1202.26115        31.30015      9644.59315
G20  24368162.87215     -2177.51415        33.10015    -17344.08815
R16  22440326.78526     -5011.74726        39.50026    -40070.03926
R09  19128174.14126     -1922.68326        37.40026    -15309.80226
C29  21443116.63916     -1502.78216        36.80016    -11946.87516
C13  39048736.32216       280.86316        35.90016      1731.62616
C30  24355844.99916     -3984.98816        35.90016    -31809.44816
R10  20402816.42415      1443.95115        31.10015     11379.29015
C36  24200215.53915     -4218.64015        31.50015    -33691.85715
> 2025 05 03 08 16 47.9999998  0 15                      
G05  23754392.67627       211.54027        41.60027      2012.07427
G28  21708168.54827     -3394.46627        41.50027    -30443.13827
G25  22362299.50216     -4216.67716        41.00016    -37857.39816
G18  21589087.68616      1185.04316        40.10016     10777.51916
G29  20903537.28216     -2741.27116        36.20016    -24577.75316
G31  21240690.17615     -1786.84015        32.50015    -15988.82015
G26  21670621.64115      1196.34215        31.10015     10848.02015
G20  24368331.65515     -2180.43515        32.00015    -19517.69515
C30  24356359.74316     -3987.93716        39.80016    -35790.67116
R16  22441021.10416     -5015.73916        39.40016    -45107.62416
R09  19128285.96326     -1926.17126        37.70026    -17235.15626
C29  21443154.71326     -1505.97126        37.50026    -13445.93826
C13  39048431.43326       278.72826        36.90026      2017.03826
R10  20402260.60915      1444.82915        30.80015     13016.89815
C36  24200778.84915     -4221.32815        31.00015    -37904.84815
> 2025 05 03 08 16 48.9999999  0 16                      
G28  21708605.64527     -3394.55927        41.50027    -33831.97027
G25  22362895.49026     -4215.96626        41.00026    -42067.30126
G05  23754147.74617       212.67317        41.50017      2230.66317
G18  21588655.98416      1186.91816        40.10016     11970.21316
G29  20903850.86516     -2741.50116        37.20016    -27313.02216
G31  21240821.48515     -1790.10415        32.70015    -17771.92515
G26  21670171.95215      1192.41315        31.00015     12048.00115
G20  24368528.31915     -2181.97115        31.30015    -21692.98215
C30  24356916.45817     -3986.93617        42.20017    -39772.14217
R16  22441751.09916     -5015.15516        39.40016    -50113.90916
C29  21443239.55426     -1503.53326        37.90026    -14944.12126
R09  19128438.55816     -1926.68216        38.00016    -19155.96216
C13  39048169.71526       279.46526        37.40026      2302.34626
C08  39077161.44416       -99.77416        36.90016       -93.44916
R10  20401761.45415      1436.24715        30.60015     14573.63015
C36  24201388.32715     -4223.47615        30.60015    -42119.30015
> 2025 05 03 08 16 49.9999998  0 16                      
G25  22363446.20826     -4216.79026        41.20026    -46277.85226
G28  21709007.06716     -3398.16216        41.40016    -37222.41216
G05  23753859.64516       210.58416        41.40016      2447.86116
G18  21588180.21426      1185.27526        40.00026     13161.90726
G26  21669698.28016      1190.13016        36.30016     13245.36116
G29  20904122.47726     -2744.04726        37.60026    -30050.19926
G31  21240918.01815     -1787.90415        32.80015    -19554.28515
G20  24368690.20715     -2181.99815        31.00015    -23868.79915
C30  24357433.89917     -3988.07517        42.20017    -43754.13517
R16  22442446.91716     -5014.47016        39.20016    -55159.13716
C29  21443278.82716     -1507.69916        38.30016    -16444.73816
C13  39047868.12326       278.51126        37.90026      2587.03326
R09  19128552.17916     -1927.16416        38.00016    -21091.24916
C08  39076928.80516       -99.38116        37.30016      -186.98316
R10  20401259.00215      1436.22715        30.30015     15925.98915
C36  24201940.84515     -4222.49015        30.20015    -46335.69615
> 2025 05 03 08 16 50.9999998  0 16                      
G29  20904408.47916     -2743.80016        40.60016    -32787.89616
G25  22364009.81816     -4216.27216        41.20016    -50488.32216
G05  23753576.34116       210.49216        41.30016      2664.48516
G18  21587715.53626      1185.29926        40.30026     14353.23526
G26  21669229.70426      1189.21926        39.80026     14441.19126
G20  24368861.38816     -2185.23716        37.50016    -26047.00016
G28  21709416.28416     -3396.51816        40.50016    -40613.17716
G31  21241012.45315     -1791.40915        32.80015    -21338.78215
C30  24357959.43617     -3991.00517        42.10017    -47736.63017
C29  21443327.09426     -1507.01526        38.80026    -17945.76126
C13  39047575.22626       278.80226        38.50026      2871.65726
R09  19128667.59926     -1929.03226        38.30026    -22973.85326
R16  22443141.83616     -5017.05516        39.10016    -60138.67116
C08  39076710.85626      -101.24726        37.50026      -281.79826
R10  20400746.35715      1437.66115        30.10015     17394.24815
C36  24202508.95215     -4217.07115        29.90015    -50549.35615
> 2025 05 03 08 16 52.0000001  0 16                      
G29  20904800.60816     -2745.54216        41.40016    -35526.87916
G25  22364684.95116     -4215.67716        41.20016    -54698.32016
G05  23753406.05916       210.10216        41.20016      2880.70616
G18  21587360.28116      1185.50716        40.40016     15544.62916
G20  24369150.68826     -2185.12326        39.20026    -28225.87126
G26  21668875.35016      1187.23216        39.80016     15635.23516
G31  21241230.10215     -1795.16515        33.30015    -23126.44615
G28  21709935.52416     -3401.46216        39.20016    -44007.12916
C30  24358599.49217     -3988.24117        42.10017    -51718.90817
C29  21443491.97916     -1510.90116        39.20016    -19449.46016
R09  19128905.33416     -1929.99016        38.60016    -24931.29716
C13  39047393.25216       281.01316        38.70016      3157.78416
R16  22443945.58026     -5014.63726        38.90026    -65119.69526
C08  39076599.93326      -100.67926        37.70026      -376.61326
R10  20400338.34015      1440.48915        30.00015     18883.89515
C36  24203186.78215     -4221.54115        29.70015    -54762.64215
> 2025 05 03 08 16 52.9999998  0 16                      
G29  20904994.87317     -2744.78917        41.60017    -38265.83817
G25  22365160.42216     -4217.29416        41.20016    -58909.28916
G05  23753038.21426       211.21626        41.10026      3097.48826
G18  21586809.56316      1181.08116        40.40016     16733.04516
G26  21668318.33516      1188.81416        39.60016     16829.69016
G20  24369237.02816     -2185.04116        39.10016    -30404.96016
G31  21241241.19515     -1798.14715        33.60015    -24917.20315
G28  21710260.49916     -3395.36016        37.80016    -47398.12516
C30  24359036.29017     -3988.94517        43.00017    -55701.42417
C29  21443449.10926     -1507.55026        39.50026    -20951.86626
R09  19128933.81516     -1930.58516        38.70016    -26828.41816
C13  39047007.71916       278.50716        38.60016      3442.69216
R16  22444557.45626     -5015.39426        38.70026    -70135.15226
C08  39076292.04626      -101.01826        37.90026      -471.70226
R10  20399747.14915      1431.26715        29.90015     20291.89415
C36  24203682.93914     -4221.21414        29.40014    -58976.81814
> 2025 05 03 08 16 53.9999999  0 16                      
G29  20905310.55517     -2745.71017        41.70017    -41005.39017
G25  22365753.41126     -4216.40626        41.10026    -63119.97526
G05  23752788.78626       208.99926        41.00026      3312.99026
G18  21586371.86626      1182.58526        40.50026     17921.48326
G26  21667883.03716      1186.11716        39.40016     18022.49516
G20  24369446.88316     -2189.35816        38.90016    -32586.98716
G31  21241379.39915     -1794.58715        34.00015    -26706.60515
G28  21710698.79616     -3403.30716        36.60016    -50793.42116
C30  24359592.40517     -3987.55517        43.30017    -59684.29317
C29  21443531.55226     -1509.55126        39.80026    -22455.16226
R09  19129088.80726     -1931.29526        38.90026    -28762.21326
R16  22445294.94616     -5019.40916        38.60016    -75180.41716
C08  39076102.87716      -101.94616        37.90016      -567.48916
C13  39046751.09716       280.89716        38.50016      3728.79916
R10  20399266.58215      1433.45415        29.80015     21748.71215
C36  24204278.32714     -4224.71014        29.20014    -63195.37514
> 2025 05 03 08 16 54.9999998  0 16                      
G29  20905583.96527     -2746.61627        41.90027    -43745.70727
G25  22366307.12826     -4218.30326        41.10026    -67331.79726
G05  23752500.98616       208.01216        41.00016      3527.44516
G18  21585900.29226      1181.90526        40.50026     19109.51126
G26  21667413.86226      1185.28526        39.30026     19214.23326
G20  24369613.26816     -2182.95116        38.60016    -34765.68616
G31  21241468.43715     -1801.73615        34.20015    -28500.28515
G28  21711105.31516     -3403.74716        35.60016    -54190.40716
C30  24360111.34617     -3989.37717        43.50017    -63667.10217
C29  21443571.72426     -1511.46826        40.00026    -23959.99826
R09  19129200.03026     -1934.68726        39.10026    -30685.27526
R16  22445985.06816     -5017.56616        38.40016    -80195.83716
C08  39075869.63826      -101.88926        37.80026      -663.43426
C13  39046446.80716       278.96616        38.30016      4014.05516
R10  20398738.64715      1431.83215        30.20015     23237.59615
C36  24204835.64114     -4223.98114        29.10014    -67412.50914
> 2025 05 03 08 16 55.9999999  0 16                      
G29  20905895.75027     -2748.05727        42.10027    -46487.28927
G05  23752255.45626       206.25626        40.90026      3740.33026
G25  22366901.61616     -4219.33016        41.00016    -71544.72916
G18  21585467.99116      1180.52016        40.40016     20296.43116
G26  21666979.16226      1186.50826        39.40026     20406.38126
G20  24369820.42416     -2186.07316        38.20016    -36945.40616
G31  21241605.44315     -1795.88915        34.70015    -30291.54215
G28  21711532.21915     -3397.32815        34.80015    -57583.72615
C30  24360668.66017     -3991.13917        43.90017    -67651.20317
C29  21443652.96826     -1511.59426        40.20026    -25465.47926
R09  19129352.32526     -1932.65726        39.20026    -32604.55326
C13  39046185.08916       276.18916        38.00016      4297.12816
C08  39075685.86616      -103.51816        37.80016      -760.56716
R16  22446718.36016     -5019.18416        38.30016    -85219.70016
R10  20398262.27715      1433.35615        30.90015     24673.05515
C36  24205442.42114     -4223.86914        28.90014    -71631.35114
> 2025 05 03 08 16 57.0000001  0 16                      
G29  20906259.69827     -2747.90227        42.10027    -49229.14027
G05  23752053.09626       206.96826        40.90026      3953.21626
G25  22367543.17216     -4218.02016        40.90016    -75757.11016
G18  21585086.65516      1180.09816        40.20016     21482.74916
G26  21666587.93326      1183.01726        39.50026     21596.38926
G20  24370076.74716     -2189.80116        37.90016    -39127.90216
G31  21241780.82115     -1801.28515        34.70015    -32085.54015
G28  21712025.97715     -3401.29215        34.10015    -60978.41615
C30  24361274.54117     -3988.31117        43.90017    -71635.43117
C29  21443785.77616     -1512.66616        40.30016    -26971.84116
C13  39045969.23826       276.62126        39.30026      4579.80926
R09  19129554.38516     -1935.98616        39.20016    -34531.43516
C08  39075545.86326      -103.04626        37.80026      -857.73226
R16  22447482.23116     -5018.63816        38.10016    -90147.98716
R10  20397841.66815      1429.58615        31.30015     26068.89015
C36  24206090.57214     -4223.91014        28.80014    -75847.30514
> 2025 05 03 08 16 57.9999998  0 16                      
G29  20906454.26327     -2749.53227        42.10027    -51972.21727
G05  23751687.04926       203.72226        41.20026      4163.89026
G25  22368018.34316     -4220.70016        40.70016    -79971.14316
G26  21666039.31316      1185.12616        39.60016     22787.03916
G20  24370166.68526     -2191.00726        37.70026    -41312.17726
G31  21241796.41015     -1800.53315        34.70015    -33879.99915
G28  21712340.45915     -3402.67015        33.60015    -64374.53215
G18  21584535.93716      1175.33616        39.70016     22665.64316
C30  24361715.23517     -3991.54117        43.80017    -75620.56717
C29  21443747.10316     -1514.67916        40.50016    -28479.88716
C13  39045590.90026       275.23726        39.30026      4861.38926
R09  19129591.26016     -1936.77716        39.20016    -36474.39916
C08  39075234.97826      -106.08926        37.80026      -956.98526
R16  22448109.69716     -5021.09616        37.90016    -95246.75516
R10  20397240.28415      1428.34615        31.80015     27531.04115
C36  24206566.04314     -4220.46814        28.80014    -80065.83214
> 2025 05 03 08 16 59.0000001  0 16                      
G29  20906847.89027     -2749.89327        42.10027    -54715.89427
G05  23751517.66627       203.92927        41.50027      4374.01227
G25  22368693.77626     -4221.84026        40.60026    -84186.43726
G26  21665682.56016      1183.97316        39.60016     23977.18416
G20  24370453.88616     -2190.99216        37.50016    -43496.98516
G18  21584180.38316      1177.91116        38.80016     23849.16116
G31  21242018.55715     -1796.59215        34.60015    -35671.93515
G28  21712853.40415     -3408.18415        33.30015    -67774.74915
C30  24362350.79517     -3992.22617        43.80017    -79606.32417
C29  21443908.39116     -1512.88216        40.50016    -29987.24916
C13  39045408.92626       275.42326        39.30026      5142.77426
R09  19129828.99516     -1936.05216        39.10016    -38431.07916
C08  39075129.15116      -103.68116        37.90016     -1055.28116
R10  20396848.15616      1428.43216        37.00016     28934.50816
R16  22448922.13516     -5022.85116        36.90016   -100274.40316
C36  24207250.16914     -4225.01814        28.90014    -84282.76514
> 2025 05 03 08 16 59.9999998  0 16                      
G29  20907047.25217     -2751.87817        42.00017    -57461.14417
G05  23751151.32027       201.71527        41.70027      4582.42627
G25  22369166.84826     -4223.73026        40.40026    -88403.46126
G26  21665126.14516      1183.07516        39.60016     25166.51316
G20  24370548.32016     -2192.59516        37.30016    -45683.09016
G18  21583626.96616      1177.80916        37.90016     25032.77116
G31  21242035.34515     -1801.25315        34.50015    -37466.18715
G28  21713173.58315     -3409.15715        33.10015    -71177.03115
C30  24362789.39217     -3993.22717        43.70017    -83592.71417
C29  21443872.71616     -1513.96816        40.50016    -31495.15416
C13  39045026.69026       273.30126        39.20026      5422.63126
R09  19129864.37016     -1937.51916        39.00016    -40366.40316
C08  39074821.56416      -106.28616        37.90016     -1155.04316
R10  20396253.06826      1428.53126        36.90026     30363.86326
R16  22449524.11816     -5022.45916        36.00016   -105237.12216
C36  24207733.73514     -4225.33214        28.90014    -88502.37114
> 2025 05 03 08 17 00.9999998  0 16                      
G05  23750905.79027       202.49127        41.80027      4790.30127
G29  20907362.63417     -2749.23217        42.00017    -60205.14017
G25  22369759.53816     -4221.63916        40.20016    -92619.65416
G26  21664700.44016      1184.76916        39.50016     26356.71116
G20  24370753.37916     -2193.50816        37.10016    -47870.22216
G18  21583194.66516      1175.66516        37.40016     26214.99316
G31  21242172.95015     -1804.55515        34.30015    -39263.40015
G28  21713614.87715     -3403.55915        33.00015    -74576.25715
C30  24363351.20317     -3992.91817        43.60017    -87579.11017
C13  39044765.57126       274.48926        39.90026      5702.78326
C29  21443958.15716     -1516.53616        40.40016    -33004.94116
C08  39074631.19616      -107.12716        37.80016     -1255.84216
R10  20395773.10016      1428.60216        36.60016     31817.63016
R09  19130020.26316     -1937.10116        38.40016    -42305.54616
R16  22450266.40415     -5024.80615        35.40015   -110308.37315
C36  24208343.21314     -4230.28014        28.90014    -92723.51014
> 2025 05 03 08 17 01.9999997  0 16                      
G05  23750617.09027       199.07427        43.00027      4996.42027
G29  20907634.24617     -2753.74117        41.90017    -62951.68917
G26  21664224.07016      1184.55216        39.40016     27547.09116
G20  24370922.16216     -2194.11816        37.00016    -50058.06816
G18  21582719.79426      1176.25826        37.00026     27397.18526
G28  21714011.20315     -3410.13615        33.70015    -77978.81315
G31  21242261.38815     -1799.43315        34.10015    -41058.14815
G25  22370312.65516     -4225.71616        39.30016    -96838.25216
C30  24363865.04717     -3995.26117        43.40017    -91567.03817
C13  39044462.18116       270.75916        40.00016      5980.58216
C08  39074404.55326      -107.54926        37.70026     -1357.23126
R10  20395261.95416      1417.13816        36.30016     33217.27616
C29  21444003.12616     -1514.81416        39.60016    -34514.17016
R09  19130132.08516     -1942.90316        37.40016    -44230.13616
R16  22450943.03615     -5026.06015        34.80015   -115252.71115
C36  24208907.72214     -4228.38114        29.10014    -96946.95714
> 2025 05 03 08 17 02.9999998  0 16                      
G05  23750372.75927       202.02027        43.60027      5203.70327
G29  20907949.62817     -2750.14117        41.90017    -65696.73717
G28  21714451.59816     -3408.87016        37.90016    -81381.68316
G20  24371127.81916     -2195.27316        36.90016    -52246.96916
G18  21582285.69516      1171.76716        36.80016     28576.32516
G31  21242390.89915     -1805.38115        34.10015    -42856.08915
G26  21663798.06516      1182.58516        38.50016     28736.17216
G25  22370917.33616     -4225.65016        37.60016   -101057.65716
C30  24364425.35917     -3993.28717        43.30017    -95554.37517
C13  39044202.86116       273.84816        40.00016      6259.60916
C08  39074218.98126      -106.82926        37.90026     -1458.38526
R10  20394784.08516      1429.65316        36.00016     34660.36616
R16  22451678.42615     -5023.58015        34.30015   -120286.51115
C29  21444096.06116     -1511.57016        38.30016    -36021.09916
R09  19130288.27716     -1941.47916        36.40016    -46170.80716
C36  24209504.30914     -4224.13814        29.30014   -101167.98514
> 2025 05 03 08 17 03.9999998  0 16                      
G05  23750095.45117       197.63517        43.60017      5408.96317
G29  20908234.43017     -2751.39217        41.70017    -68442.10717
G28  21714860.51516     -3407.89716        39.00016    -84783.99716
G20  24371307.99526     -2197.94326        37.00026    -54437.99026
G18  21581825.21316      1172.49916        36.60016     29754.94716
G31  21242497.92515     -1805.20615        34.00015    -44654.96515
G26  21663331.58816      1187.22116        37.10016     29927.92316
G25  22371486.94216     -4225.56516        36.20016   -105277.26216
C30  24364952.39417     -3996.67417        43.30017    -99542.91017
C13  39043914.16116       270.51216        40.00016      6536.83216
C08  39074001.33226      -109.22826        38.20026     -1561.04926
R10  20394273.83816      1426.41616        35.90016     36115.65216
R16  22452385.93715     -5026.05815        33.90015   -125332.54115
C29  21444141.63016     -1520.18816        37.10016    -37532.99516
R09  19130409.39315     -1946.68915        35.40015    -48082.44715
C36  24210070.91714     -4225.79114        29.30014   -105387.18614
> 2025 05 03 08 17 04.9999998  0 16                      
G05  23749805.55217       196.99817        43.50017      5612.49417
G20  24371475.87826     -2198.06826        41.00026    -56629.76526
G28  21715261.33716     -3409.02916        39.20016    -88186.84516
G18  21581346.44516      1172.19416        36.40016     30933.23016
G31  21242593.55815     -1806.82115        33.90015    -46455.19315
G29  20908511.73916     -2752.72016        40.40016    -71188.43316
G26  21662860.91316      1183.10416        36.10016     31117.85516
G25  22372043.65615     -4221.22115        35.20015   -109494.00115
C30  24365470.73617     -3996.90217        43.20017   -103532.24217
C13  39043611.97026       271.64626        40.00026      6814.24726
C08  39073772.29016      -109.07516        38.20016     -1664.07716
R10  20393753.99826      1425.36526        35.80026     37561.82926
R16  22453083.25415     -5028.64815        33.70015   -130386.17715
C29  21444182.10216     -1527.39116        36.00016    -39051.31216
R09  19130539.20315     -1942.36515        34.70015    -50104.07015
C36  24210636.02514     -4230.22114        29.30014   -109608.59914
> 2025 05 03 08 17 05.9999999  0 16                      
G05  23749565.41827       196.94027        43.50027      5815.52827
G20  24371683.93416     -2199.44416        41.00016    -58822.75716
G28  21715703.23116     -3408.26016        39.20016    -91589.40516
G18  21580919.84016      1167.75616        36.30016     32108.39216
G31  21242732.96215     -1804.93615        33.90015    -48254.66415
G29  20908836.41416     -2751.73416        38.80016    -73934.46816
G26  21662419.61915      1183.16115        35.20015     32307.17015
G25  22372638.14515     -4229.38315        34.50015   -113715.27515
C30  24366028.35017     -3993.42717        43.00017   -107521.27817
C13  39043357.14616       271.25116        39.80016      7091.41516
C08  39073584.32026      -109.18326        38.10026     -1767.34726
R10  20393276.72826      1424.63826        35.70026     39001.10426
R16  22453812.34915     -5025.88415        33.50015   -135386.34615
C29  21444257.64915     -1519.63415        35.20015    -40566.64615
R09  19130680.10615     -1944.12015        34.00015    -51962.22415
C36  24211241.60615     -4226.77415        29.60015   -113832.01715
> 2025 05 03 08 17 06.9999998  0 16                      
G05  23749277.31727       194.17227        43.50027      6016.59927
G20  24371855.11616     -2200.12316        40.70016    -61016.55916
G28  21716104.35416     -3413.45916        39.10016    -94995.28816
G18  21580448.86616      1170.62516        36.30016     33284.47616
G31  21242823.79915     -1808.30615        33.90015    -50056.08015
G29  20909103.22916     -2752.78416        37.60016    -76681.05916
G26  21661945.04715      1182.80015        34.60015     33496.08815
G25  22373184.96615     -4228.20215        34.00015   -117937.22415
C30  24366547.29017     -3996.66617        42.90017   -111513.59517
C08  39073358.87716      -113.50316        38.00016     -1873.53016
R10  20392764.38326      1424.14626        35.70026     40406.08826
C13  39043057.35416       271.70416        38.80016      7368.85016
R16  22454500.07315     -5032.07315        33.40015   -140389.53615
C29  21444305.31615     -1516.84915        34.60015    -42079.08115
R09  19130796.42515     -1946.11115        33.50015    -53912.02815
C36  24211811.81115     -4232.44515        30.20015   -118056.89515
> 2025 05 03 08 17 07.9999999  0 16                      
G05  23749033.88627       197.45027        43.40027      6219.15327
G20  24372067.06916     -2198.72816        40.30016    -63209.74916
G28  21716544.74916     -3409.84716        39.00016    -98399.91816
G18  21580022.86116      1171.12116        36.20016     34461.14816
G31  21242956.90715     -1808.21515        33.90015    -51858.13315
G29  20909423.10816     -2760.76216        36.70016    -79433.20216
G26  21661511.54815      1180.56515        34.20015     34683.33515
G25  22373781.55315     -4226.86815        33.70015   -122158.55815
C30  24367108.80217     -3997.27917        42.60017   -115503.79817
C08  39073173.90516      -107.92916        37.80016     -1977.01516
R10  20392290.41116      1424.22216        35.60016     41830.10916
C13  39042794.13616       266.57216        37.60016      7642.90416
C29  21444387.75915     -1520.34815        34.20015    -43592.93215
R16  22455229.16815     -5028.44615        33.30015   -145390.47115
R09  19130958.31315     -1944.54115        33.10015    -55882.49815
C36  24212417.09215     -4228.72115        30.20015   -122282.17415
> 2025 05 03 08 17 08.9999999  0 16                      
G20  24372246.04516     -2200.56416        40.10016    -65403.94716
G28  21716957.56316     -3413.51316        38.80016   -101806.56416
G05  23748757.47717       195.28117        42.90017      6420.76717
G18  21579568.97516      1170.48916        36.00016     35637.60816
G26  21661050.76715      1180.37415        34.20015     35869.90915
G31  21243065.43215     -1810.82915        34.10015    -53662.12815
G29  20909719.90216     -2757.10216        36.00016    -82184.74416
G25  22374345.16315     -4226.67415        33.50015   -126379.54515
C30  24367638.83517     -3996.99517        42.30017   -119492.61017
R10  20391781.66326      1422.56026        35.70026     43277.00926
C29  21444448.01815     -1521.58315        34.00015    -45108.06515
R16  22455936.07915     -5026.36315        33.20015   -150433.44315
R09  19131082.42715     -1952.38515        32.90015    -57810.94615
C13  39042502.43816       272.72216        36.60016      7919.94416
C08  39072959.25316      -109.10816        36.80016     -2080.37616
C36  24212992.99415     -4232.30015        30.20015   -126505.77615
> 2025 05 03 08 17 09.9999999  0 16                      
G20  24372448.10516     -2198.81016        39.90016    -67597.27616
G28  21717386.26616     -3414.74916        38.70016   -105214.66816
G18  21579118.68716      1166.59716        35.90016     36811.43816
G31  21243186.24815     -1806.22515        34.30015    -55463.66515
G26  21660608.57315      1183.51715        34.10015     37058.39115
G05  23748500.85517       192.87917        41.50017      6620.50317
G29  20910018.79516     -2748.31116        35.50016    -84930.18716
G25  22374931.25715     -4227.18815        33.50015   -130600.72315
R10  20391299.29716      1422.30516        35.70016     44682.75916
C29  21444510.07515     -1518.65215        33.80015    -46621.63515
R16  22456646.28715     -5030.04415        33.10015   -155396.12315
R09  19131223.62915     -1948.90215        32.70015    -59733.24315
C13  39042234.72316       277.51516        35.60016      8201.20916
C30  24368191.05216     -3995.56816        40.50016   -123481.54216
C08  39072759.89116      -107.34416        35.60016     -2182.48316
C36  24213587.48215     -4234.09215        30.10015   -130734.21315
> 2025 05 03 08 17 10.9999999  0 16                      
G20  24372624.38316     -2204.41116        39.80016    -69794.09716
G05  23748223.24716       194.33916        40.10016      6820.53816
G31  21243292.37515     -1811.64015        34.40015    -57268.04215
G26  21660149.29115      1177.81415        34.10015     38243.65815
G29  20910301.49915     -2756.12715        35.00015    -87678.85815
G25  22375498.46515     -4230.68915        33.40015   -134824.34715
G28  21717795.78316     -3416.77616        38.20016   -108624.65816
G18  21578656.70716      1166.42216        35.70016     37984.22816
R10  20390800.44316      1424.63216        35.60016     46077.79616
C29  21444566.13615     -1519.25115        33.60015    -48135.13215
R16  22457364.59015     -5031.09515        33.00015   -160498.71315
C30  24368719.58616     -3995.46916        38.60016   -127470.83516
R09  19131354.03915     -1948.87515        32.60015    -61696.07215
C13  39041943.02515       265.16615        34.60015      8475.60315
C08  39072541.04315      -107.46515        34.40015     -2284.30015
C36  24214155.58915     -4233.56515        30.00015   -134961.54315
> 2025 05 03 08 17 11.9999999  0 16                      
G05  23747948.63726       191.32926        41.10026      7018.67826
G20  24372805.45816     -2202.58516        39.70016    -71990.85316
G28  21718207.09816     -3412.38716        37.40016   -112032.33916
G31  21243399.10115     -1810.97815        34.70015    -59072.91115
G26  21659688.21015      1182.53315        34.10015     39431.01215
G29  20910589.60015     -2756.50715        34.70015    -90428.84515
G25  22376061.17515     -4229.49015        33.40015   -139047.97615
G18  21578203.72015      1167.83515        34.70015     39157.62315
R10  20390288.99716      1420.73016        35.60016     47540.71016
C29  21444613.50315     -1523.23615        33.50015    -49651.24915
R16  22458061.90715     -5029.68615        33.00015   -165490.47515
C13  39041650.12815       268.99215        34.00015      8750.26915
R09  19131473.35715     -1951.57115        32.50015    -63598.54115
C30  24369250.51916     -3997.94316        37.30016   -131462.45316
C36  24214725.19515     -4230.04015        30.10015   -139188.19015
C08  39072323.69315      -107.72315        33.50015     -2386.18215
> 2025 05 03 08 17 12.9999999  0 16                      
G05  23747692.01527       192.72727        45.10027      7216.65527
G20  24373004.22016     -2202.17516        39.50016    -74187.27716
G28  21718639.99816     -3417.26516        37.10016   -115442.46516
G31  21243523.21525     -1812.59925        34.80025    -60878.98925
G26  21659238.52115      1177.45515        34.00015     40615.71315
G29  20910888.79315     -2758.37615        34.50015    -93180.48115
G25  22376640.67415     -4225.81315        33.40015   -143269.11615
G18  21577759.72815      1165.72315        33.90015     40329.85015
R10  20389824.91815      1424.26115        35.40015     48848.07215
C13  39041374.91915       269.57015        33.70015      9025.44815
C29  21444689.05115     -1520.30715        33.40015    -51166.25015
R16  22458786.50615     -5032.38015        33.00015   -170529.58915
C30  24369799.13916     -3996.11116        36.20016   -135453.86116
R09  19131613.95915     -1951.11315        32.40015    -65518.54615
C36  24215321.48215     -4229.07915        30.20015   -143413.44215
C08  39072123.43215      -114.48015        32.60015     -2492.55315
> 2025 05 03 08 17 13.9999999  0 16                      
G05  23747417.70517       191.90517        44.90017      7415.14817
G20  24373184.09616     -2201.54116        39.40016    -76383.21716
G28  21719045.31816     -3411.95816        37.00016   -118849.91816
G31  21243634.13815     -1812.46815        35.10015    -62685.43215
G29  20911170.89815     -2754.80615        34.30015    -95930.33515
G26  21658779.83915      1175.54015        34.00015     41798.20315
G25  22377208.78115     -4229.49315        33.40015   -147491.93115
G18  21577301.64515      1162.01215        33.50015     41499.16415
C13  39041089.81615       266.07315        33.70015      9298.41715
C30  24370320.17815     -3997.10915        35.40015   -139446.05915
C29  21444743.01315     -1524.45315        33.30015    -52683.69215
R16  22459480.52515     -5031.06015        32.90015   -175503.00715
R09  19131753.96215     -1949.77715        32.40015    -67531.80415
C36  24215905.77715     -4237.22815        30.40015   -147642.40715
C08  39071900.68615      -110.87915        32.00015     -2598.06815
R10  20389322.46615      1422.26915        34.70015     50263.70115
> 2025 05 03 08 17 14.9999999  0 16                      
G05  23747144.29417       190.84717        44.60017      7612.28517
G20  24373374.16416     -2204.27616        39.30016    -78580.80616
G28  21719461.13016     -3415.55416        36.80016   -122258.86516
G31  21243736.96715     -1812.42115        35.30015    -64491.95215
G29  20911462.29615     -2763.05015        34.20015    -98685.07915
G26  21658322.65515      1174.12315        33.90015     42979.02515
G25  22377777.48715     -4230.14315        33.50015   -151715.72515
G18  21576852.55615      1168.86315        33.10015     42672.08715
C13  39040802.31515       266.76415        33.80015      9571.12315
C30  24370851.11115     -3997.84115        34.90015   -143439.08415
C29  21444801.77315     -1521.00415        33.20015    -54199.63615
R16  22460189.83415     -5029.76615        32.90015   -180558.20915
R09  19131899.96115     -1954.07515        32.40015    -69577.15115
C08  39071686.63415      -111.91715        31.60015     -2703.97815
R10  20388813.11815      1419.21015        33.70015     51713.65315
C36  24216473.58415     -4235.22915        30.50015   -151872.03915
> 2025 05 03 08 17 15.9999999  0 16                      
G05  23746887.37217       189.78017        44.30017      7808.46317
G31  21243865.57816     -1816.74716        35.80016    -66301.34516
G28  21719892.53116     -3417.46116        36.60016   -125669.54416
G29  20911763.58715     -2753.54915        34.20015   -101435.08215
G26  21657878.96215      1177.58115        33.90015     44161.63215
G25  22378377.37215     -4233.26115        33.50015   -155941.88615
G20  24373578.32316     -2200.17716        38.40016    -80776.17716
G18  21576406.46515      1163.90015        32.80015     43842.94115
C30  24371394.03515     -4000.12215        34.60015   -147431.83315
C13  39040527.40515       269.86815        33.80015      9845.84615
C29  21444878.22015     -1521.33115        33.10015    -55715.26315
R09  19132037.56615     -1952.17615        32.50015    -71479.58315
R16  22460922.22715     -5038.89915        32.80015   -185640.12415
C08  39071491.17015      -112.81615        31.50015     -2810.58215
C36  24217065.07515     -4236.14615        30.50015   -156100.30015
R10  20388313.66415      1425.41515        32.90015     53210.93015
> 2025 05 03 08 17 16.9999999  0 16                      
G05  23746616.06017       187.93917        43.90017      8003.04617
G31  21243972.00416     -1817.76416        35.80016    -68112.42416
G28  21720310.14216     -3421.69416        36.40016   -129083.67116
G26  21657413.98415      1179.44815        33.90015     45346.03015
G29  20912062.48015     -2761.32815        34.10015   -104188.74015
G25  22378945.17915     -4230.49615        33.40015   -160167.04315
G18  21575934.59115      1159.63115        32.50015     45010.21015
G20  24373756.10016     -2198.58716        37.00016    -82969.79616
C30  24371932.76215     -3998.13615        34.60015   -151424.32615
C13  39040233.00915       265.08415        33.80015     10118.00515
C29  21444931.28315     -1527.05815        33.10015    -57234.65015
R16  22461612.94915     -5030.18915        32.70015   -190595.19915
R09  19132159.28215     -1954.98815        32.50015    -73395.80615
C08  39071279.51615      -114.77815        31.50015     -2918.77415
C36  24217638.87715     -4239.85415        30.50015   -160331.66415
R10  20387823.20415      1422.29615        32.20015     54561.72915
> 2025 05 03 08 17 17.9999999  0 16                      
G05  23746341.15017       187.45117        43.50017      8196.78317
G28  21720717.26016     -3415.85416        36.20016   -132495.04316
G31  21244079.92916     -1816.37216        35.70016    -69923.12316
G26  21656948.10715      1176.38015        34.10015     46528.99315
G29  20912355.97715     -2753.29015        34.00015   -106938.24515
G25  22379506.99015     -4230.15215        33.40015   -164391.62315
G18  21575471.71215      1158.90815        32.30015     46175.81515
G20  24373939.57316     -2198.67816        35.70016    -85162.88016
R09  19132283.39615     -1954.74015        33.50015    -75325.01715
C30  24372460.69715     -3997.27215        34.70015   -155414.89515
C13  39039954.20215       269.89815        34.00015     10392.53015
R16  22462325.85525     -5033.99925        33.10025   -195670.27325
C29  21444985.84515     -1523.34615        33.20015    -58752.80415
C08  39071065.76415      -118.82015        31.60015     -3030.17815
R10  20387310.85815      1418.59115        31.70015     56028.46015
C36  24218224.97215     -4247.29815        30.50015   -164568.27015
> 2025 05 03 08 17 18.9999999  0 16                      
G05  23746082.72917       185.15517        43.00017      8388.74417
G28  21721150.76016     -3420.22116        36.10016   -135908.37116
G31  21244207.64116     -1816.85716        35.70016    -71733.98316
G26  21656499.91715      1178.24115        34.70015     47712.75315
G29  20912647.97515     -2756.77615        33.90015   -109688.65315
G25  22380094.88315     -4236.07015        33.30015   -168619.91915
G18  21575032.21615      1159.20715        32.20015     47341.10115
G20  24374143.73115     -2208.59015        34.60015    -87362.35715
R09  19132424.59816     -1955.63516        37.00016    -77247.31316
C30  24373010.21615     -4004.01915        34.80015   -159409.64215
C13  39039676.29415       263.48515        34.40015     10663.60515
C29  21445055.39715     -1526.91415        33.20015    -60272.88915
R16  22463049.25515     -5033.36415        33.20015   -200703.27115
C08  39070863.10415      -114.77815        31.90015     -3139.92215
R10  20386814.10215      1416.65715        31.40015     57509.72015
C36  24218817.36215     -4237.48215        30.40015   -168801.40115
> 2025 05 03 08 17 19.9999999  0 16                      
G05  23745814.11517       189.00817        42.30017      8582.63317
G28  21721563.27516     -3422.09616        36.00016   -139323.64916
G31  21244313.16816     -1818.05816        35.60016    -73545.74616
G26  21656040.33515      1174.63015        35.10015     48894.32415
G25  22380659.09215     -4229.26115        33.40015   -172844.96515
G29  20912934.57715     -2759.42315        33.70015   -112441.17615
G18  21574574.43315      1161.61615        32.10015     48507.83715
G20  24374324.20615     -2209.50415        33.80015    -89564.62315
R09  19132554.40826     -1958.35326        39.00026    -79205.55926
C30  24373541.14915     -4000.55715        35.00015   -163405.36115
C29  21445107.56115     -1527.17715        34.20015    -61793.84215
C13  39039395.38915       267.90415        34.40015     10936.42815
R16  22463762.76115     -5039.69415        33.20015   -205780.63915
C08  39070647.25415      -113.99215        32.00015     -3248.63615
R10  20386310.15115      1418.70515        31.20015     58932.97615
C36  24219391.46415     -4235.06715        30.30015   -173032.04115
> 2025 05 03 08 17 21.0000000  0 16                      
G20  24374535.26016     -2209.13516        35.50016    -91767.56016
G05  23745576.08016       187.95216        41.40016      8776.47416
G28  21722004.26916     -3421.25416        35.90016   -142739.00416
G26  21655603.53815      1175.72615        35.20015     50075.90815
G31  21244451.07316     -1818.53216        35.50016    -75358.11316
G25  22381261.37515     -4235.59315        33.40015   -177073.13415
G29  20913254.75515     -2761.53715        33.60015   -115195.80115
G18  21574152.32515      1159.02115        32.10015     49673.34015
R09  19132715.99616     -1958.85816        39.00016    -81175.26516
C30  24374096.66415     -3998.01915        35.20015   -167399.20415
C29  21445195.40015     -1528.04115        34.80015    -63315.64715
C13  39039130.67215       271.93215        34.30015     11212.53015
R16  22464492.75515     -5032.02015        33.20015   -210786.92215
C08  39070455.68615      -112.83615        32.10015     -3356.22515
R10  20385848.47115      1415.24715        31.20015     60290.63915
C36  24219988.35115     -4236.75315        30.30015   -177263.74115
> 2025 05 03 08 17 21.9999999  0 16                      
G05  23745290.07816       187.49716        40.60016      8970.03016
G20  24374704.04416     -2207.32816        37.60016    -93969.48016
G26  21655133.46315      1173.09715        35.30015     51255.78015
G28  21722414.08616     -3420.77316        35.80016   -146154.02816
G31  21244545.20715     -1819.46115        35.40015    -77171.26515
G29  20913527.86615     -2758.61215        33.50015   -117949.14015
G25  22381817.19015     -4229.83415        33.40015   -181298.47115
G18  21573684.94915      1157.09915        32.00015     50837.18615
R09  19132832.01616     -1956.19916        38.80016    -83122.01216
C29  21445236.77215     -1522.56115        35.30015    -64834.04715
C30  24374617.70315     -3995.31315        35.30015   -171387.69115
C13  39038832.67925       266.60625        34.20025     11486.21125
R16  22465172.98415     -5029.34415        33.10015   -215749.60415
C08  39070232.04115      -113.83215        32.10015     -3464.06715
R10  20385321.13615      1413.18615        31.30015     61774.95015
C36  24220545.36515     -4234.47015        30.20015   -181491.98115
> 2025 05 03 08 17 23.0000000  0 16                      
G20  24374909.70116     -2206.25916        37.50016    -96170.39716
G26  21654698.46416      1172.94516        35.80016     52434.93116
G31  21244684.31115     -1820.62815        35.30015    -78985.50515
G28  21722852.68216     -3429.51816        35.60016   -149574.81916
G29  20913845.04615     -2758.03815        33.50015   -120701.71615
G25  22382412.87815     -4235.69615        33.40015   -185526.81815
G05  23745049.94416       185.46516        39.50016      9162.08916
G18  21573253.84715      1160.71315        32.00015     52002.84015
R09  19132987.90816     -1961.13116        38.50016    -85061.15516
C30  24375177.11616     -4000.37816        35.50016   -175381.67716
C29  21445324.91016     -1529.32616        35.60016    -66355.87116
C13  39038575.75615       264.87615        34.10015     11757.88315
R16  22465914.67115     -5039.30015        32.90015   -220817.79815
C08  39070047.36915      -113.19815        32.20015     -3571.61915
R10  20384851.36115      1417.70615        31.40015     63176.08815
C36  24221150.64615     -4233.01915        30.20015   -185719.39215
> 2025 05 03 08 17 24.0000000  0 16                      
G20  24375095.27316     -2208.52916        37.30016    -98372.48216
G26  21654239.48216      1175.87316        35.90016     53615.80616
G31  21244797.33315     -1819.58815        35.20015    -80799.40315
G28  21723262.79816     -3417.78116        35.50016   -152989.69716
G25  22382973.79015     -4234.95615        33.30015   -189755.66515
G29  20914134.64615     -2765.52015        33.50015   -123459.01415
G05  23744772.33616       186.76916        38.00016      9354.53016
G18  21572787.67015      1163.21815        31.90015     53170.78015
R09  19133130.90916     -1958.97816        38.20016    -87089.69316
C30  24375701.45316     -4000.75616        35.60016   -179377.10116
C29  21445382.17116     -1530.87616        35.60016    -67879.85716
C13  39038280.16115       264.41915        34.00015     12028.59315
R16  22466641.96715     -5038.33715        32.80015   -225968.54015
C08  39069832.71815      -120.93315        32.20015     -3684.21815
R10  20384343.51315      1415.41615        31.50015     64619.17515
C36  24221722.95015     -4238.00915        30.20015   -189949.06915
> 2025 05 03 08 17 24.9999999  0 16                      
G26  21653767.30916      1172.19216        36.10016     54794.83916
G05  23744486.33416       183.04116        37.00016      9544.65016
G20  24375277.24716     -2212.37416        36.90016   -100577.48116
G31  21244892.66715     -1821.23015        35.10015    -82614.24415
G28  21723663.62115     -3424.83115        35.30015   -156407.26715
G25  22383533.80215     -4237.54515        33.50015   -193986.36715
G29  20914405.05915     -2765.04815        33.40015   -126217.53515
G18  21572316.09615      1157.78015        32.10015     54335.89215
R09  19133240.03426     -1959.26226        37.90026    -89001.29426
C29  21445424.74116     -1526.96816        35.50016    -69401.92216
C30  24376224.59116     -4000.30516        35.60016   -183370.18916
C13  39037983.96615       264.21115        34.00015     12298.88015
R16  22467308.40615     -5034.29015        32.80015   -230857.84615
C08  39069601.27815      -115.33415        32.10015     -3794.73115
R10  20383825.47115      1414.21715        31.80015     66054.67215
C36  24222291.05715     -4236.43415        31.10015   -194180.61415
> 2025 05 03 08 17 26.0000000  0 16                      
G05  23744240.20526       182.68926        36.70026      9733.71326
G26  21653334.40916      1172.87916        36.40016     55973.66616
G28  21724101.01815     -3422.75615        35.20015   -159824.39915
G31  21245039.26515     -1824.13115        35.00015    -84431.38215
G25  22384132.48815     -4234.08215        33.50015   -198215.42815
G29  20914721.93915     -2761.87115        33.30015   -128974.39315
G18  21571895.18815      1158.89515        32.20015     55500.75615
G20  24375490.99916     -2209.20916        36.30016   -102781.39216
R09  19133397.42526     -1963.18526        37.70026    -90947.31626
C30  24376784.60316     -4001.83216        35.70016   -187365.31216
C29  21445508.38316     -1527.57216        35.70016    -70923.79816
C13  39037724.94515       264.47015        34.00015     12569.15015
R16  22468045.29615     -5036.89115        32.80015   -235900.05415
C36  24222896.33815     -4234.67115        31.90015   -198410.61215
R10  20383357.79515      1413.88415        32.10015     67443.60615
C08  39069417.80515      -109.37415        32.10015     -3900.62415
> 2025 05 03 08 17 26.9999999  0 16                      
G05  23743955.70226       184.41426        37.10026      9923.62226
G26  21652861.03616      1171.75316        36.40016     57151.72416
G28  21724507.53615     -3422.28615        35.10015   -163241.02315
G31  21245134.00015     -1821.08915        35.00015    -86247.21015
G25  22384689.50215     -4231.87415        33.50015   -202442.42015
G29  20915000.14715     -2763.28715        33.50015   -131731.59315
G18  21571422.11515      1158.52615        32.40015     56665.34115
G20  24375652.28715     -2211.13115        35.40015   -104986.17115
C30  24377306.84216     -4001.31516        36.60016   -191360.02116
R09  19133523.93726     -1963.75426        37.40026    -92951.36726
C29  21445560.54716     -1531.37116        35.60016    -72448.09516
C13  39037423.65415       264.40915        34.00015     12839.42315
R16  22468738.71615     -5037.22815        32.70015   -240933.05215
C36  24223462.94615     -4239.42215        32.30015   -202643.37715
R10  20382846.64915      1414.02015        32.10015     68842.49315
C08  39069189.36315      -117.15715        32.10015     -4010.11715
> 2025 05 03 08 17 28.0000000  0 16                      
G18  21570986.21715      1159.28415        34.50015     57830.28915
G05  23743708.37326       181.68326        37.30026     10111.94426
G26  21652431.73316      1172.12516        36.30016     58329.72316
G31  21245272.20415     -1825.42015        35.20015    -88065.53615
G28  21724950.63015     -3425.36615        35.40015   -166659.58015
G29  20915320.02515     -2763.62115        33.60015   -134489.17915
G25  22385283.09115     -4233.73415        33.60015   -206670.01315
G20  24375865.73915     -2219.30415        34.60015   -107196.73815
C30  24377868.35316     -4001.26016        36.60016   -195355.83416
R09  19133672.33416     -1962.13716        37.10016    -94849.25116
C13  39037161.63515       264.99115        34.40015     13110.03515
C29  21445644.78916     -1525.77116        35.50016    -73969.51416
C36  24224062.83015     -4236.71015        33.00015   -206872.82315
R16  22469465.71315     -5037.72115        32.70015   -245922.52115
R10  20382367.58115      1411.50215        32.30015     70292.44415
C08  39069003.79115      -116.06115        32.10015     -4120.12715
> 2025 05 03 08 17 29.0000000  0 16                      
G05  23743434.96226       182.59126        37.50026     10300.35426
G18  21570523.33716      1159.00816        37.80016     58995.18616
G26  21651970.65316      1172.25716        36.30016     59507.80416
G31  21245373.23416     -1824.47716        35.70016    -89884.05616
G28  21725363.14416     -3424.04816        35.60016   -170077.89116
G20  24376042.61715     -2212.22415        34.30015   -109404.50215
G25  22385848.50015     -4236.95315        34.00015   -210899.93915
G29  20915606.02715     -2763.39015        33.90015   -137246.72715
C30  24378400.48516     -3996.86916        36.50016   -199348.41816
