NMEA,$GPGGA,105614.000,,,,,0,,,,,,,,*7F,1746701773000
NMEA,$PSAMSA,,,,,,0,,,,,,,,*2D,1746701773000
NMEA,$GPGLL,4503.7517,N,00739.4644,E,105614.000,V,N*4F,1746701773000
NMEA,$GPVTG,0.0,T,,M,0.0,N,0.0,K,N*02,1746701773000
NMEA,$GPGSV,2,1,08,02,19,242,37,08,26,296,40,10,47,132,44,16,78,196,35*7F,1746701773000
NMEA,$GPGSV,2,2,08,18,23,048,28,23,41,068,39,26,49,169,42,27,61,327,38*71,1746701773000
NMEA,$GLGSV,1,1,02,76,28,117,38,86,24,030,39*61,1746701773000
NMEA,$BDGSV,1,1,02,223,48,266,25,234,43,055,35*64,1746701773000
NMEA,$GPRMC,105614.000,V,,,,,,,080525,,,N*40,1746701773000
NMEA,$PSAMCLK,2365,38499200,0,9748415,802196,384992001*7E,1746701773000
NMEA,$PSAMCLK,2365,38499200,0,9748415,802196,384992001*7E,1746701773000
NMEA,$GPGGA,105615.000,,,,,0,,,,,,,,*7E,1746701774000
NMEA,$PSAMSA,,,,,,0,,,,,,,,*2D,1746701774000
NMEA,$GPGLL,4503.7517,N,00739.4644,E,105615.000,V,N*4E,1746701774000
NMEA,$GPVTG,0.0,T,,M,0.0,N,0.0,K,N*02,1746701774000
NMEA,$GPGSV,2,1,08,02,19,242,36,08,26,296,40,10,47,132,44,16,78,196,35*7E,1746701774000
NMEA,$GPGSV,2,2,08,18,23,048,28,23,41,068,39,26,49,169,41,27,61,327,38*72,1746701774000
NMEA,$GLGSV,1,1,02,76,28,117,39,86,24,030,38*61,1746701774000
NMEA,$BDGSV,1,1,02,223,48,266,25,234,43,055,35*64,1746701774000
NMEA,$GPRMC,105615.000,V,,,,,,,080525,,,N*41,1746701774000
NMEA,$PSAMCLK,2365,38499300,0,9748415,864074,384993001*73,1746701774000
NMEA,$PSAMCLK,2365,38499300,0,9748415,864074,384993001*73,1746701774000
NMEA,$GPGGA,105616.000,,,,,0,,,,,,,,*7D,1746701775000
NMEA,$PSAMSA,,,,,,0,,,,,,,,*2D,1746701775000
NMEA,$GPGLL,4503.7517,N,00739.4644,E,105616.000,V,N*4D,1746701775000
NMEA,$GPVTG,0.0,T,,M,0.0,N,0.0,K,N*02,1746701775000
NMEA,$GPGSV,2,1,08,02,19,242,35,08,26,296,38,10,47,132,44,16,78,196,35*72,1746701775000
NMEA,$GPGSV,2,2,08,18,23,048,28,23,41,068,39,26,49,169,41,27,61,327,37*7D,1746701775000
NMEA,$GLGSV,1,1,02,76,28,117,39,86,24,030,38*61,1746701775000
NMEA,$BDGSV,1,1,02,223,48,266,25,234,43,055,35*64,1746701775000
NMEA,$GPRMC,105616.000,V,,,,,,,080525,,,N*42,1746701775000
NMEA,$PSAMCLK,2365,38499400,0,9748415,925952,384994001*7A,1746701775000
NMEA,$PSAMCLK,2365,38499400,0,9748415,925952,384994001*7A,1746701775000
NMEA,$GPGGA,105617.000,,,,,0,,,,,,,,*7C,1746701776000
NMEA,$PSAMSA,,,,,,0,,,,,,,,*2D,1746701776000
NMEA,$GPGLL,4503.7517,N,00739.4644,E,105617.000,V,N*4C,1746701776000
NMEA,$GPVTG,0.0,T,,M,0.0,N,0.0,K,N*02,1746701776000
NMEA,$GPGSV,2,1,08,02,19,242,35,08,26,296,37,10,47,132,44,16,78,196,34*7C,1746701776000
NMEA,$GPGSV,2,2,08,18,23,048,26,23,41,068,38,26,49,169,41,27,61,327,37*72,1746701776000
NMEA,$GLGSV,1,1,02,76,28,117,39,86,24,030,37*6E,1746701776000
NMEA,$BDGSV,1,1,02,223,48,266,24,234,43,055,35*65,1746701776000
NMEA,$GPRMC,105617.000,V,,,,,,,080525,,,N*43,1746701776000
NMEA,$PSAMCLK,2365,38499500,0,9748415,987830,384995001*77,1746701776000
NMEA,$PSAMCLK,2365,38499500,0,9748415,987830,384995001*77,1746701776000
NMEA,$GPGGA,105618.000,,,,,0,,,,,,,,*73,1746701777000
NMEA,$PSAMSA,,,,,,0,,,,,,,,*2D,1746701777000
NMEA,$GPGLL,4503.7517,N,00739.4644,E,105618.000,V,N*43,1746701777000
NMEA,$GPVTG,0.0,T,,M,0.0,N,0.0,K,N*02,1746701777000
NMEA,$GPGSV,2,1,08,02,19,242,34,08,26,296,35,10,47,132,43,16,78,196,34*78,1746701777000
NMEA,$GPGSV,2,2,08,18,23,048,25,23,41,068,37,26,49,169,41,27,61,327,36*7F,1746701777000
NMEA,$GLGSV,1,1,02,76,28,117,39,86,24,030,36*6F,1746701777000
NMEA,$BDGSV,1,1,02,223,48,266,24,234,43,055,35*65,1746701777000
NMEA,$GPRMC,105618.000,V,,,,,,,080525,,,N*4C,1746701777000
NMEA,$PSAMCLK,2365,38499600,0,9748415,1049708,384996001*49,1746701777000
NMEA,$PSAMCLK,2365,38499600,0,9748415,1049708,384996001*49,1746701777000
NMEA,$GPGGA,105619.000,,,,,0,,,,,,,,*72,1746701778000
NMEA,$PSAMSA,,,,,,0,,,,,,,,*2D,1746701778000
NMEA,$GPGLL,4503.7517,N,00739.4644,E,105619.000,V,N*42,1746701778000
NMEA,$GPVTG,0.0,T,,M,0.0,N,0.0,K,N*02,1746701778000
NMEA,$GPGSV,2,1,08,02,19,242,34,08,26,296,34,10,47,132,42,16,78,196,34*78,1746701778000
NMEA,$GPGSV,2,2,08,18,23,048,23,23,41,068,36,26,49,169,40,27,61,327,35*7A,1746701778000
NMEA,$GLGSV,1,1,02,76,28,117,38,86,24,030,35*6D,1746701778000
NMEA,$BDGSV,1,1,02,223,48,266,24,234,43,055,35*65,1746701778000
NMEA,$GPRMC,105619.000,V,,,,,,,080525,,,N*4D,1746701778000
NMEA,$PSAMCLK,2365,38499700,0,9748415,1111587,384997002*43,1746701778000
NMEA,$PSAMCLK,2365,38499700,0,9748415,1111587,384997002*43,1746701778000
NMEA,$GPGGA,105620.000,,,,,0,,,,,,,,*78,1746701779000
NMEA,$PSAMSA,,,,,,0,,,,,,,,*2D,1746701779000
NMEA,$GPGLL,4503.7517,N,00739.4644,E,105620.000,V,N*48,1746701779000
NMEA,$GPVTG,0.0,T,,M,0.0,N,0.0,K,N*02,1746701779000
NMEA,$GPGSV,2,1,08,02,19,242,33,08,26,296,32,10,47,132,42,16,78,196,34*79,1746701779000
NMEA,$GPGSV,2,2,08,18,23,048,22,23,41,068,36,26,49,169,40,27,61,327,34*7A,1746701779000
NMEA,$GLGSV,1,1,02,76,28,117,37,86,24,030,34*63,1746701779000
NMEA,$BDGSV,1,1,02,223,48,266,24,234,43,055,34*64,1746701779000
NMEA,$GPRMC,105620.000,V,,,,,,,080525,,,N*47,1746701779000
NMEA,$PSAMCLK,2365,38499800,0,9748415,1173465,384998002*4A,1746701779000
NMEA,$PSAMCLK,2365,38499800,0,9748415,1173465,384998002*4A,1746701779000
NMEA,$GPGGA,105621.000,,,,,0,,,,,,,,*79,1746701780000
NMEA,$PSAMSA,,,,,,0,,,,,,,,*2D,1746701780000
NMEA,$GPGLL,4503.7517,N,00739.4644,E,105621.000,V,N*49,1746701780000
NMEA,$GPVTG,0.0,T,,M,0.0,N,0.0,K,N*02,1746701780000
NMEA,$GPGSV,2,1,08,02,19,242,32,08,26,296,31,10,47,132,41,16,78,196,34*78,1746701780000
NMEA,$GPGSV,2,2,08,18,23,048,20,23,41,068,35,26,49,169,40,27,61,327,33*7C,1746701780000
NMEA,$GLGSV,1,1,02,76,28,117,36,86,24,030,33*65,1746701780000
NMEA,$BDGSV,1,1,02,223,48,266,23,234,43,055,34*63,1746701780000
NMEA,$GPRMC,105621.000,V,,,,,,,080525,,,N*46,1746701780000
NMEA,$PSAMCLK,2365,38499900,0,9748415,1235343,384999002*48,1746701780000
NMEA,$PSAMCLK,2365,38499900,0,9748415,1235343,384999002*48,1746701780000
NMEA,$GPGGA,105622.000,,,,,0,,,,,,,,*7A,1746701781000
NMEA,$PSAMSA,,,,,,0,,,,,,,,*2D,1746701781000
NMEA,$GPGLL,4503.7517,N,00739.4644,E,105622.000,V,N*4A,1746701781000
NMEA,$GPVTG,0.0,T,,M,0.0,N,0.0,K,N*02,1746701781000
NMEA,$GPGSV,2,1,08,02,19,242,32,08,26,296,29,10,47,132,40,16,78,196,34*70,1746701781000
NMEA,$GPGSV,2,2,08,18,23,048,19,23,41,068,35,26,49,169,40,27,61,327,33*76,1746701781000
NMEA,$GLGSV,1,1,02,76,28,117,35,86,24,030,32*67,1746701781000
NMEA,$BDGSV,1,1,02,223,48,266,23,234,43,055,33*64,1746701781000
NMEA,$GPRMC,105622.000,V,,,,,,,080525,,,N*45,1746701781000
NMEA,$PSAMCLK,2365,38500000,0,9748415,1297221,385000002*45,1746701781000
NMEA,$PSAMCLK,2365,38500000,0,9748415,1297221,385000002*45,1746701781000
NMEA,$GPGGA,105623.000,,,,,0,,,,,,,,*7B,1746701782000
NMEA,$PSAMSA,,,,,,0,,,,,,,,*2D,1746701782000
NMEA,$GPGLL,4503.7517,N,00739.4644,E,105623.000,V,N*4B,1746701782000
NMEA,$GPVTG,0.0,T,,M,0.0,N,0.0,K,N*02,1746701782000
NMEA,$GPGSV,2,1,08,02,19,242,31,08,26,296,28,10,47,132,40,16,78,196,34*72,1746701782000
NMEA,$GPGSV,2,2,08,18,23,048,17,23,41,068,34,26,49,169,39,27,61,327,32*76,1746701782000
NMEA,$GLGSV,1,1,02,76,28,117,34,86,24,030,32*66,1746701782000
NMEA,$BDGSV,1,1,02,223,48,266,23,234,43,055,33*64,1746701782000
NMEA,$GPRMC,105623.000,V,,,,,,,080525,,,N*44,1746701782000
NMEA,$PSAMCLK,2365,38500100,0,9748415,1359099,385001002*47,1746701782000
NMEA,$PSAMCLK,2365,38500100,0,9748415,1359099,385001002*47,1746701782000
NMEA,$GPGGA,105624.000,,,,,0,,,,,,,,*7C,1746701783000
NMEA,$PSAMSA,,,,,,0,,,,,,,,*2D,1746701783000
NMEA,$GPGLL,4503.7517,N,00739.4644,E,105624.000,V,N*4C,1746701783000
NMEA,$GPVTG,0.0,T,,M,0.0,N,0.0,K,N*02,1746701783000
NMEA,$GPGSV,2,1,08,02,19,242,31,08,26,296,26,10,47,132,39,16,78,196,33*75,1746701783000
NMEA,$GPGSV,2,2,08,18,23,048,16,23,41,068,34,26,49,169,39,27,61,327,32*77,1746701783000
NMEA,$GLGSV,1,1,02,76,28,117,33,86,24,030,31*62,1746701783000
NMEA,$BDGSV,1,1,02,223,48,266,22,234,43,055,32*64,1746701783000
NMEA,$GPRMC,105624.000,V,,,,,,,080525,,,N*43,1746701783000
NMEA,$PSAMCLK,2365,38500200,0,9748415,1420978,385002002*48,1746701783000
NMEA,$PSAMCLK,2365,38500200,0,9748415,1420978,385002002*48,1746701783000
NMEA,$GPGGA,105625.000,,,,,0,,,,,,,,*7D,1746701784000
NMEA,$PSAMSA,,,,,,0,,,,,,,,*2D,1746701784000
NMEA,$GPGLL,4503.7517,N,00739.4644,E,105625.000,V,N*4D,1746701784000
NMEA,$GPVTG,0.0,T,,M,0.0,N,0.0,K,N*02,1746701784000
NMEA,$GPGSV,2,1,08,02,19,242,30,08,26,296,25,10,47,132,39,16,78,196,33*77,1746701784000
NMEA,$GPGSV,2,2,08,18,23,048,14,23,41,068,33,26,49,169,39,27,61,327,31*71,1746701784000
NMEA,$GLGSV,1,1,02,76,28,117,33,86,24,030,31*62,1746701784000
NMEA,$BDGSV,1,1,02,223,48,266,22,234,43,055,32*64,1746701784000
NMEA,$GPRMC,105625.000,V,,,,,,,080525,,,N*42,1746701784000
NMEA,$PSAMCLK,2365,38500300,0,9748415,1482856,385003002*4D,1746701784000
NMEA,$PSAMCLK,2365,38500300,0,9748415,1482856,385003002*4D,1746701784000
NMEA,$GPGGA,105626.000,,,,,0,,,,,,,,*7E,1746701785000
NMEA,$PSAMSA,,,,,,0,,,,,,,,*2D,1746701785000
NMEA,$GPGLL,4503.7517,N,00739.4644,E,105626.000,V,N*4E,1746701785000
NMEA,$GPVTG,0.0,T,,M,0.0,N,0.0,K,N*02,1746701785000
NMEA,$GPGSV,2,1,08,02,19,242,30,08,26,296,23,10,47,132,38,16,78,196,33*70,1746701785000
NMEA,$GPGSV,2,2,08,18,23,048,14,23,41,068,33,26,49,169,39,27,61,327,31*71,1746701785000
NMEA,$GLGSV,1,1,02,76,28,117,33,86,24,030,30*63,1746701785000
NMEA,$BDGSV,1,1,02,223,48,266,22,234,43,055,31*67,1746701785000
NMEA,$GPRMC,105626.000,V,,,,,,,080525,,,N*41,1746701785000
NMEA,$PSAMCLK,2365,38500400,0,9748415,1544734,385004002*4D,1746701785000
NMEA,$PSAMCLK,2365,38500400,0,9748415,1544734,385004002*4D,1746701785000
NMEA,$GPGGA,105627.000,,,,,0,,,,,,,,*7F,1746701786000
NMEA,$PSAMSA,,,,,,0,,,,,,,,*2D,1746701786000
NMEA,$GPGLL,4503.7517,N,00739.4644,E,105627.000,V,N*4F,1746701786000
NMEA,$GPVTG,0.0,T,,M,0.0,N,0.0,K,N*02,1746701786000
NMEA,$GPGSV,2,1,08,02,19,242,29,08,26,296,22,10,47,132,38,16,78,196,33*79,1746701786000
NMEA,$GPGSV,2,2,08,18,23,048,13,23,41,068,32,26,49,169,39,27,61,327,30*76,1746701786000
NMEA,$GLGSV,1,1,02,76,28,117,36,86,24,030,30*66,1746701786000
NMEA,$BDGSV,1,1,02,223,48,266,21,234,43,055,31*64,1746701786000
NMEA,$GPRMC,105627.000,V,,,,,,,080525,,,N*40,1746701786000
NMEA,$PSAMCLK,2365,38500500,0,9748415,1606612,385005002*4D,1746701786000
NMEA,$PSAMCLK,2365,38500500,0,9748415,1606612,385005002*4D,1746701786000
NMEA,$GPGGA,105628.000,,,,,0,,,,,,,,*70,1746701787000
NMEA,$PSAMSA,,,,,,0,,,,,,,,*2D,1746701787000
NMEA,$GPGLL,4503.7517,N,00739.4644,E,105628.000,V,N*40,1746701787000
NMEA,$GPVTG,0.0,T,,M,0.0,N,0.0,K,N*02,1746701787000
NMEA,$GPGSV,2,1,08,02,19,242,29,08,26,296,20,10,47,132,38,16,78,196,33*7B,1746701787000
NMEA,$GPGSV,2,2,08,18,23,048,12,23,41,068,32,26,49,169,38,27,61,327,30*76,1746701787000
NMEA,$GLGSV,1,1,02,76,28,117,36,86,24,030,29*6E,1746701787000
NMEA,$BDGSV,1,1,02,223,48,266,20,234,43,055,30*64,1746701787000
NMEA,$GPRMC,105628.000,V,,,,,,,080525,,,N*4F,1746701787000
NMEA,$PSAMCLK,2365,38500600,0,9748415,1668490,385006002*4D,1746701787000
NMEA,$PSAMCLK,2365,38500600,0,9748415,1668490,385006002*4D,1746701787000
NMEA,$GPGGA,105629.000,,,,,0,,,,,,,,*71,1746701788000
NMEA,$PSAMSA,,,,,,0,,,,,,,,*2D,1746701788000
NMEA,$GPGLL,4503.7517,N,00739.4644,E,105629.000,V,N*41,1746701788000
NMEA,$GPVTG,0.0,T,,M,0.0,N,0.0,K,N*02,1746701788000
NMEA,$GPGSV,2,1,07,02,19,242,29,08,26,296,19,10,47,132,37,16,78,196,33*71,1746701788000
NMEA,$GPGSV,2,2,07,23,41,068,32,26,49,169,38,27,61,327,30*4E,1746701788000
NMEA,$GLGSV,1,1,02,76,28,117,36,86,24,030,29*6E,1746701788000
NMEA,$BDGSV,1,1,02,223,48,266,18,234,43,055,30*6F,1746701788000
NMEA,$GPRMC,105629.000,V,,,,,,,080525,,,N*4E,1746701788000
NMEA,$PSAMCLK,2365,38500700,0,9748415,1730369,385007002*40,1746701788000
NMEA,$PSAMCLK,2365,38500700,0,9748415,1730369,385007002*40,1746701788000
NMEA,$GPGGA,105630.000,,,,,0,,,,,,,,*79,1746701789000
NMEA,$PSAMSA,,,,,,0,,,,,,,,*2D,1746701789000
NMEA,$GPGLL,4503.7517,N,00739.4644,E,105630.000,V,N*49,1746701789000
NMEA,$GPVTG,0.0,T,,M,0.0,N,0.0,K,N*02,1746701789000
NMEA,$GPGSV,2,1,07,02,19,242,28,08,26,296,17,10,47,132,37,16,78,196,33*7E,1746701789000
NMEA,$GPGSV,2,2,07,23,41,068,31,26,49,169,38,27,61,327,30*4D,1746701789000
NMEA,$GLGSV,1,1,02,76,28,117,36,86,24,030,29*6E,1746701789000
NMEA,$BDGSV,1,1,02,223,48,266,17,234,43,055,30*60,1746701789000
NMEA,$GPRMC,105630.000,V,,,,,,,080525,,,N*46,1746701789000
NMEA,$PSAMCLK,2365,38500800,0,9748415,1792247,385008002*45,1746701789000
NMEA,$PSAMCLK,2365,38500800,0,9748415,1792247,385008002*45,1746701789000
NMEA,$GPGGA,105631.000,,,,,0,,,,,,,,*78,1746701790000
NMEA,$PSAMSA,,,,,,0,,,,,,,,*2D,1746701790000
NMEA,$GPGLL,4503.7517,N,00739.4644,E,105631.000,V,N*48,1746701790000
NMEA,$GPVTG,0.0,T,,M,0.0,N,0.0,K,N*02,1746701790000
NMEA,$GPGSV,2,1,07,02,19,242,28,08,26,296,16,10,47,132,36,16,78,196,33*7E,1746701790000
NMEA,$GPGSV,2,2,07,23,41,068,31,26,49,169,38,27,61,327,29*45,1746701790000
NMEA,$GLGSV,1,1,02,76,28,117,36,86,24,030,28*6F,1746701790000
NMEA,$BDGSV,1,1,02,223,48,266,15,234,43,055,30*62,1746701790000
NMEA,$GPRMC,105631.000,V,,,,,,,080525,,,N*47,1746701790000
NMEA,$PSAMCLK,2365,38500900,0,9748415,1854125,385009002*47,1746701790000
NMEA,$PSAMCLK,2365,38500900,0,9748415,1854125,385009002*47,1746701790000
NMEA,$GPGGA,105632.000,,,,,0,,,,,,,,*7B,1746701791000
NMEA,$PSAMSA,,,,,,0,,,,,,,,*2D,1746701791000
NMEA,$GPGLL,4503.7517,N,00739.4644,E,105632.000,V,N*4B,1746701791000
NMEA,$GPVTG,0.0,T,,M,0.0,N,0.0,K,N*02,1746701791000
NMEA,$GPGSV,2,1,07,02,19,242,28,08,26,296,14,10,47,132,36,16,78,196,32*7D,1746701791000
NMEA,$GPGSV,2,2,07,23,41,068,31,26,49,169,38,27,61,327,29*45,1746701791000
NMEA,$GLGSV,1,1,02,76,28,117,36,86,24,030,28*6F,1746701791000
NMEA,$BDGSV,1,1,02,223,48,266,14,234,43,055,29*6B,1746701791000
NMEA,$GPRMC,105632.000,V,,,,,,,080525,,,N*44,1746701791000
NMEA,$PSAMCLK,2365,38501000,0,9748415,1916003,385010002*45,1746701791000
NMEA,$PSAMCLK,2365,38501000,0,9748415,1916003,385010002*45,1746701791000
NMEA,$GPGGA,105633.000,,,,,0,,,,,,,,*7A,1746701792000
NMEA,$PSAMSA,,,,,,0,,,,,,,,*2D,1746701792000
NMEA,$GPGLL,4503.7517,N,00739.4644,E,105633.000,V,N*4A,1746701792000
NMEA,$GPVTG,0.0,T,,M,0.0,N,0.0,K,N*02,1746701792000
NMEA,$GPGSV,2,1,07,02,19,242,27,08,26,296,13,10,47,132,36,16,78,196,32*75,1746701792000
NMEA,$GPGSV,2,2,07,23,41,068,31,26,49,169,38,27,61,327,29*45,1746701792000
NMEA,$GLGSV,1,1,02,76,28,117,36,86,24,030,27*60,1746701792000
NMEA,$BDGSV,1,1,02,223,48,266,13,234,43,055,29*6C,1746701792000
NMEA,$GPRMC,105633.000,V,,,,,,,080525,,,N*45,1746701792000
NMEA,$PSAMCLK,2365,38501100,0,9748415,1977881,385011002*40,1746701792000
NMEA,$PSAMCLK,2365,38501100,0,9748415,1977881,385011002*40,1746701792000
NMEA,$GPGGA,105634.000,,,,,0,,,,,,,,*7D,1746701793000
NMEA,$PSAMSA,,,,,,0,,,,,,,,*2D,1746701793000
NMEA,$GPGLL,4503.7517,N,00739.4644,E,105634.000,V,N*4D,1746701793000
NMEA,$GPVTG,0.0,T,,M,0.0,N,0.0,K,N*02,1746701793000
NMEA,$GPGSV,2,1,07,02,19,242,27,08,26,296,13,10,47,132,36,16,78,196,32*75,1746701793000
NMEA,$GPGSV,2,2,07,23,41,068,30,26,49,169,37,27,61,327,29*4B,1746701793000
NMEA,$GLGSV,1,1,02,76,28,117,37,86,24,030,27*61,1746701793000
NMEA,$BDGSV,1,1,03,211,63,021,36,223,48,266,13,234,43,055,29*6C,1746701793000
NMEA,$GPRMC,105634.000,V,,,,,,,080525,,,N*42,1746701793000
NMEA,$PSAMCLK,2365,38501200,0,9748415,2039760,385012002*40,1746701793000
NMEA,$PSAMCLK,2365,38501200,0,9748415,2039760,385012002*40,1746701793000
NMEA,$GPGGA,105635.000,,,,,0,,,,,,,,*7C,1746701794000
NMEA,$PSAMSA,,,,,,0,,,,,,,,*2D,1746701794000
NMEA,$GPGLL,4503.7517,N,00739.4644,E,105635.000,V,N*4C,1746701794000
NMEA,$GPVTG,0.0,T,,M,0.0,N,0.0,K,N*02,1746701794000
NMEA,$GPGSV,2,1,07,02,19,242,27,08,26,296,12,10,47,132,35,16,78,196,32*77,1746701794000
NMEA,$GPGSV,2,2,07,23,41,068,30,26,49,169,37,27,61,327,29*4B,1746701794000
NMEA,$GLGSV,1,1,02,76,28,117,37,86,24,030,27*61,1746701794000
NMEA,$BDGSV,1,1,02,211,63,021,38,234,43,055,29*6C,1746701794000
NMEA,$GPRMC,105635.000,V,,,,,,,080525,,,N*43,1746701794000
NMEA,$PSAMCLK,2365,38501300,0,9748415,2101638,385013003*47,1746701794000
NMEA,$PSAMCLK,2365,38501300,0,9748415,2101638,385013003*47,1746701794000
NMEA,$GPGGA,105636.000,,,,,0,,,,,,,,*7F,1746701795000
NMEA,$PSAMSA,,,,,,0,,,,,,,,*2D,1746701795000
NMEA,$GPGLL,4503.7517,N,00739.4644,E,105636.000,V,N*4F,1746701795000
NMEA,$GPVTG,0.0,T,,M,0.0,N,0.0,K,N*02,1746701795000
NMEA,$GPGSV,2,1,06,02,19,242,27,10,47,132,35,16,78,196,32,23,41,068,30*7D,1746701795000
NMEA,$GPGSV,2,2,06,26,49,169,37,27,61,327,29*73,1746701795000
NMEA,$GLGSV,1,1,02,76,28,117,37,86,24,030,26*60,1746701795000
NMEA,$BDGSV,1,1,02,211,63,021,38,234,43,055,29*6C,1746701795000
NMEA,$GPRMC,105636.000,V,,,,,,,080525,,,N*40,1746701795000
NMEA,$PSAMCLK,2365,38501400,0,9748415,2163516,385014003*4C,1746701795000
NMEA,$PSAMCLK,2365,38501400,0,9748415,2163516,385014003*4C,1746701795000
NMEA,$GPGGA,105637.000,,,,,0,,,,,,,,*7E,1746701796000
NMEA,$PSAMSA,,,,,,0,,,,,,,,*2D,1746701796000
NMEA,$GPGLL,4503.7517,N,00739.4644,E,105637.000,V,N*4E,1746701796000
NMEA,$GPVTG,0.0,T,,M,0.0,N,0.0,K,N*02,1746701796000
NMEA,$GPGSV,2,1,06,02,19,242,26,10,47,132,35,16,78,196,32,23,41,068,30*7C,1746701796000
NMEA,$GPGSV,2,2,06,26,49,169,37,27,61,327,29*73,1746701796000
NMEA,$GLGSV,1,1,02,76,28,117,37,86,24,030,26*60,1746701796000
NMEA,$BDGSV,1,1,02,211,63,021,38,234,43,055,28*6D,1746701796000
NMEA,$GPRMC,105637.000,V,,,,,,,080525,,,N*41,1746701796000
NMEA,$PSAMCLK,2365,38501500,0,9748415,2225394,385015003*41,1746701796000
NMEA,$PSAMCLK,2365,38501500,0,9748415,2225394,385015003*41,1746701796000
NMEA,$GPGGA,105638.000,,,,,0,,,,,,,,*71,1746701797000
NMEA,$PSAMSA,,,,,,0,,,,,,,,*2D,1746701797000
NMEA,$GPGLL,4503.7517,N,00739.4644,E,105638.000,V,N*41,1746701797000
NMEA,$GPVTG,0.0,T,,M,0.0,N,0.0,K,N*02,1746701797000
NMEA,$GPGSV,2,1,06,02,19,242,26,10,47,132,35,16,78,196,32,23,41,068,30*7C,1746701797000
NMEA,$GPGSV,2,2,06,26,49,169,37,27,61,327,29*73,1746701797000
NMEA,$GLGSV,1,1,02,76,28,117,37,86,24,030,26*60,1746701797000
NMEA,$BDGSV,1,1,02,211,63,021,39,234,43,055,28*6C,1746701797000
NMEA,$GPRMC,105638.000,V,,,,,,,080525,,,N*4E,1746701797000
NMEA,$PSAMCLK,2365,38501600,0,9748415,2287272,385016003*40,1746701797000
NMEA,$PSAMCLK,2365,38501600,0,9748415,2287272,385016003*40,1746701797000
NMEA,$GPGGA,105639.000,,,,,0,,,,,,,,*70,1746701798000
NMEA,$PSAMSA,,,,,,0,,,,,,,,*2D,1746701798000
NMEA,$GPGLL,4503.7517,N,00739.4644,E,105639.000,V,N*40,1746701798000
NMEA,$GPVTG,0.0,T,,M,0.0,N,0.0,K,N*02,1746701798000
NMEA,$GPGSV,2,1,06,02,19,242,26,10,47,132,34,16,78,196,32,23,41,068,30*7D,1746701798000
NMEA,$GPGSV,2,2,06,26,49,169,36,27,61,327,29*72,1746701798000
NMEA,$GLGSV,1,1,02,76,28,117,37,86,24,030,26*60,1746701798000
NMEA,$BDGSV,1,1,02,211,63,021,39,234,43,055,28*6C,1746701798000
NMEA,$GPRMC,105639.000,V,,,,,,,080525,,,N*4F,1746701798000
NMEA,$PSAMCLK,2365,38501700,0,9748415,2349151,385017003*41,1746701798000
NMEA,$PSAMCLK,2365,38501700,0,9748415,2349151,385017003*41,1746701798000
NMEA,$GPGGA,105640.000,,,,,0,,,,,,,,*7E,1746701799000
NMEA,$PSAMSA,,,,,,0,,,,,,,,*2D,1746701799000
NMEA,$GPGLL,4503.7517,N,00739.4644,E,105640.000,V,N*4E,1746701799000
NMEA,$GPVTG,0.0,T,,M,0.0,N,0.0,K,N*02,1746701799000
NMEA,$GPGSV,2,1,06,02,19,242,26,10,47,132,34,16,78,196,32,23,41,068,30*7D,1746701799000
NMEA,$GPGSV,2,2,06,26,49,169,36,27,61,327,28*73,1746701799000
NMEA,$GLGSV,1,1,02,76,28,117,37,86,24,030,25*63,1746701799000
NMEA,$BDGSV,1,1,02,211,63,021,39,234,43,055,28*6C,1746701799000
NMEA,$GPRMC,105640.000,V,,,,,,,080525,,,N*41,1746701799000
NMEA,$PSAMCLK,2365,38501800,0,9748415,2411029,385018003*45,1746701799000
NMEA,$PSAMCLK,2365,38501800,0,9748415,2411029,385018003*45,1746701799000
NMEA,$GPGGA,105641.000,,,,,0,,,,,,,,*7F,1746701800000
NMEA,$PSAMSA,,,,,,0,,,,,,,,*2D,1746701800000
NMEA,$GPGLL,4503.7517,N,00739.4644,E,105641.000,V,N*4F,1746701800000
NMEA,$GPVTG,0.0,T,,M,0.0,N,0.0,K,N*02,1746701800000
NMEA,$GPGSV,2,1,06,02,19,242,26,10,47,132,34,16,78,196,32,23,41,068,30*7D,1746701800000
NMEA,$GPGSV,2,2,06,26,49,169,36,27,61,327,28*73,1746701800000
NMEA,$GLGSV,1,1,02,76,28,117,37,86,24,030,25*63,1746701800000
NMEA,$BDGSV,1,1,02,211,63,021,39,234,43,055,28*6C,1746701800000
NMEA,$GPRMC,105641.000,V,,,,,,,080525,,,N*40,1746701800000
NMEA,$PSAMCLK,2365,38501900,0,9748415,2472907,385019003*45,1746701800000
NMEA,$PSAMCLK,2365,38501900,0,9748415,2472907,385019003*45,1746701800000
NMEA,$GPGGA,105642.000,,,,,0,,,,,,,,*7C,1746701801000
NMEA,$PSAMSA,,,,,,0,,,,,,,,*2D,1746701801000
NMEA,$GPGLL,4503.7517,N,00739.4644,E,105642.000,V,N*4C,1746701801000
NMEA,$GPVTG,0.0,T,,M,0.0,N,0.0,K,N*02,1746701801000
NMEA,$GPGSV,2,1,06,02,19,242,26,10,47,132,34,16,78,196,32,23,41,068,30*7D,1746701801000
NMEA,$GPGSV,2,2,06,26,49,169,36,27,61,327,28*73,1746701801000
NMEA,$GLGSV,1,1,02,76,28,117,37,86,24,030,25*63,1746701801000
NMEA,$BDGSV,1,1,02,211,63,021,39,234,43,055,28*6C,1746701801000
NMEA,$GPRMC,105642.000,V,,,,,,,080525,,,N*43,1746701801000
NMEA,$PSAMCLK,2365,38502000,0,9748415,2534785,385020003*42,1746701801000
NMEA,$PSAMCLK,2365,38502000,0,9748415,2534785,385020003*42,1746701801000
NMEA,$GPGGA,105643.000,,,,,0,,,,,,,,*7D,1746701802000
NMEA,$PSAMSA,,,,,,0,,,,,,,,*2D,1746701802000
NMEA,$GPGLL,4503.7517,N,00739.4644,E,105643.000,V,N*4D,1746701802000
NMEA,$GPVTG,0.0,T,,M,0.0,N,0.0,K,N*02,1746701802000
NMEA,$GPGSV,2,1,06,02,19,242,26,10,47,132,34,16,78,196,32,23,41,068,30*7D,1746701802000
NMEA,$GPGSV,2,2,06,26,49,169,36,27,61,327,28*73,1746701802000
NMEA,$GLGSV,1,1,02,76,28,117,37,86,24,030,30*67,1746701802000
NMEA,$BDGSV,1,1,02,211,63,021,39,234,43,055,28*6C,1746701802000
NMEA,$GPRMC,105643.000,V,,,,,,,080525,,,N*42,1746701802000
NMEA,$PSAMCLK,2365,38502100,0,9748415,2596663,385021003*43,1746701802000
NMEA,$PSAMCLK,2365,38502100,0,9748415,2596663,385021003*43,1746701802000
NMEA,$GPGGA,105644.000,,,,,0,,,,,,,,*7A,1746701803000
NMEA,$PSAMSA,,,,,,0,,,,,,,,*2D,1746701803000
NMEA,$GPGLL,4503.7517,N,00739.4644,E,105644.000,V,N*4A,1746701803000
NMEA,$GPVTG,0.0,T,,M,0.0,N,0.0,K,N*02,1746701803000
NMEA,$GPGSV,2,1,06,02,19,242,26,10,47,132,33,16,78,196,31,23,41,068,29*71,1746701803000
NMEA,$GPGSV,2,2,06,26,49,169,34,27,61,327,29*70,1746701803000
NMEA,$GLGSV,1,1,02,76,28,117,37,86,24,030,32*65,1746701803000
NMEA,$BDGSV,1,1,02,211,63,021,39,234,43,055,28*6C,1746701803000
NMEA,$GPRMC,105644.000,V,,,,,,,080525,,,N*45,1746701803000
NMEA,$PSAMCLK,2365,38502200,0,9748415,2658542,385022003*42,1746701803000
NMEA,$PSAMCLK,2365,38502200,0,9748415,2658542,385022003*42,1746701803000
NMEA,$GPGGA,105645.000,,,,,0,,,,,,,,*7B,1746701804000
NMEA,$PSAMSA,,,,,,0,,,,,,,,*2D,1746701804000
NMEA,$GPGLL,4503.7517,N,00739.4644,E,105645.000,V,N*4B,1746701804000
NMEA,$GPVTG,0.0,T,,M,0.0,N,0.0,K,N*02,1746701804000
NMEA,$GPGSV,2,1,06,02,19,242,26,10,47,132,33,16,78,196,31,23,41,068,29*71,1746701804000
NMEA,$GPGSV,2,2,06,26,49,169,34,27,61,327,29*70,1746701804000
NMEA,$GLGSV,1,1,02,76,28,117,37,86,24,030,32*65,1746701804000
NMEA,$BDGSV,1,1,02,211,63,021,39,234,43,055,28*6C,1746701804000
NMEA,$GPRMC,105645.000,V,,,,,,,080525,,,N*44,1746701804000
NMEA,$PSAMCLK,2365,38502300,0,9748415,2720420,385023003*49,1746701804000
NMEA,$PSAMCLK,2365,38502300,0,9748415,2720420,385023003*49,1746701804000
NMEA,$GPGGA,105646.000,,,,,0,,,,,,,,*78,1746701805000
NMEA,$PSAMSA,,,,,,0,,,,,,,,*2D,1746701805000
NMEA,$GPGLL,4503.7517,N,00739.4644,E,105646.000,V,N*48,1746701805000
NMEA,$GPVTG,0.0,T,,M,0.0,N,0.0,K,N*02,1746701805000
NMEA,$GPGSV,2,1,06,02,19,242,26,10,47,132,33,16,78,196,31,23,41,068,29*71,1746701805000
NMEA,$GPGSV,2,2,06,26,49,169,33,27,61,327,29*77,1746701805000
NMEA,$GLGSV,1,1,02,76,28,117,37,86,24,030,32*65,1746701805000
NMEA,$BDGSV,1,1,02,211,63,021,39,234,43,055,28*6C,1746701805000
NMEA,$GPRMC,105646.000,V,,,,,,,080525,,,N*47,1746701805000
NMEA,$PSAMCLK,2365,38502400,0,9748415,2782298,385024003*44,1746701805000
NMEA,$PSAMCLK,2365,38502400,0,9748415,2782298,385024003*44,1746701805000
NMEA,$GPGGA,105647.000,,,,,0,,,,,,,,*79,1746701806000
NMEA,$PSAMSA,,,,,,0,,,,,,,,*2D,1746701806000
NMEA,$GPGLL,4503.7517,N,00739.4644,E,105647.000,V,N*49,1746701806000
NMEA,$GPVTG,0.0,T,,M,0.0,N,0.0,K,N*02,1746701806000
NMEA,$GPGSV,2,1,06,02,19,242,26,10,47,132,33,16,78,196,31,23,41,068,29*71,1746701806000
NMEA,$GPGSV,2,2,06,26,49,169,33,27,61,327,29*77,1746701806000
NMEA,$GLGSV,1,1,02,76,28,117,37,86,24,030,32*65,1746701806000
NMEA,$BDGSV,1,1,02,211,63,021,39,234,43,055,28*6C,1746701806000
NMEA,$GPRMC,105647.000,V,,,,,,,080525,,,N*46,1746701806000
NMEA,$PSAMCLK,2365,38502500,0,9748415,2844176,385025003*42,1746701806000
NMEA,$PSAMCLK,2365,38502500,0,9748415,2844176,385025003*42,1746701806000
NMEA,$GPGGA,105648.000,,,,,0,,,,,,,,*76,1746701807000
NMEA,$PSAMSA,,,,,,0,,,,,,,,*2D,1746701807000
NMEA,$GPGLL,4503.7517,N,00739.4644,E,105648.000,V,N*46,1746701807000
NMEA,$GPVTG,0.0,T,,M,0.0,N,0.0,K,N*02,1746701807000
NMEA,$GPGSV,2,1,06,02,19,242,26,10,47,132,33,16,78,196,31,23,41,068,29*71,1746701807000
NMEA,$GPGSV,2,2,06,26,49,169,33,27,61,327,29*77,1746701807000
NMEA,$GLGSV,1,1,02,76,28,117,37,86,24,030,32*65,1746701807000
NMEA,$BDGSV,1,1,02,211,63,021,39,234,43,055,28*6C,1746701807000
NMEA,$GPRMC,105648.000,V,,,,,,,080525,,,N*49,1746701807000
NMEA,$PSAMCLK,2365,38502600,0,9748415,2906054,385026003*44,1746701807000
NMEA,$PSAMCLK,2365,38502600,0,9748415,2906054,385026003*44,1746701807000
NMEA,$GPGGA,105649.000,,,,,0,,,,,,,,*77,1746701808000
NMEA,$PSAMSA,,,,,,0,,,,,,,,*2D,1746701808000
NMEA,$GPGLL,4503.7517,N,00739.4644,E,105649.000,V,N*47,1746701808000
NMEA,$GPVTG,0.0,T,,M,0.0,N,0.0,K,N*02,1746701808000
NMEA,$GPGSV,2,1,06,02,19,242,25,10,47,132,33,16,78,196,31,23,41,068,29*72,1746701808000
NMEA,$GPGSV,2,2,06,26,49,169,33,27,61,327,29*77,1746701808000
NMEA,$GLGSV,1,1,02,76,28,117,37,86,24,030,31*66,1746701808000
NMEA,$BDGSV,1,1,02,211,63,021,39,234,43,055,28*6C,1746701808000
NMEA,$GPRMC,105649.000,V,,,,,,,080525,,,N*48,1746701808000
NMEA,$PSAMCLK,2365,38502700,0,9748415,2967933,385027003*4B,1746701808000
NMEA,$PSAMCLK,2365,38502700,0,9748415,2967933,385027003*4B,1746701808000
NMEA,$GPGGA,105650.000,,,,,0,,,,,,,,*7F,1746701809000
NMEA,$PSAMSA,,,,,,0,,,,,,,,*2D,1746701809000
NMEA,$GPGLL,4503.7517,N,00739.4644,E,105650.000,V,N*4F,1746701809000
NMEA,$GPVTG,0.0,T,,M,0.0,N,0.0,K,N*02,1746701809000
NMEA,$GPGSV,2,1,06,02,19,242,25,10,47,132,33,16,78,196,31,23,41,068,29*72,1746701809000
NMEA,$GPGSV,2,2,06,26,49,169,33,27,61,327,29*77,1746701809000
NMEA,$GLGSV,1,1,02,76,28,117,37,86,24,030,31*66,1746701809000
NMEA,$BDGSV,1,1,02,211,63,021,39,234,43,055,28*6C,1746701809000
NMEA,$GPRMC,105650.000,V,,,,,,,080525,,,N*40,1746701809000
NMEA,$PSAMCLK,2365,38502800,0,9748415,3029811,385028003*48,1746701809000
NMEA,$PSAMCLK,2365,38502800,0,9748415,3029811,385028003*48,1746701809000
NMEA,$GPGGA,105651.000,,,,,0,,,,,,,,*7E,1746701810000
NMEA,$PSAMSA,,,,,,0,,,,,,,,*2D,1746701810000
NMEA,$GPGLL,4503.7517,N,00739.4644,E,105651.000,V,N*4E,1746701810000
NMEA,$GPVTG,0.0,T,,M,0.0,N,0.0,K,N*02,1746701810000
NMEA,$GPGSV,2,1,06,02,19,242,25,10,47,132,33,16,78,196,31,23,41,068,29*72,1746701810000
NMEA,$GPGSV,2,2,06,26,49,169,33,27,61,327,30*7F,1746701810000
NMEA,$GLGSV,1,1,02,76,28,117,37,86,23,030,31*61,1746701810000
NMEA,$BDGSV,1,1,02,211,63,021,39,234,43,055,28*6C,1746701810000
NMEA,$GPRMC,105651.000,V,,,,,,,080525,,,N*41,1746701810000
NMEA,$PSAMCLK,2365,38502900,0,9748415,3091689,385029004*43,1746701810000
NMEA,$PSAMCLK,2365,38502900,0,9748415,3091689,385029004*43,1746701810000
NMEA,$GPGGA,105652.000,,,,,0,,,,,,,,*7D,1746701811000
NMEA,$PSAMSA,,,,,,0,,,,,,,,*2D,1746701811000
NMEA,$GPGLL,4503.7517,N,00739.4644,E,105652.000,V,N*4D,1746701811000
NMEA,$GPVTG,0.0,T,,M,0.0,N,0.0,K,N*02,1746701811000
NMEA,$GPGSV,2,1,06,02,19,242,25,10,47,132,33,16,78,196,31,23,41,068,29*72,1746701811000
NMEA,$GPGSV,2,2,06,26,49,169,33,27,61,327,30*7F,1746701811000
NMEA,$GLGSV,1,1,02,76,28,117,37,86,23,030,31*61,1746701811000
NMEA,$BDGSV,1,1,02,211,63,021,38,234,43,055,28*6D,1746701811000
NMEA,$GPRMC,105652.000,V,,,,,,,080525,,,N*42,1746701811000
NMEA,$PSAMCLK,2365,38503000,0,9748415,3153567,385030004*4F,1746701811000
NMEA,$PSAMCLK,2365,38503000,0,9748415,3153567,385030004*4F,1746701811000
NMEA,$GPGGA,105653.000,,,,,0,,,,,,,,*7C,1746701812000
NMEA,$PSAMSA,,,,,,0,,,,,,,,*2D,1746701812000
NMEA,$GPGLL,4503.7517,N,00739.4644,E,105653.000,V,N*4C,1746701812000
NMEA,$GPVTG,0.0,T,,M,0.0,N,0.0,K,N*02,1746701812000
NMEA,$GPGSV,2,1,06,02,19,242,25,10,47,132,33,16,78,196,31,23,41,068,29*72,1746701812000
NMEA,$GPGSV,2,2,06,26,49,169,33,27,61,327,30*7F,1746701812000
NMEA,$GLGSV,1,1,02,76,28,117,37,86,23,030,31*61,1746701812000
NMEA,$BDGSV,1,1,02,211,63,021,38,234,43,055,27*62,1746701812000
NMEA,$GPRMC,105653.000,V,,,,,,,080525,,,N*43,1746701812000
NMEA,$PSAMCLK,2365,38503100,0,9748415,3215445,385031004*4F,1746701812000
NMEA,$PSAMCLK,2365,38503100,0,9748415,3215445,385031004*4F,1746701812000
NMEA,$GPGGA,105654.000,,,,,0,,,,,,,,*7B,1746701813000
NMEA,$PSAMSA,,,,,,0,,,,,,,,*2D,1746701813000
NMEA,$GPGLL,4503.7517,N,00739.4644,E,105654.000,V,N*4B,1746701813000
NMEA,$GPVTG,0.0,T,,M,0.0,N,0.0,K,N*02,1746701813000
NMEA,$GPGSV,2,1,06,02,19,242,25,10,47,132,33,16,78,196,31,23,41,068,29*72,1746701813000
NMEA,$GPGSV,2,2,06,26,49,169,33,27,61,327,30*7F,1746701813000
NMEA,$GLGSV,1,1,02,76,28,117,37,86,23,030,30*60,1746701813000
NMEA,$BDGSV,1,1,02,211,63,021,38,234,43,055,27*62,1746701813000
NMEA,$GPRMC,105654.000,V,,,,,,,080525,,,N*44,1746701813000
NMEA,$PSAMCLK,2365,38503200,0,9748415,3277324,385032004*4B,1746701813000
NMEA,$PSAMCLK,2365,38503200,0,9748415,3277324,385032004*4B,1746701813000
NMEA,$GPGGA,105655.000,,,,,0,,,,,,,,*7A,1746701814000
NMEA,$PSAMSA,,,,,,0,,,,,,,,*2D,1746701814000
NMEA,$GPGLL,4503.7517,N,00739.4644,E,105655.000,V,N*4A,1746701814000
NMEA,$GPVTG,0.0,T,,M,0.0,N,0.0,K,N*02,1746701814000
NMEA,$GPGSV,2,1,06,02,19,242,25,10,48,132,33,16,78,196,31,23,41,068,30*75,1746701814000
NMEA,$GPGSV,2,2,06,26,49,169,33,27,61,327,30*7F,1746701814000
NMEA,$GLGSV,1,1,02,76,28,117,37,86,23,030,30*60,1746701814000
NMEA,$BDGSV,1,1,02,211,63,021,38,234,43,055,27*62,1746701814000
NMEA,$GPRMC,105655.000,V,,,,,,,080525,,,N*45,1746701814000
NMEA,$PSAMCLK,2365,38503300,0,9748415,3339202,385033004*45,1746701814000
NMEA,$PSAMCLK,2365,38503300,0,9748415,3339202,385033004*45,1746701814000
NMEA,$GPGGA,105656.000,,,,,0,,,,,,,,*79,1746701815000
NMEA,$PSAMSA,,,,,,0,,,,,,,,*2D,1746701815000
NMEA,$GPGLL,4503.7517,N,00739.4644,E,105656.000,V,N*49,1746701815000
NMEA,$GPVTG,0.0,T,,M,0.0,N,0.0,K,N*02,1746701815000
NMEA,$GPGSV,2,1,06,02,19,242,25,10,48,132,33,16,78,196,31,23,41,068,30*75,1746701815000
NMEA,$GPGSV,2,2,06,26,49,169,33,27,61,327,30*7F,1746701815000
NMEA,$GLGSV,1,1,02,76,28,117,37,86,23,030,30*60,1746701815000
NMEA,$BDGSV,1,1,02,211,63,021,38,234,43,055,27*62,1746701815000
NMEA,$GPRMC,105656.000,V,,,,,,,080525,,,N*46,1746701815000
NMEA,$PSAMCLK,2365,38503400,0,9750007,3401090,385034004*4E,1746701815000
NMEA,$PSAMCLK,2365,38503400,0,9750007,3401090,385034004*4E,1746701815000
NMEA,$GPGGA,105657.000,,,,,0,,,,,,,,*78,1746701816000
NMEA,$PSAMSA,,,,,,0,,,,,,,,*2D,1746701816000
NMEA,$GPGLL,4503.7517,N,00739.4644,E,105657.000,V,N*48,1746701816000
NMEA,$GPVTG,0.0,T,,M,0.0,N,0.0,K,N*02,1746701816000
NMEA,$GPGSV,2,1,06,02,19,242,25,10,48,132,33,16,78,196,31,23,41,068,30*75,1746701816000
NMEA,$GPGSV,2,2,06,26,49,169,33,27,61,327,30*7F,1746701816000
NMEA,$GLGSV,1,1,02,76,28,117,37,86,23,030,30*60,1746701816000
NMEA,$BDGSV,1,1,02,211,63,021,37,234,43,055,27*6D,1746701816000
NMEA,$GPRMC,105657.000,V,,,,,,,080525,,,N*47,1746701816000
NMEA,$PSAMCLK,2365,38503500,0,9750007,3462978,385035004*44,1746701816000
NMEA,$PSAMCLK,2365,38503500,0,9750007,3462978,385035004*44,1746701816000
NMEA,$GPGGA,105658.000,,,,,0,,,,,,,,*77,1746701817000
NMEA,$PSAMSA,,,,,,0,,,,,,,,*2D,1746701817000
NMEA,$GPGLL,4503.7517,N,00739.4644,E,105658.000,V,N*47,1746701817000
NMEA,$GPVTG,0.0,T,,M,0.0,N,0.0,K,N*02,1746701817000
NMEA,$GPGSV,2,1,06,02,19,242,25,10,48,132,33,16,78,196,31,23,41,068,30*75,1746701817000
NMEA,$GPGSV,2,2,06,26,49,169,33,27,61,327,30*7F,1746701817000
NMEA,$GLGSV,1,1,02,76,28,117,37,86,23,030,30*60,1746701817000
NMEA,$BDGSV,1,1,02,211,63,021,36,234,43,055,27*6C,1746701817000
NMEA,$GPRMC,105658.000,V,,,,,,,080525,,,N*48,1746701817000
NMEA,$PSAMCLK,2365,38503600,0,9750007,3524867,385036004*48,1746701817000
NMEA,$PSAMCLK,2365,38503600,0,9750007,3524867,385036004*48,1746701817000
NMEA,$GPGGA,105659.000,,,,,0,,,,,,,,*76,1746701818000
NMEA,$PSAMSA,,,,,,0,,,,,,,,*2D,1746701818000
NMEA,$GPGLL,4503.7517,N,00739.4644,E,105659.000,V,N*46,1746701818000
NMEA,$GPVTG,0.0,T,,M,0.0,N,0.0,K,N*02,1746701818000
NMEA,$GPGSV,2,1,06,02,19,242,25,10,48,132,33,16,78,196,31,23,41,068,30*75,1746701818000
NMEA,$GPGSV,2,2,06,26,49,169,33,27,61,327,30*7F,1746701818000
NMEA,$GLGSV,1,1,02,76,28,117,37,86,23,030,30*60,1746701818000
NMEA,$BDGSV,1,1,02,211,63,021,36,234,43,055,27*6C,1746701818000
NMEA,$GPRMC,105659.000,V,,,,,,,080525,,,N*49,1746701818000
NMEA,$PSAMCLK,2365,38503700,0,9750007,3586755,385037004*4E,1746701818000
NMEA,$PSAMCLK,2365,38503700,0,9750007,3586755,385037004*4E,1746701818000
NMEA,$GPGGA,105700.000,,,,,0,,,,,,,,*7B,1746701819000
NMEA,$PSAMSA,,,,,,0,,,,,,,,*2D,1746701819000
NMEA,$GPGLL,4503.7517,N,00739.4644,E,105700.000,V,N*4B,1746701819000
NMEA,$GPVTG,0.0,T,,M,0.0,N,0.0,K,N*02,1746701819000
NMEA,$GPGSV,2,1,06,02,19,242,25,10,48,132,33,16,78,196,31,23,41,068,30*75,1746701819000
NMEA,$GPGSV,2,2,06,26,49,169,32,27,61,327,30*7E,1746701819000
NMEA,$GLGSV,1,1,02,76,28,117,38,86,23,030,30*6F,1746701819000
NMEA,$BDGSV,1,1,02,211,63,021,36,234,43,055,26*6D,1746701819000
NMEA,$GPRMC,105700.000,V,,,,,,,080525,,,N*44,1746701819000
NMEA,$PSAMCLK,2365,38503800,0,9750007,3648643,385038004*49,1746701819000
NMEA,$PSAMCLK,2365,38503800,0,9750007,3648643,385038004*49,1746701819000
NMEA,$GPGGA,105701.000,,,,,0,,,,,,,,*7A,1746701820000
NMEA,$PSAMSA,,,,,,0,,,,,,,,*2D,1746701820000
NMEA,$GPGLL,4503.7517,N,00739.4644,E,105701.000,V,N*4A,1746701820000
NMEA,$GPVTG,0.0,T,,M,0.0,N,0.0,K,N*02,1746701820000
NMEA,$GPGSV,2,1,06,02,19,242,25,10,48,132,33,16,78,196,30,23,41,068,30*74,1746701820000
NMEA,$GPGSV,2,2,06,26,49,169,32,27,61,327,30*7E,1746701820000
NMEA,$GLGSV,1,1,02,76,28,117,38,86,23,030,30*6F,1746701820000
NMEA,$BDGSV,1,1,02,211,63,021,35,234,43,055,26*6E,1746701820000
NMEA,$GPRMC,105701.000,V,,,,,,,080525,,,N*45,1746701820000
NMEA,$PSAMCLK,2365,38503900,0,9750007,3710532,385039004*40,1746701820000
NMEA,$PSAMCLK,2365,38503900,0,9750007,3710532,385039004*40,1746701820000
NMEA,$GPGGA,105702.000,,,,,0,,,,,,,,*79,1746701821000
NMEA,$PSAMSA,,,,,,0,,,,,,,,*2D,1746701821000
NMEA,$GPGLL,4503.7517,N,00739.4644,E,105702.000,V,N*49,1746701821000
NMEA,$GPVTG,0.0,T,,M,0.0,N,0.0,K,N*02,1746701821000
NMEA,$GPGSV,2,1,06,02,19,242,25,10,48,132,33,16,78,196,30,23,41,068,30*74,1746701821000
NMEA,$GPGSV,2,2,06,26,49,169,31,27,61,327,30*7D,1746701821000
NMEA,$GLGSV,1,1,02,76,28,117,38,86,23,030,30*6F,1746701821000
NMEA,$BDGSV,1,1,02,211,63,021,35,234,43,055,26*6E,1746701821000
NMEA,$GPRMC,105702.000,V,,,,,,,080525,,,N*46,1746701821000
NMEA,$PSAMCLK,2365,38504000,0,9750007,3772420,385040004*46,1746701821000
NMEA,$PSAMCLK,2365,38504000,0,9750007,3772420,385040004*46,1746701821000
NMEA,$GPGGA,105703.000,,,,,0,,,,,,,,*78,1746701822000
NMEA,$PSAMSA,,,,,,0,,,,,,,,*2D,1746701822000
NMEA,$GPGLL,4503.7517,N,00739.4644,E,105703.000,V,N*48,1746701822000
NMEA,$GPVTG,0.0,T,,M,0.0,N,0.0,K,N*02,1746701822000
NMEA,$GPGSV,2,1,06,02,19,242,24,10,48,132,34,16,78,196,30,23,41,068,29*7A,1746701822000
NMEA,$GPGSV,2,2,06,26,49,169,31,27,61,327,30*7D,1746701822000
NMEA,$GLGSV,1,1,02,76,28,117,38,86,23,030,30*6F,1746701822000
NMEA,$BDGSV,1,1,02,211,63,021,35,234,43,055,26*6E,1746701822000
NMEA,$GPRMC,105703.000,V,,,,,,,080525,,,N*47,1746701822000
NMEA,$PSAMCLK,2365,38504100,0,9750007,3834308,385041004*46,1746701822000
NMEA,$PSAMCLK,2365,38504100,0,9750007,3834308,385041004*46,1746701822000
NMEA,$GPGGA,105704.000,,,,,0,,,,,,,,*7F,1746701823000
NMEA,$PSAMSA,,,,,,0,,,,,,,,*2D,1746701823000
NMEA,$GPGLL,4503.7517,N,00739.4644,E,105704.000,V,N*4F,1746701823000
NMEA,$GPVTG,0.0,T,,M,0.0,N,0.0,K,N*02,1746701823000
NMEA,$GPGSV,2,1,06,02,19,242,24,10,48,132,34,16,78,196,30,23,41,068,29*7A,1746701823000
NMEA,$GPGSV,2,2,06,26,49,169,30,27,61,327,30*7C,1746701823000
NMEA,$GLGSV,1,1,02,76,28,117,38,86,23,030,30*6F,1746701823000
NMEA,$BDGSV,1,1,02,211,63,021,34,234,43,055,26*6F,1746701823000
NMEA,$GPRMC,105704.000,V,,,,,,,080525,,,N*40,1746701823000
NMEA,$PSAMCLK,2365,38504200,0,9750007,3896197,385042004*4A,1746701823000
NMEA,$PSAMCLK,2365,38504200,0,9750007,3896197,385042004*4A,1746701823000
NMEA,$GPGGA,105705.000,,,,,0,,,,,,,,*7E,1746701824000
NMEA,$PSAMSA,,,,,,0,,,,,,,,*2D,1746701824000
NMEA,$GPGLL,4503.7517,N,00739.4644,E,105705.000,V,N*4E,1746701824000
NMEA,$GPVTG,0.0,T,,M,0.0,N,0.0,K,N*02,1746701824000
NMEA,$GPGSV,2,1,06,02,19,242,24,10,48,132,34,16,78,196,29,23,41,068,29*72,1746701824000
NMEA,$GPGSV,2,2,06,26,49,169,30,27,61,327,30*7C,1746701824000
NMEA,$GLGSV,1,1,02,76,28,117,38,86,23,030,30*6F,1746701824000
NMEA,$BDGSV,1,1,02,211,63,021,34,234,43,055,25*6C,1746701824000
NMEA,$GPRMC,105705.000,V,,,,,,,080525,,,N*41,1746701824000
NMEA,$PSAMCLK,2365,38504300,0,9750007,3958085,385043004*4B,1746701824000
NMEA,$PSAMCLK,2365,38504300,0,9750007,3958085,385043004*4B,1746701824000
NMEA,$GPGGA,105706.000,,,,,0,,,,,,,,*7D,1746701825000
NMEA,$PSAMSA,,,,,,0,,,,,,,,*2D,1746701825000
NMEA,$GPGLL,4503.7517,N,00739.4644,E,105706.000,V,N*4D,1746701825000
NMEA,$GPVTG,0.0,T,,M,0.0,N,0.0,K,N*02,1746701825000
NMEA,$GPGSV,2,1,06,02,19,242,24,10,48,132,34,16,78,196,28,23,41,068,29*73,1746701825000
NMEA,$GPGSV,2,2,06,26,49,169,30,27,61,327,30*7C,1746701825000
NMEA,$GLGSV,1,1,02,76,28,117,38,86,23,030,29*67,1746701825000
NMEA,$BDGSV,1,1,02,211,63,021,34,234,43,055,25*6C,1746701825000
NMEA,$GPRMC,105706.000,V,,,,,,,080525,,,N*42,1746701825000
NMEA,$PSAMCLK,2365,38504400,0,9750007,4019973,385044004*40,1746701825000
NMEA,$PSAMCLK,2365,38504400,0,9750007,4019973,385044004*40,1746701825000
NMEA,$GPGGA,105707.000,,,,,0,,,,,,,,*7C,1746701826000
NMEA,$PSAMSA,,,,,,0,,,,,,,,*2D,1746701826000
NMEA,$GPGLL,4503.7517,N,00739.4644,E,105707.000,V,N*4C,1746701826000
NMEA,$GPVTG,0.0,T,,M,0.0,N,0.0,K,N*02,1746701826000
NMEA,$GPGSV,2,1,06,02,19,242,24,10,48,132,34,16,78,196,27,23,41,068,29*7C,1746701826000
NMEA,$GPGSV,2,2,06,26,49,169,29,27,61,327,30*74,1746701826000
NMEA,$GLGSV,1,1,02,76,28,117,38,86,23,030,29*67,1746701826000
NMEA,$BDGSV,1,1,02,211,63,021,33,234,43,055,25*6B,1746701826000
NMEA,$GPRMC,105707.000,V,,,,,,,080525,,,N*43,1746701826000
NMEA,$PSAMCLK,2365,38504500,0,9750007,4081861,385045004*43,1746701826000
NMEA,$PSAMCLK,2365,38504500,0,9750007,4081861,385045004*43,1746701826000
NMEA,$GPGGA,105708.000,,,,,0,,,,,,,,*73,1746701827000
NMEA,$PSAMSA,,,,,,0,,,,,,,,*2D,1746701827000
NMEA,$GPGLL,4503.7517,N,00739.4644,E,105708.000,V,N*43,1746701827000
NMEA,$GPVTG,0.0,T,,M,0.0,N,0.0,K,N*02,1746701827000
NMEA,$GPGSV,2,1,06,02,19,242,24,10,48,132,34,16,78,196,27,23,41,068,29*7C,1746701827000
NMEA,$GPGSV,2,2,06,26,49,169,29,27,61,327,30*74,1746701827000
NMEA,$GLGSV,1,1,02,76,28,117,38,86,23,030,29*67,1746701827000
NMEA,$BDGSV,1,1,02,211,63,021,33,234,43,055,25*6B,1746701827000
NMEA,$GPRMC,105708.000,V,,,,,,,080525,,,N*4C,1746701827000
NMEA,$PSAMCLK,2365,38504600,0,9750007,4143750,385046005*40,1746701827000
NMEA,$PSAMCLK,2365,38504600,0,9750007,4143750,385046005*40,1746701827000
NMEA,$GPGGA,105709.000,,,,,0,,,,,,,,*72,1746701828000
NMEA,$PSAMSA,,,,,,0,,,,,,,,*2D,1746701828000
NMEA,$GPGLL,4503.7517,N,00739.4644,E,105709.000,V,N*42,1746701828000
NMEA,$GPVTG,0.0,T,,M,0.0,N,0.0,K,N*02,1746701828000
NMEA,$GPGSV,2,1,06,02,19,242,24,10,48,132,34,16,78,196,27,23,41,068,29*7C,1746701828000
NMEA,$GPGSV,2,2,06,26,49,169,29,27,61,327,30*74,1746701828000
NMEA,$GLGSV,1,1,02,80,64,263,38,86,23,030,29*66,1746701828000
NMEA,$BDGSV,1,1,02,211,63,021,33,234,43,055,25*6B,1746701828000
NMEA,$GPRMC,105709.000,V,,,,,,,080525,,,N*4D,1746701828000
NMEA,$PSAMCLK,2365,38504700,0,9750007,4205638,385047005*4E,1746701828000
NMEA,$PSAMCLK,2365,38504700,0,9750007,4205638,385047005*4E,1746701828000
NMEA,$GPGGA,105710.000,,,,,0,,,,,,,,*7A,1746701829000
NMEA,$PSAMSA,,,,,,0,,,,,,,,*2D,1746701829000
NMEA,$GPGLL,4503.7517,N,00739.4644,E,105710.000,V,N*4A,1746701829000
NMEA,$GPVTG,0.0,T,,M,0.0,N,0.0,K,N*02,1746701829000
NMEA,$GPGSV,2,1,06,02,19,242,24,10,48,132,34,16,78,196,29,23,41,068,29*72,1746701829000
NMEA,$GPGSV,2,2,06,26,49,169,29,27,61,327,30*74,1746701829000
NMEA,$GLGSV,1,1,02,80,64,263,38,86,23,030,29*66,1746701829000
NMEA,$BDGSV,1,1,02,211,63,021,33,234,43,055,24*6A,1746701829000
NMEA,$GPRMC,105710.000,V,,,,,,,080525,,,N*45,1746701829000
NMEA,$PSAMCLK,2365,38504800,0,9750007,4267526,385048005*46,1746701829000
NMEA,$PSAMCLK,2365,38504800,0,9750007,4267526,385048005*46,1746701829000
NMEA,$GPGGA,105711.000,,,,,0,,,,,,,,*7B,1746701830000
NMEA,$PSAMSA,,,,,,0,,,,,,,,*2D,1746701830000
NMEA,$GPGLL,4503.7517,N,00739.4644,E,105711.000,V,N*4B,1746701830000
NMEA,$GPVTG,0.0,T,,M,0.0,N,0.0,K,N*02,1746701830000
NMEA,$GPGSV,2,1,06,02,19,242,24,10,48,132,34,16,78,196,30,23,41,068,29*7A,1746701830000
NMEA,$GPGSV,2,2,06,26,49,169,29,27,61,327,30*74,1746701830000
NMEA,$GLGSV,1,1,02,80,64,263,38,86,23,030,29*66,1746701830000
NMEA,$BDGSV,1,1,02,211,63,021,34,234,43,055,24*6D,1746701830000
NMEA,$GPRMC,105711.000,V,,,,,,,080525,,,N*44,1746701830000
NMEA,$PSAMCLK,2365,38504900,0,9750007,4329415,385049005*4C,1746701830000
NMEA,$PSAMCLK,2365,38504900,0,9750007,4329415,385049005*4C,1746701830000
NMEA,$GPGGA,105712.000,,,,,0,,,,,,,,*78,1746701831000
NMEA,$PSAMSA,,,,,,0,,,,,,,,*2D,1746701831000
NMEA,$GPGLL,4503.7517,N,00739.4644,E,105712.000,V,N*48,1746701831000
NMEA,$GPVTG,0.0,T,,M,0.0,N,0.0,K,N*02,1746701831000
NMEA,$GPGSV,2,1,06,02,19,242,24,10,48,132,34,16,78,196,30,23,41,068,29*7A,1746701831000
NMEA,$GPGSV,2,2,06,26,49,169,29,27,61,327,30*74,1746701831000
NMEA,$GLGSV,1,1,02,80,64,263,38,86,23,030,29*66,1746701831000
NMEA,$BDGSV,1,1,02,211,63,021,35,234,43,055,24*6C,1746701831000
NMEA,$GPRMC,105712.000,V,,,,,,,080525,,,N*47,1746701831000
NMEA,$PSAMCLK,2365,38505000,0,9750007,4391303,385050005*4F,1746701831000
NMEA,$PSAMCLK,2365,38505000,0,9750007,4391303,385050005*4F,1746701831000
NMEA,$GPGGA,105713.000,,,,,0,,,,,,,,*79,1746701832000
NMEA,$PSAMSA,,,,,,0,,,,,,,,*2D,1746701832000
NMEA,$GPGLL,4503.7517,N,00739.4644,E,105713.000,V,N*49,1746701832000
NMEA,$GPVTG,0.0,T,,M,0.0,N,0.0,K,N*02,1746701832000
NMEA,$GPGSV,2,1,06,02,19,242,24,10,48,132,34,16,78,196,30,23,41,068,29*7A,1746701832000
NMEA,$GPGSV,2,2,06,26,49,169,28,27,61,327,30*75,1746701832000
NMEA,$GLGSV,1,1,02,80,64,263,38,86,23,030,29*66,1746701832000
NMEA,$BDGSV,1,1,02,211,63,021,36,234,43,055,24*6F,1746701832000
NMEA,$GPRMC,105713.000,V,,,,,,,080525,,,N*46,1746701832000
NMEA,$PSAMCLK,2365,38505100,0,9750007,4453191,385051005*4F,1746701832000
NMEA,$PSAMCLK,2365,38505100,0,9750007,4453191,385051005*4F,1746701832000
NMEA,$GPGGA,105714.000,,,,,0,,,,,,,,*7E,1746701833000
NMEA,$PSAMSA,,,,,,0,,,,,,,,*2D,1746701833000
NMEA,$GPGLL,4503.7517,N,00739.4644,E,105714.000,V,N*4E,1746701833000
NMEA,$GPVTG,0.0,T,,M,0.0,N,0.0,K,N*02,1746701833000
NMEA,$GPGSV,2,1,06,02,19,242,24,10,48,132,34,16,78,196,30,23,41,068,30*72,1746701833000
NMEA,$GPGSV,2,2,06,26,49,169,28,27,61,327,31*74,1746701833000
NMEA,$GLGSV,1,1,02,80,64,263,38,86,23,030,29*66,1746701833000
NMEA,$BDGSV,1,1,02,211,63,021,37,234,43,055,25*6F,1746701833000
NMEA,$GPRMC,105714.000,V,,,,,,,080525,,,N*41,1746701833000
NMEA,$PSAMCLK,2365,38505200,0,9750007,4515080,385052005*4D,1746701833000
NMEA,$PSAMCLK,2365,38505200,0,9750007,4515080,385052005*4D,1746701833000
NMEA,$GPGGA,105715.000,,,,,0,,,,,,,,*7F,1746701834000
NMEA,$PSAMSA,,,,,,0,,,,,,,,*2D,1746701834000
NMEA,$GPGLL,4503.7517,N,00739.4644,E,105715.000,V,N*4F,1746701834000
NMEA,$GPVTG,0.0,T,,M,0.0,N,0.0,K,N*02,1746701834000
NMEA,$GPGSV,2,1,06,02,19,242,24,10,48,132,33,16,78,196,31,23,41,068,30*74,1746701834000
NMEA,$GPGSV,2,2,06,26,49,169,28,27,61,327,31*74,1746701834000
NMEA,$GLGSV,1,1,02,80,64,263,38,86,23,030,29*66,1746701834000
NMEA,$BDGSV,1,1,02,211,63,021,37,234,43,055,25*6F,1746701834000
NMEA,$GPRMC,105715.000,V,,,,,,,080525,,,N*40,1746701834000
NMEA,$PSAMCLK,2365,38505300,0,9750007,4576968,385053005*47,1746701834000
NMEA,$PSAMCLK,2365,38505300,0,9750007,4576968,385053005*47,1746701834000
NMEA,$GPGGA,105716.000,,,,,0,,,,,,,,*7C,1746701835000
NMEA,$PSAMSA,,,,,,0,,,,,,,,*2D,1746701835000
NMEA,$GPGLL,4503.7517,N,00739.4644,E,105716.000,V,N*4C,1746701835000
NMEA,$GPVTG,0.0,T,,M,0.0,N,0.0,K,N*02,1746701835000
NMEA,$GPGSV,2,1,06,02,19,242,24,10,48,132,32,16,78,196,31,23,41,068,30*75,1746701835000
NMEA,$GPGSV,2,2,06,26,49,169,28,27,61,327,31*74,1746701835000
NMEA,$GLGSV,1,1,02,80,64,263,38,86,23,030,29*66,1746701835000
NMEA,$BDGSV,1,1,02,211,63,021,38,234,43,055,25*60,1746701835000
NMEA,$GPRMC,105716.000,V,,,,,,,080525,,,N*43,1746701835000
NMEA,$PSAMCLK,2365,38505400,0,9750007,4638856,385054005*42,1746701835000
NMEA,$PSAMCLK,2365,38505400,0,9750007,4638856,385054005*42,1746701835000
NMEA,$GPGGA,105717.000,,,,,0,,,,,,,,*7D,1746701836000
NMEA,$PSAMSA,,,,,,0,,,,,,,,*2D,1746701836000
NMEA,$GPGLL,4503.7517,N,00739.4644,E,105717.000,V,N*4D,1746701836000
NMEA,$GPVTG,0.0,T,,M,0.0,N,0.0,K,N*02,1746701836000
NMEA,$GPGSV,2,1,06,02,19,242,24,10,48,132,32,16,78,196,31,23,41,068,30*75,1746701836000
NMEA,$GPGSV,2,2,06,26,49,169,28,27,61,327,32*77,1746701836000
NMEA,$GLGSV,1,1,02,80,64,263,38,86,23,030,29*66,1746701836000
NMEA,$BDGSV,1,1,02,211,63,021,38,234,43,055,26*63,1746701836000
NMEA,$GPRMC,105717.000,V,,,,,,,080525,,,N*42,1746701836000
NMEA,$PSAMCLK,2365,38505500,0,9750007,4700744,385055005*44,1746701836000
NMEA,$PSAMCLK,2365,38505500,0,9750007,4700744,385055005*44,1746701836000
NMEA,$GPGGA,105718.000,,,,,0,,,,,,,,*72,1746701837000
NMEA,$PSAMSA,,,,,,0,,,,,,,,*2D,1746701837000
NMEA,$GPGLL,4503.7517,N,00739.4644,E,105718.000,V,N*42,1746701837000
NMEA,$GPVTG,0.0,T,,M,0.0,N,0.0,K,N*02,1746701837000
NMEA,$GPGSV,2,1,06,02,19,242,24,10,48,132,32,16,78,196,31,23,41,068,31*74,1746701837000
NMEA,$GPGSV,2,2,06,26,49,169,28,27,61,327,32*77,1746701837000
NMEA,$GLGSV,1,1,02,80,64,263,38,86,23,030,29*66,1746701837000
NMEA,$BDGSV,1,1,02,211,63,021,38,234,43,055,26*63,1746701837000
NMEA,$GPRMC,105718.000,V,,,,,,,080525,,,N*4D,1746701837000
NMEA,$PSAMCLK,2365,38505600,0,9750007,4762633,385056005*41,1746701837000
NMEA,$PSAMCLK,2365,38505600,0,9750007,4762633,385056005*41,1746701837000
NMEA,$GPGGA,105719.000,,,,,0,,,,,,,,*73,1746701838000
NMEA,$PSAMSA,,,,,,0,,,,,,,,*2D,1746701838000
NMEA,$GPGLL,0000.0000,N,00000.0000,E,105719.000,V,N*4A,1746701838000
NMEA,$GPVTG,0.0,T,,M,0.0,N,0.0,K,N*02,1746701838000
NMEA,$GPGSV,2,1,06,02,19,242,24,10,48,132,31,16,78,194,31,23,41,068,31*75,1746701838000
NMEA,$GPGSV,2,2,06,26,49,169,28,27,61,327,32*77,1746701838000
NMEA,$GLGSV,1,1,02,80,64,262,37,86,23,030,29*68,1746701838000
NMEA,$BDGSV,1,1,02,211,63,021,38,234,43,055,26*63,1746701838000
NMEA,$GPRMC,105719.000,V,,,,,,,080525,,,N*4C,1746701838000
NMEA,$PSAMCLK,2365,38505700,0,9750007,4824521,385057005*4C,1746701838000
NMEA,$PSAMCLK,2365,38505700,0,9750007,4824521,385057005*4C,1746701838000
NMEA,$GPGGA,105720.000,,,,,0,,,,,,,,*79,1746701839000
NMEA,$PSAMSA,,,,,,0,,,,,,,,*2D,1746701839000
NMEA,$GPGLL,0000.0000,N,00000.0000,E,105720.000,V,N*40,1746701839000
NMEA,$GPVTG,0.0,T,,M,0.0,N,0.0,K,N*02,1746701839000
NMEA,$GPGSV,2,1,06,02,19,242,25,10,48,132,31,16,78,194,31,23,41,068,31*74,1746701839000
NMEA,$GPGSV,2,2,06,26,49,169,28,27,61,327,32*77,1746701839000
NMEA,$GLGSV,1,1,02,80,64,262,37,86,23,030,29*68,1746701839000
NMEA,$BDGSV,1,1,02,211,63,021,39,234,43,055,26*62,1746701839000
NMEA,$GPRMC,105720.000,V,,,,,,,080525,,,N*46,1746701839000
NMEA,$PSAMCLK,2365,38505800,0,9750007,4886409,385058005*4F,1746701839000
NMEA,$PSAMCLK,2365,38505800,0,9750007,4886409,385058005*4F,1746701839000
NMEA,$GPGGA,105721.000,,,,,0,,,,,,,,*78,1746701840000
NMEA,$PSAMSA,,,,,,0,,,,,,,,*2D,1746701840000
NMEA,$GPGLL,0000.0000,N,00000.0000,E,105721.000,V,N*41,1746701840000
NMEA,$GPVTG,0.0,T,,M,0.0,N,0.0,K,N*02,1746701840000
NMEA,$GPGSV,2,1,06,02,19,242,25,10,48,132,31,16,78,194,31,23,41,068,31*74,1746701840000
NMEA,$GPGSV,2,2,06,26,49,169,28,27,61,327,32*77,1746701840000
NMEA,$GLGSV,1,1,02,80,64,262,37,86,23,030,29*68,1746701840000
NMEA,$BDGSV,1,1,02,211,63,021,39,234,43,055,26*62,1746701840000
NMEA,$GPRMC,105721.000,V,,,,,,,080525,,,N*47,1746701840000
NMEA,$PSAMCLK,2365,38505900,0,9750007,4948298,385059005*42,1746701840000
NMEA,$PSAMCLK,2365,38505900,0,9750007,4948298,385059005*42,1746701840000
NMEA,$GPGGA,105722.000,,,,,0,,,,,,,,*7B,1746701841000
NMEA,$PSAMSA,,,,,,0,,,,,,,,*2D,1746701841000
NMEA,$GPGLL,0000.0000,N,00000.0000,E,105722.000,V,N*42,1746701841000
NMEA,$GPVTG,0.0,T,,M,0.0,N,0.0,K,N*02,1746701841000
NMEA,$GPGSV,2,1,06,02,19,242,25,10,48,132,30,16,78,194,31,23,41,068,31*75,1746701841000
NMEA,$GPGSV,2,2,06,26,49,169,29,27,61,327,32*76,1746701841000
NMEA,$GLGSV,1,1,02,80,64,262,37,86,23,030,29*68,1746701841000
NMEA,$BDGSV,1,1,02,211,63,021,39,234,43,055,26*62,1746701841000
NMEA,$GPRMC,105722.000,V,,,,,,,080525,,,N*44,1746701841000
NMEA,$PSAMCLK,2365,38506000,0,9750007,5010186,385060005*4B,1746701841000
NMEA,$PSAMCLK,2365,38506000,0,9750007,5010186,385060005*4B,1746701841000
NMEA,$GPGGA,105723.000,,,,,0,,,,,,,,*7A,1746701842000
NMEA,$PSAMSA,,,,,,0,,,,,,,,*2D,1746701842000
NMEA,$GPGLL,0000.0000,N,00000.0000,E,105723.000,V,N*43,1746701842000
NMEA,$GPVTG,0.0,T,,M,0.0,N,0.0,K,N*02,1746701842000
NMEA,$GPGSV,2,1,06,02,19,242,26,10,48,132,30,16,78,194,30,23,41,068,31*77,1746701842000
NMEA,$GPGSV,2,2,06,26,49,169,29,27,61,327,32*76,1746701842000
NMEA,$GLGSV,1,1,02,80,64,262,37,86,23,030,29*68,1746701842000
NMEA,$BDGSV,1,1,02,211,63,021,39,234,43,055,26*62,1746701842000
NMEA,$GPRMC,105723.000,V,,,,,,,080525,,,N*45,1746701842000
NMEA,$PSAMCLK,2365,38506100,0,9750007,5072074,385061005*43,1746701842000
NMEA,$PSAMCLK,2365,38506100,0,9750007,5072074,385061005*43,1746701842000
NMEA,$GPGGA,105724.000,,,,,0,,,,,,,,*7D,1746701843000
NMEA,$PSAMSA,,,,,,0,,,,,,,,*2D,1746701843000
NMEA,$GPGLL,0000.0000,N,00000.0000,E,105724.000,V,N*44,1746701843000
NMEA,$GPVTG,0.0,T,,M,0.0,N,0.0,K,N*02,1746701843000
NMEA,$GPGSV,2,1,06,02,19,242,26,10,48,132,30,16,78,194,30,23,41,068,31*77,1746701843000
NMEA,$GPGSV,2,2,06,26,49,169,29,27,61,327,32*76,1746701843000
NMEA,$GLGSV,1,1,02,80,64,262,37,86,23,030,29*68,1746701843000
NMEA,$BDGSV,1,1,02,211,63,021,39,234,43,055,26*62,1746701843000
NMEA,$GPRMC,105724.000,V,,,,,,,080525,,,N*42,1746701843000
NMEA,$PSAMCLK,2365,38506200,0,9750007,5133963,385062005*48,1746701843000
NMEA,$PSAMCLK,2365,38506200,0,9750007,5133963,385062005*48,1746701843000
NMEA,$GPGGA,105725.000,,,,,0,,,,,,,,*7C,1746701844000
NMEA,$PSAMSA,,,,,,0,,,,,,,,*2D,1746701844000
NMEA,$GPGLL,4503.7717,N,00739.4923,E,105725.000,V,N*40,1746701844000
NMEA,$GPVTG,0.0,T,,M,6.2,N,11.6,K,N*30,1746701844000
NMEA,$GPGSV,2,1,06,02,10,245,26,10,45,150,30,16,66,209,30,23,50,082,32*7F,1746701844000
NMEA,$GPGSV,2,2,06,26,40,183,28,27,63,309,32*74,1746701844000
NMEA,$GLGSV,1,1,02,80,55,253,37,86,34,034,29*6A,1746701844000
NMEA,$BDGSV,1,1,02,211,75,016,39,234,53,066,26*60,1746701844000
NMEA,$GPRMC,105725.000,V,,,,,,,080525,,,N*43,1746701844000
NMEA,$PSAMCLK,2365,38506300,3,9752623,5495251,385063000*4F,1746701844000
NMEA,$PSAMCLK,2365,38506300,3,9752623,5495251,385063000*4F,1746701844000
NMEA,$GPGGA,105726.000,,,,,0,,,,,,,,*7F,1746701845000
NMEA,$PSAMSA,,,,,,0,,,,,,,,*2D,1746701845000
NMEA,$GPGLL,4503.7738,N,00739.5024,E,105726.000,V,N*41,1746701845000
NMEA,$GPVTG,0.0,T,,M,1.0,N,1.9,K,N*0B,1746701845000
NMEA,$GPGSV,2,1,06,02,10,245,27,10,45,150,30,16,66,209,30,23,50,082,32*7E,1746701845000
NMEA,$GPGSV,2,2,06,26,40,183,28,27,63,309,32*74,1746701845000
NMEA,$GLGSV,1,1,02,80,55,253,37,86,34,034,29*6A,1746701845000
NMEA,$BDGSV,1,1,02,211,75,016,39,234,53,066,26*60,1746701845000
NMEA,$GPRMC,105726.000,V,,,,,,,080525,,,N*40,1746701845000
NMEA,$PSAMCLK,2365,38506400,4,9752607,61980,385064000*43,1746701845000
NMEA,$PSAMCLK,2365,38506400,4,9752607,61980,385064000*43,1746701845000
NMEA,$GPGGA,105727.000,4503.7697,N,00739.4962,E,1,04,3.2,276.6,M,48.2,M,,*5D,1746701846000
NMEA,$PSAMSA,105727.000,4503.7697,N,00739.4962,E,0,M,,*66,1746701846000
NMEA,$GPGLL,4503.7697,N,00739.4962,E,105727.000,A,A*56,1746701846000
NMEA,$GPVTG,253.8,T,,M,1.1,N,2.0,K,A*03,1746701846000
NMEA,$GPGSV,2,1,06,02,10,245,27,10,45,150,30,16,66,209,30,23,50,082,32*7E,1746701846000
NMEA,$GPGSV,2,2,06,26,40,183,27,27,63,309,32*7B,1746701846000
NMEA,$GLGSV,1,1,02,80,55,253,37,86,34,034,29*6A,1746701846000
NMEA,$BDGSV,1,1,02,211,75,016,39,234,53,066,26*60,1746701846000
NMEA,$GPGSA,A,3,16,27,10,,,,,,,,,,9.8,3.2,9.2*3A,1746701846000
NMEA,$GNGSA,A,3,80,,,,,,,,,,,,9.8,3.2,9.2*2F,1746701846000
NMEA,$GPRMC,105727.000,A,4503.7697,N,00739.4962,E,1.1,253.8,080525,,,A*67,1746701846000
NMEA,$PSAMCLK,2365,38506500,4,9752597,123854,385065000*76,1746701846000
NMEA,$PSAMCLK,2365,38506500,4,9752597,123854,385065000*76,1746701846000
NMEA,$GPGGA,105728.000,4503.7691,N,00739.4944,E,1,04,3.2,267.7,M,48.2,M,,*51,1746701847000
NMEA,$PSAMSA,105728.000,4503.7691,N,00739.4944,E,0,M,,*6B,1746701847000
NMEA,$GPGLL,4503.7691,N,00739.4944,E,105728.000,A,A*5B,1746701847000
NMEA,$GPVTG,229.6,T,,M,1.8,N,3.4,K,A*0C,1746701847000
NMEA,$GPGSV,2,1,06,02,10,245,27,10,45,150,30,16,66,209,30,23,50,082,32*7E,1746701847000
NMEA,$GPGSV,2,2,06,26,40,183,26,27,63,309,32*7A,1746701847000
NMEA,$GLGSV,1,1,02,80,55,253,37,86,34,034,29*6A,1746701847000
NMEA,$BDGSV,1,1,02,211,75,016,39,234,53,066,26*60,1746701847000
NMEA,$GPGSA,A,3,16,27,10,,,,,,,,,,9.8,3.2,9.2*3A,1746701847000
NMEA,$GNGSA,A,3,80,,,,,,,,,,,,9.8,3.2,9.2*2F,1746701847000
NMEA,$GPRMC,105728.000,A,4503.7691,N,00739.4944,E,1.8,229.6,080525,,,A*60,1746701847000
NMEA,$PSAMCLK,2365,38506600,4,9752594,185737,385066000*73,1746701847000
NMEA,$PSAMCLK,2365,38506600,4,9752594,185737,385066000*73,1746701847000
NMEA,$GPGGA,105729.000,4503.7692,N,00739.4967,E,1,04,3.2,255.4,M,48.2,M,,*50,1746701848000
NMEA,$PSAMSA,105729.000,4503.7692,N,00739.4967,E,0,M,,*68,1746701848000
NMEA,$GPGLL,4503.7692,N,00739.4967,E,105729.000,A,A*58,1746701848000
NMEA,$GPVTG,214.1,T,,M,1.1,N,2.1,K,A*08,1746701848000
NMEA,$GPGSV,2,1,06,02,10,245,27,10,45,150,29,16,66,209,30,23,50,082,32*76,1746701848000
NMEA,$GPGSV,2,2,06,26,40,183,26,27,63,309,32*7A,1746701848000
NMEA,$GLGSV,1,1,02,80,55,253,37,86,34,034,29*6A,1746701848000
NMEA,$BDGSV,1,1,02,211,75,016,39,234,53,066,26*60,1746701848000
NMEA,$GPGSA,A,3,16,27,10,,,,,,,,,,9.8,3.2,9.2*3A,1746701848000
NMEA,$GNGSA,A,3,80,,,,,,,,,,,,9.8,3.2,9.2*2F,1746701848000
NMEA,$GPRMC,105729.000,A,4503.7692,N,00739.4967,E,1.1,214.1,080525,,,A*63,1746701848000
NMEA,$PSAMCLK,2365,38506700,4,9752590,247603,385067000*7C,1746701848000
NMEA,$PSAMCLK,2365,38506700,4,9752590,247603,385067000*7C,1746701848000
NMEA,$GPGGA,105730.000,4503.7699,N,00739.4964,E,1,04,3.2,257.5,M,48.2,M,,*53,1746701849000
NMEA,$PSAMSA,105730.000,4503.7699,N,00739.4964,E,0,M,,*68,1746701849000
NMEA,$GPGLL,4503.7699,N,00739.4964,E,105730.000,A,A*58,1746701849000
NMEA,$GPVTG,204.2,T,,M,0.9,N,1.6,K,A*07,1746701849000
NMEA,$GPGSV,2,1,06,02,10,245,27,10,45,150,29,16,66,209,30,23,50,082,32*76,1746701849000
NMEA,$GPGSV,2,2,06,26,40,183,25,27,63,309,32*79,1746701849000
NMEA,$GLGSV,1,1,02,80,55,253,37,86,34,034,29*6A,1746701849000
NMEA,$BDGSV,1,1,02,211,75,016,39,234,53,066,26*60,1746701849000
NMEA,$GPGSA,A,3,16,27,10,,,,,,,,,,9.8,3.2,9.2*3A,1746701849000
NMEA,$GNGSA,A,3,80,,,,,,,,,,,,9.8,3.2,9.2*2F,1746701849000
NMEA,$GPRMC,105730.000,A,4503.7699,N,00739.4964,E,0.9,204.2,080525,,,A*68,1746701849000
NMEA,$PSAMCLK,2365,38506800,4,9752530,309516,385068000*7A,1746701849000
NMEA,$PSAMCLK,2365,38506800,4,9752530,309516,385068000*7A,1746701849000
NMEA,$GPGGA,105731.000,4503.7705,N,00739.4956,E,1,04,3.2,259.7,M,48.2,M,,*5B,1746701850000
NMEA,$PSAMSA,105731.000,4503.7705,N,00739.4956,E,0,M,,*6C,1746701850000
NMEA,$GPGLL,4503.7705,N,00739.4956,E,105731.000,A,A*5C,1746701850000
NMEA,$GPVTG,352.6,T,,M,1.9,N,3.5,K,A*01,1746701850000
NMEA,$GPGSV,2,1,06,02,10,245,27,10,45,150,29,16,66,209,30,23,50,081,32*75,1746701850000
NMEA,$GPGSV,2,2,06,26,40,183,25,27,63,309,32*79,1746701850000
NMEA,$GLGSV,1,1,02,80,55,253,37,86,34,034,30*62,1746701850000
NMEA,$BDGSV,1,1,02,211,75,016,39,234,53,066,26*60,1746701850000
NMEA,$GPGSA,A,3,16,27,10,,,,,,,,,,9.8,3.2,9.2*3A,1746701850000
NMEA,$GNGSA,A,3,80,,,,,,,,,,,,9.8,3.2,9.2*2F,1746701850000
NMEA,$GPRMC,105731.000,A,4503.7705,N,00739.4956,E,1.9,352.6,080525,,,A*6B,1746701850000
NMEA,$PSAMCLK,2365,38506900,4,9752572,371427,385069000*70,1746701850000
NMEA,$PSAMCLK,2365,38506900,4,9752572,371427,385069000*70,1746701850000
NMEA,$GPGGA,105732.000,4503.7692,N,00739.4926,E,1,05,2.0,256.0,M,48.2,M,,*5A,1746701851000
NMEA,$PSAMSA,105732.000,4503.7692,N,00739.4926,E,0,M,,*67,1746701851000
NMEA,$GPGLL,4503.7692,N,00739.4926,E,105732.000,A,A*57,1746701851000
NMEA,$GPVTG,351.7,T,,M,0.3,N,0.6,K,A*08,1746701851000
NMEA,$GPGSV,2,1,06,02,10,245,28,10,45,150,29,16,66,209,31,23,50,081,32*7B,1746701851000
NMEA,$GPGSV,2,2,06,26,40,183,24,27,63,309,32*78,1746701851000
NMEA,$GLGSV,1,1,02,80,55,253,36,86,34,034,30*63,1746701851000
NMEA,$BDGSV,1,1,02,211,75,016,39,234,53,066,26*60,1746701851000
NMEA,$GPGSA,A,3,16,27,23,10,,,,,,,,,9.4,2.0,9.2*34,1746701851000
NMEA,$GNGSA,A,3,80,,,,,,,,,,,,9.4,2.0,9.2*20,1746701851000
NMEA,$GPRMC,105732.000,A,4503.7692,N,00739.4926,E,0.3,351.7,080525,,,A*69,1746701851000
NMEA,$PSAMCLK,2365,38507000,5,9752671,433326,385070000*76,1746701851000
NMEA,$PSAMCLK,2365,38507000,5,9752671,433326,385070000*76,1746701851000
NMEA,$GPGGA,105733.000,4503.7687,N,00739.4920,E,1,04,3.2,252.5,M,48.2,M,,*5A,1746701852000
NMEA,$PSAMSA,105733.000,4503.7687,N,00739.4920,E,0,M,,*64,1746701852000
NMEA,$GPGLL,4503.7687,N,00739.4920,E,105733.000,A,A*54,1746701852000
NMEA,$GPVTG,352.0,T,,M,0.3,N,0.5,K,A*0F,1746701852000
NMEA,$GPGSV,2,1,06,02,10,245,28,10,45,150,29,16,66,209,31,23,50,081,32*7B,1746701852000
NMEA,$GPGSV,2,2,06,26,40,183,24,27,63,309,32*78,1746701852000
NMEA,$GLGSV,1,1,02,80,55,253,36,86,34,034,30*63,1746701852000
NMEA,$BDGSV,1,1,02,211,75,016,39,234,53,066,26*60,1746701852000
NMEA,$GPGSA,A,3,16,27,10,,,,,,,,,,9.8,3.2,9.2*3A,1746701852000
NMEA,$GNGSA,A,3,80,,,,,,,,,,,,9.8,3.2,9.2*2F,1746701852000
NMEA,$GPRMC,105733.000,A,4503.7687,N,00739.4920,E,0.3,352.0,080525,,,A*6E,1746701852000
NMEA,$PSAMCLK,2365,38507100,4,9752562,61910,385071000*4A,1746701852000
NMEA,$PSAMCLK,2365,38507100,4,9752562,61910,385071000*4A,1746701852000
NMEA,$GPGGA,105734.000,4503.7698,N,00739.4926,E,1,05,2.0,253.7,M,48.2,M,,*54,1746701853000
NMEA,$PSAMSA,105734.000,4503.7698,N,00739.4926,E,0,M,,*6B,1746701853000
NMEA,$GPGLL,4503.7698,N,00739.4926,E,105734.000,A,A*5B,1746701853000
NMEA,$GPVTG,352.4,T,,M,0.3,N,0.5,K,A*0B,1746701853000
NMEA,$GPGSV,2,1,06,02,10,245,28,10,45,150,29,16,66,209,31,23,50,081,32*7B,1746701853000
NMEA,$GPGSV,2,2,06,26,40,183,23,27,63,309,32*7F,1746701853000
NMEA,$GLGSV,1,1,02,80,55,253,36,86,34,034,30*63,1746701853000
NMEA,$BDGSV,1,1,02,211,75,016,39,234,53,066,26*60,1746701853000
NMEA,$GPGSA,A,3,16,27,23,10,,,,,,,,,9.4,2.0,9.2*34,1746701853000
NMEA,$GNGSA,A,3,80,,,,,,,,,,,,9.4,2.0,9.2*20,1746701853000
NMEA,$GPRMC,105734.000,A,4503.7698,N,00739.4926,E,0.3,352.4,080525,,,A*65,1746701853000
NMEA,$PSAMCLK,2365,38507200,5,9752488,123814,385072000*7C,1746701853000
NMEA,$PSAMCLK,2365,38507200,5,9752488,123814,385072000*7C,1746701853000
NMEA,$GPGGA,105735.000,4503.7685,N,00739.4901,E,1,05,2.0,259.6,M,48.2,M,,*57,1746701854000
NMEA,$PSAMSA,105735.000,4503.7685,N,00739.4901,E,0,M,,*63,1746701854000
NMEA,$GPGLL,4503.7685,N,00739.4901,E,105735.000,A,A*53,1746701854000
NMEA,$GPVTG,352.7,T,,M,0.3,N,0.6,K,A*0B,1746701854000
NMEA,$GPGSV,2,1,06,02,10,245,28,10,45,150,29,16,66,209,31,23,50,081,32*7B,1746701854000
NMEA,$GPGSV,2,2,06,26,40,183,23,27,63,309,32*7F,1746701854000
NMEA,$GLGSV,1,1,02,80,55,253,36,86,34,034,30*63,1746701854000
NMEA,$BDGSV,1,1,02,211,75,016,39,234,53,066,26*60,1746701854000
NMEA,$GPGSA,A,3,16,27,23,10,,,,,,,,,9.4,2.0,9.2*34,1746701854000
NMEA,$GNGSA,A,3,80,,,,,,,,,,,,9.4,2.0,9.2*20,1746701854000
NMEA,$GPRMC,105735.000,A,4503.7685,N,00739.4901,E,0.3,352.7,080525,,,A*6E,1746701854000
NMEA,$PSAMCLK,2365,38507300,5,9752582,185745,385073000*70,1746701854000
NMEA,$PSAMCLK,2365,38507300,5,9752582,185745,385073000*70,1746701854000
NMEA,$GPGGA,105736.000,4503.7663,N,00739.4867,E,1,05,2.0,264.3,M,48.2,M,,*56,1746701855000
