     4.01           OBSERVATION DATA    M                   RINEX VERSION / TYPE
GnssLogger          samsung 13          20250508 105745 UTC PGM / RUN BY / DATE
Google GnssLogger                                           MARKER NAME
Unknown                                                     MARKER NUMBER
Unknown             Unknown                                 OBSERVER / AGENCY
Unknown             GnssLogger          v3.1.0.4            REC # / TYPE / VERS
Unknown             Unknown                                 ANT # / TYPE
        0.0000        0.0000        0.0000                  ANTENNA: DELTA H/E/N
G    4 C1C L1C D1C S1C                                      SYS / # / OBS TYPES
R    4 C1C L1C D1C S1C                                      SYS / # / OBS TYPES
C    4 C2C L2C D2C S2C                                      SYS / # / OBS TYPES
  2025    05    08    10    57   45.0000000     GPS         TIME OF FIRST OBS
 2 R16 -1 R18 -3                                            GLONASS SLOT / FRQ #
samsung SM-A515F (Android 13) HW Year: 2016 HW Model:       COMMENT
S.LSI,K102                                                  COMMENT
                                                            END OF HEADER
> 2025 05 08 10 57 45.0000000  0 6                      
G23  21296498.04115     -1521.79015     -1528.04015        31.70015
G27  20421363.38415         9.77215         3.15815        31.60015
G16  20612457.69214     -2737.64114     -2744.34014        29.30014
G10  21976265.74814      1113.84214      1108.12514        28.10014
G02  24436031.38714      1753.71514      1746.08814        26.80014
R16  19968396.46716     -2461.07716     -2504.91316        36.10016
> 2025 05 08 10 57 46.0000000  0 8                      
G23  21296551.70415     -3048.76215     -1535.39815        31.70015
G27  20421116.65515        18.23915         1.97915        31.60015
G16  20612745.79315     -5476.15515     -2744.78515        29.60015
G10  21975812.16214      2226.79614      1106.67414        28.20014
G02  24435456.08614      3508.90414      1750.09014        26.90014
G26  22255637.54314     -8695.27914     -4361.93414        23.90014
C11  21890711.27616     -3291.54616     -1653.11516        38.80016
R16  19968627.90726     -4964.97326     -2505.69126        36.10026
> 2025 05 08 10 57 47.0000001  0 8                      
G23  21296634.44715     -4573.39015     -1529.31715        31.80015
G27  20420904.40215        25.89315         1.38415        31.50015
G16  20613062.67415     -8215.48315     -2745.59615        29.90015
G10  21975386.75614      3339.71414      1107.03514        28.20014
G02  24434920.05714      5267.93214      1755.08214        27.10014
G26  22256267.10713    -13053.71913     -4364.30013        22.80013
C11  21890821.30026     -4938.12126     -1652.38426        38.80026
R16  19968892.32426     -7482.62726     -2507.62426        36.00026
> 2025 05 08 10 57 48.0000000  0 8                      
G23  21296672.82015     -6101.43515     -1535.67015        31.80015
G27  20420654.37515        33.08215         1.03915        31.40015
G16  20613330.98815    -10955.78215     -2746.70115        30.00015
G10  21974944.86214      4452.93814      1107.45914        28.30014
G02  24434335.76114      7024.70214      1749.72214        27.20014
G26  22256854.70013    -17419.30413     -4375.07213        21.90013
C11  21890892.35126     -6585.29626     -1653.33726        38.80026
R16  19969114.77026     -9999.47926     -2508.96726        36.00026
> 2025 05 08 10 57 48.9999998  0 8                      
G23  21296653.03415     -7628.51915     -1532.53115        31.90015
G27  20420338.99315        41.60015         3.25415        31.40015
G16  20613533.34815    -13695.68515     -2745.63015        30.30015
G10  21974419.92614      5562.44214      1101.71514        28.50014
G02  24433672.32114      8777.28514      1744.56014        27.40014
G26  22257360.15013    -21789.18813     -4377.95613        21.10013
C11  21890891.45126     -8233.26326     -1654.23626        38.80026
R16  19969263.46726    -12478.09726     -2510.55726        36.00026
> 2025 05 08 10 57 49.9999999  0 8                      
G23  21296742.67215     -9157.01715     -1535.04015        31.90015
G27  20420137.23315        47.62315        -1.05915        31.30015
G16  20613851.42815    -16438.22015     -2749.68615        30.60015
G10  21973993.62114      6670.08014      1100.86714        28.60014
G02  24433137.79114     10532.30214      1750.39814        27.60014
G26  22257983.11913    -26162.10213     -4380.26313        20.40013
C11  21890999.37626     -9882.16126     -1655.14526        38.90026
R16  19969522.48726    -14969.00026     -2512.07426        36.00026
> 2025 05 08 10 57 50.9999999  0 8                      
G23  21296794.23625                     -1536.09425        31.90025
G27  20419901.89625                        -1.81325        31.30025
G16  20614141.02725                     -2750.66925        30.80025
G10  21973547.53024                      1104.08424        28.60024
G02  24432570.28424                      1748.78324        27.80024
G26  22258580.60523                     -4378.59123        19.80023
C11  21891079.12126                     -1655.82926        38.90026
R16  19969758.42426                     -2513.26626        36.00026
> 2025 05 08 10 57 51.9999999  0 8                      
G23  21296847.00015     -1530.58615     -1536.91315        32.00015
G16  20614424.93115     -2745.18215     -2751.60815        31.10015
G27  20419653.06815         4.05415        -2.13715        31.20015
G10  21973096.04214      1110.70114      1105.59914        28.70014
G02  24431997.98014      1751.51014      1744.01514        27.90014
G26  22259177.19213     -4369.29813     -4373.41013        19.30013
C11  21891159.16626     -1650.31726     -1656.46226        38.90026
R16  19969999.15726     -2552.04926     -2514.71126        36.00026
> 2025 05 08 10 57 53.0000000  0 8                      
G23  21296907.85725     -3062.71225     -1538.84025        32.00025
G16  20614719.92615     -5491.31615     -2752.55515        31.30015
G27  20419433.32015         7.09715        -3.40815        31.20015
G10  21972671.83614      2217.47114      1098.85714        28.70014
G02  24431440.96514      3503.13414      1745.73414        28.00014
G26  22259771.38113     -8731.35513     -4364.37913        18.90013
C11  21891250.30326     -3301.25326     -1657.13526        38.90026
R16  19970239.29126     -5039.83826     -2516.04426        36.00026
> 2025 05 08 10 57 54.0000000  0 8                      
G23  21296964.81825     -4596.16725     -1539.95525        32.00025
G16  20615005.62915     -8238.24515     -2753.15915        31.50015
G27  20419201.58115         9.48315        -3.77915        31.20015
G10  21972218.55014      3323.77914      1100.24014        28.70014
G02  24430875.55714      5253.53714      1743.95514        28.30014
G26  22260352.37913    -13078.28213     -4345.19413        18.60013
C11  21891332.14626     -4953.08426     -1658.06026        39.00026
R16  19970468.63226     -7529.97626     -2517.47126        36.00026
> 2025 05 08 10 57 54.9999999  0 8                      
G23  21296974.71125     -6131.41125     -1541.33325        32.00025
G16  20615249.95915    -10987.27015     -2756.01715        31.70015
G27  20418911.38215        11.51815        -4.08615        31.10015
G10  21971720.89414      4430.55014      1101.05514        28.60014
G02  24430258.28414      7004.83014      1745.79114        28.40014
G26  22260884.21113    -17410.75613     -4331.19113        18.40013
C11  21891364.22426     -6605.81726     -1659.07526        39.00026
R16  19970663.79726    -10098.01926     -2519.31526        36.00026
> 2025 05 08 10 57 56.0000000  0 8                      
G23  21297045.46225     -7667.61725     -1542.85325        32.10025
G16  20615552.75015    -13738.70715     -2758.55915        31.80015
G27  20418688.33615        13.32515        -4.22515        31.20015
G02  24429703.66814      8753.27814      1741.10614        28.50014
G10  21971283.49714      5534.98714      1097.35214        28.60014
G26  22261493.98813    -21733.81113     -4324.26013        18.70013
C11  21891456.56026     -8259.56526     -1660.11926        39.00026
R16  19970901.23326    -12569.75826     -2520.91726        36.00026
> 2025 05 08 10 57 57.0000000  0 8                      
G16  20615833.05615    -16489.38315     -2756.12915        32.00015
G23  21297095.52825     -9204.95825     -1543.74425        32.10025
G27  20418450.30115        14.64615        -4.75915        31.20015
G02  24429139.75814     10502.25114      1743.39714        28.50014
G10  21970844.90114      6639.35714      1098.50014        28.50014
G26  22262069.59013    -26057.01313     -4329.10613        19.50013
C11  21891538.40326     -9914.04626     -1660.62826        39.00026
R16  19971133.87226    -15078.24026     -2522.25026        36.00026
> 2025 05 08 10 57 57.9999999  0 8                      
G16  20616098.37215    -19241.33915     -2758.51215        32.10015
G23  21297136.00025    -10743.71425     -1545.37925        32.10025
G27  20418200.57415        11.43815       -11.38915        31.20015
G02  24428553.06514     12249.01414      1739.74014        28.70014
G10  21970385.61914      7740.54814      1093.68214        28.50014
G26  22262634.39913    -30386.14713     -4338.01613        20.10013
C11  21891607.65526    -11569.50426     -1661.81026        39.00026
R16  19971357.81726    -17603.50026     -2523.99426        36.00026
> 2025 05 08 10 57 59.0000000  0 8                      
G16  20616399.96325    -21994.49225     -2759.67625        32.10025
G23  21297208.84925    -12283.48325     -1546.20225        32.10025
G27  20417978.12815         8.78215        -8.30915        31.30015
G02  24427987.95614     13996.62214      1742.10014        29.00014
G10  21969942.22514      8843.17814      1097.42114        28.50014
G26  22263232.78513    -34721.59113     -4344.52313        20.70013
C11  21891699.99126    -13225.55626     -1662.22126        39.10026
R16  19971602.14826    -20114.21926     -2524.97326        35.90026
> 2025 05 08 10 57 59.9999999  0 8                      
G16  20616640.99625    -24748.72625     -2760.69125        32.30025
G23  21297212.14725    -13824.24025     -1547.16925        32.10025
G27  20417687.02915         5.75715        -9.12615        31.30015
G02  24427371.88214     15742.60814      1739.25614        29.10014
G10  21969449.36714      9946.22514      1097.33514        28.40014
G26  22263764.31713    -39060.42213     -4346.43813        21.70013
C11  21891733.56826    -14882.21926     -1662.83226        39.10026
R16  19971787.41926    -22627.99526     -2526.25926        35.90026
> 2025 05 08 10 58 00.9999998  0 8                      
G16  20616925.49925    -27504.33825     -2761.38425        32.40025
G23  21297270.30725    -15365.82325     -1547.83025        32.00025
G27  20417463.38415         1.04915       -11.38615        31.40015
G02  24426795.68114     17489.64514      1741.72614        29.30014
G10  21969000.27814     11046.94414      1093.71914        28.50014
G26  22264341.71713    -43397.93313     -4342.68413        22.40013
C11  21891815.11226    -16539.37026     -1663.17726        39.20026
R16  19972020.95826    -25141.82826     -2527.53026        35.80026
> 2025 05 08 10 58 02.0000000  0 8                      
G16  20617223.49325    -30260.62425     -2762.81625        32.60025
G23  21297335.66125    -16908.84825     -1549.69225        32.00025
G27  20417238.84015        -3.71215       -10.73515        31.50015
G02  24426244.66314     19234.64614      1738.03414        29.40014
G10  21968570.37514     12143.71814      1088.85514        28.60014
G26  22264936.20513    -47735.48513     -4343.51613        23.00013
C11  21891905.34926    -18197.33926     -1664.26726        39.20026
R16  19972273.68326    -27696.11326     -2529.02526        35.80026
> 2025 05 08 10 58 03.0000000  0 8                      
G16  20617509.79525    -33017.95325     -2763.68425        32.70025
G23  21297385.72715    -18452.25915     -1550.18715        32.00015
G27  20416997.20715        -8.88415       -11.21315        31.60015
G02  24425683.45115     20979.65015      1739.16915        29.60015
G10  21968129.38014     13239.58014      1089.57014        28.70014
G26  22265533.09213    -52074.70513     -4345.88513        23.40013
C11  21891989.29126    -19855.94126     -1664.70026        39.20026
R16  19972502.12426    -30183.19526     -2530.19526        35.70026
> 2025 05 08 10 58 03.9999998  0 8                      
G16  20617727.74425    -35776.36125     -2764.89125        32.80025
G27  20416684.22415       -15.83715       -13.78915        31.70015
G23  21297367.73925    -19997.67525     -1552.11425        31.90025
G02  24425029.30415     22724.56515      1738.92315        29.80015
G10  21967607.74214     14338.11514      1093.92414        28.80014
G26  22266048.43514    -56418.14714     -4351.49614        23.80014
C11  21891992.28926    -21515.48126     -1665.90026        39.20026
R16  19972656.21826    -32690.85626     -2531.90826        35.70026
> 2025 05 08 10 58 04.9999999  0 8                      
G16  20618049.42125    -38536.10225     -2766.24225        32.90025
G27  20416480.06515       -25.22515       -16.44115        31.70015
G23  21297452.88025    -21544.33425     -1553.11425        31.80025
G02  24424493.87515     24466.03315      1733.90715        30.00015
G10  21967187.43314     15435.24114      1090.58514        29.00014
G26  22266662.71014    -60759.63214     -4346.33814        24.10014
C11  21892105.91026    -23175.83126     -1666.53626        39.20026
R16  19972920.03526    -35205.45226     -2533.53226        35.60026
> 2025 05 08 10 58 05.9999999  0 8                      
G16  20618334.22425    -41297.23125     -2767.68425        32.90025
G27  20416242.92915       -33.48715       -13.56215        31.70015
G23  21297507.74215    -23093.18515     -1555.81015        31.70015
G02  24423924.56915     26209.27615      1738.26615        30.20015
G10  21966744.33914     16527.87814      1084.52814        29.10014
G26  22267254.20114    -65095.64814     -4339.14214        24.40014
C11  21892185.05626    -24837.13626     -1667.59026        39.20026
R16  19973159.86926    -37752.91526     -2534.99426        35.50026
> 2025 05 08 10 58 06.9999999  0 8                      
G16  20618618.42725    -44059.42525     -2768.58725        33.00025
G27  20416009.09115       -44.16015       -17.74215        31.80015
G23  21297562.90415    -24642.67615     -1555.67215        31.60015
G02  24423353.16415     27951.95115      1736.52615        30.30015
G10  21966292.85214     17620.47114      1086.70714        29.20014
G26  22267848.09014    -69434.89314     -4346.71914        24.60014
C11  21892268.69826    -26499.21426     -1668.27426        39.20026
R16  19973394.30726    -40271.33426     -2536.58426        35.50026
> 2025 05 08 10 58 07.9999999  0 8                      
G16  20618908.02725    -46822.46125     -2769.31825        33.10025
G27  20415779.15015       -52.68915       -13.32015        31.80015
G23  21297619.86515    -26194.65315     -1559.08215        31.50015
G02  24422785.65715     29694.84615      1737.14115        30.50015
G10  21965854.55514     18713.91414      1088.00314        29.40014
G26  22268422.49214    -73774.94714     -4346.31814        24.80014
C11  21892351.44026    -28161.78226     -1668.62226        39.20026
R16  19973645.23325    -42879.17725     -2537.32825        35.40025
> 2025 05 08 10 58 09.0000000  0 8                      
G16  20619212.31625    -49586.44225     -2770.39725        33.20025
G27  20415551.60815       -63.81515       -18.37115        31.90015
G23  21297693.01415    -27746.92915     -1558.37115        31.40015
G02  24422228.64315     31437.23315      1736.18415        30.70015
G10  21965415.06015     19806.50615      1086.22015        29.60015
G26  22269032.27014    -78117.55014     -4349.81914        25.00014
C11  21892445.27626    -29824.95026     -1669.35726        39.20026
R16  19973886.26625    -45370.02425     -2538.84825        35.40025
> 2025 05 08 10 58 10.0000001  0 8                      
G16  20619531.29625    -52351.09325     -2770.82125        33.20025
G27  20415349.24815       -74.15715       -15.78615        31.90015
G02  24421689.31615     33175.85715      1730.90715        31.00015
G23  21297780.55315    -29299.00115     -1557.80415        31.30015
G10  21965002.84515     20897.52315      1084.39315        29.80015
G26  22269642.34714    -82461.73014     -4350.80214        25.30014
C11  21892560.09626    -31488.45726     -1669.45926        39.20026
R16  19974153.68125    -47904.49325     -2539.42925        35.30025
> 2025 05 08 10 58 10.9999998  0 8                      
G16  20619724.96125    -55116.72025     -2771.97425        33.30025
G27  20415018.87715       -84.90715       -16.81715        31.90015
G02  24421035.46915     34917.64115      1737.49815        31.20015
G23  21297742.48015    -30851.18915     -1558.10815        31.20015
G10  21964474.61115     21987.86815      1084.14415        30.00015
G26  22270140.30314    -86807.95114     -4353.10014        25.50014
C11  21892551.40226    -33152.53126     -1670.16626        39.30026
R16  19974297.28225    -50420.61825     -2540.93525        35.30025
> 2025 05 08 10 58 11.9999999  0 8                      
G16  20620030.75025    -57882.98525     -2772.52925        33.40025
G27  20414798.82915       -97.46315       -19.40615        31.90015
G02  24420483.85115     36657.97915      1733.66815        31.30015
G23  21297808.43415    -32404.94215     -1560.47915        31.10015
G10  21964048.00615     23076.55715      1081.91515        30.20015
G26  22270743.48514    -91154.35914     -4352.44414        25.70014
C11  21892645.53726    -34816.89526     -1670.39926        39.30026
R16  19974546.40925    -52954.26625     -2541.59225        35.20025
> 2025 05 08 10 58 12.9999999  0 8                      
G16  20620324.24725    -60650.10525     -2773.38025        33.40025
G27  20414564.99125      -110.61625       -19.28725        31.90025
G02  24419910.04815     38398.34915      1734.54915        31.50015
G23  21297866.29415    -33957.87415     -1558.35715        31.00015
G10  21963602.51415     24165.79515      1083.67515        30.30015
G26  22271330.47914    -95498.27714     -4348.50414        25.90014
C11  21892729.47926    -36481.79826     -1670.95426        39.30026
R16  19974786.54325    -55504.78725     -2543.16725        35.20025
> 2025 05 08 10 58 14.0000000  0 8                      
G16  20620645.92425    -63418.39825     -2774.74225        33.50025
G27  20414356.63525      -124.53425       -20.16325        32.00025
G02  24419368.02315     40136.85415      1731.70715        31.60015
G23  21297959.82915    -35513.24315     -1562.44915        30.90015
G10  21963194.49715     25253.63815      1081.28215        30.40015
G26  22271948.35114    -99842.23714     -4349.84114        26.10014
C11  21892839.80226    -38147.45626     -1671.84626        39.30026
R16  19975055.75725    -58047.66325     -2544.41525        35.20025
> 2025 05 08 10 58 15.0000001  0 8                      
G16  20620942.11925    -66187.73125     -2775.79725        33.50025
G27  20414133.29025      -139.27825       -21.10325        32.00025
G02  24418808.01115     41874.97315      1731.97915        31.70015
G10  21962769.09115     26340.92015      1081.05515        30.50015
G23  21298025.48415    -37070.05315     -1563.47615        30.80015
G26  22272546.43714   -104188.42514     -4353.24614        26.20014
C11  21892935.43626    -39813.74726     -1672.49726        39.30026
R16  19975301.88625    -60567.55325     -2545.97925        35.30025
> 2025 05 08 10 58 15.9999998  0 8                      
G16  20621141.18125    -68958.24525     -2776.93725        33.70025
G27  20413818.80725      -155.06325       -22.14225        32.00025
G02  24418153.56415     43613.31915      1732.62115        31.80015
G10  21962233.96215     27427.96015      1081.08215        30.70015
G23  21297992.50715    -38627.83815     -1564.10715        30.80015
G26  22273045.89114   -108534.89014     -4352.43414        26.30014
C11  21892930.34026    -41480.93326     -1673.41526        39.30026
R16  19975452.38225    -63117.30925     -2547.51225        35.30025
> 2025 05 08 10 58 16.9999999  0 8                      
G16  20621464.35725    -71729.67525     -2777.75025        33.80025
G27  20413610.15225      -171.50825       -22.63725        32.00025
G02  24417615.73615     45350.70915      1731.04815        32.00015
G10  21961816.05115     28512.88915      1078.00915        30.80015
G23  21298093.53715    -40187.11415     -1565.88315        30.70015
G26  22273667.96114   -112880.69114     -4351.33014        26.30014
C11  21893041.86226    -43148.69826     -1673.86326        39.30026
R16  19975721.89525    -65663.24325     -2548.49825        35.40025
> 2025 05 08 10 58 17.9999999  0 9                      
G16  20621737.16825    -74502.35225     -2779.24425        33.90025
G02  24417033.24015     47086.96315      1729.73915        32.10015
G27  20413352.33025      -188.96725       -23.91225        32.00025
G10  21961350.47315     29596.87415      1077.56515        31.00015
G23  21298134.00915    -41747.53015     -1566.93115        30.60015
G08  22820360.49314      1651.25514      1645.45714        26.40014
G26  22274236.06714   -117229.93114     -4356.90114        26.40014
C11  21893106.91726    -44817.19126     -1674.74726        39.30026
R16  19975944.64125    -68217.52925     -2550.13325        35.40025
> 2025 05 08 10 58 19.0000000  0 9                      
G16  20622056.14825    -77276.10525     -2780.12525        34.00025
G02  24416496.31125     48821.94725      1729.26225        32.20025
G27  20413152.36925      -207.32225       -24.63925        32.00025
G10  21960931.06415     30680.92515      1078.24915        31.10015
G23  21298223.04715    -43308.45115     -1567.00815        30.60015
G26  22274856.93714   -121580.91614     -4357.69114        26.50014
G08  22819852.34514      3303.51014      1646.39014        26.40014
C11  21893220.53926    -46486.60826     -1675.66126        39.30026
R16  19976210.85726    -70746.64726     -2551.48226        35.50026
> 2025 05 08 10 58 20.0000000  0 9                      
G16  20622355.04125    -80051.10625     -2781.48625        34.10025
G02  24415924.30725     50556.70325      1728.52625        32.30025
G27  20412912.83525      -226.63325       -25.65225        32.00025
G10  21960493.06715     31762.15915      1073.96015        31.20015
G23  21298288.70215    -44871.36715     -1569.77515        30.60015
G26  22275450.82614   -125933.49914     -4359.24114        26.60014
G08  22819291.73314      4957.55114      1649.07014        26.30014
C11  21893304.18126    -48156.80326     -1676.39326        39.30026
R16  19976447.09326    -73274.23826     -2553.07226        35.50026
> 2025 05 08 10 58 21.0000001  0 10                      
G16  20622652.43525    -82827.24225     -2782.64625        34.20025
G02  24415370.29125     52290.77625      1727.78425        32.30025
G27  20412687.69025      -246.89625       -26.68625        32.00025
G10  21960062.26515     32842.63715      1074.15415        31.30015
G23  21298360.65215    -46433.97915     -1568.40515        30.60015
G26  22276060.00514   -130285.85114     -4358.17914        26.60014
G08  22818764.69814      6608.72014      1643.78614        26.20014
C11  21893400.11426    -49827.65826     -1677.07526        39.30026
R16  19976706.41426    -75862.91726     -2554.53626        35.60026
R18  19570099.40215    -30297.87415     -1034.45315        29.80015
> 2025 05 08 10 58 21.9999998  0 10                      
G16  20622853.89525    -85604.52225     -2783.68725        34.30025
G02  24414711.34725     54024.08425      1727.08925        32.40025
G27  20412370.81025      -268.16925       -27.61225        32.00025
G10  21959528.63515     33922.15515      1073.20115        31.30015
G23  21298336.36915    -47998.08515     -1570.68815        30.60015
G26  22276559.45914   -134633.33814     -4350.88614        26.70014
G08  22818116.84614      8261.60814      1647.91014        26.10014
C11  21893394.11926    -51499.46626     -1678.06726        39.30026
R16  19976861.70626    -78439.42526     -2555.97226        35.70026
R18  19569971.99015    -31362.60215     -1032.32915        29.80015
> 2025 05 08 10 58 22.9999999  0 10                      
G16  20623176.47225    -88382.67225     -2784.44625        34.40025
G02  24414175.31825     55756.74525      1726.47225        32.50025
G27  20412166.95125      -290.14825       -28.19625        32.00025
G10  21959111.92315     35001.83415      1073.89515        31.40015
G23  21298429.00415    -49563.61515     -1572.10415        30.50015
G26  22277176.73114   -138984.81814     -4359.33614        26.80014
G08  22817587.11314      9911.62214      1642.71114        26.00014
C11  21893506.54126    -53171.84126     -1678.46626        39.30026
R16  19977124.92426    -80954.02126     -2557.11926        35.80026
R18  19569947.70715    -32339.45915     -1033.19315        29.70015
> 2025 05 08 10 58 24.0000000  0 10                      
G16  20623478.96325    -91162.10725     -2786.02125        34.50025
G02  24413620.70225     57488.96925      1726.05925        32.60025
G27  20411947.20325      -312.98725       -29.21425        32.00025
G10  21958680.22215     36080.24815      1071.83515        31.50015
G23  21298502.15415    -51132.00115     -1575.75915        30.50015
G26  22277779.01514   -143337.41214     -4359.09314        27.00014
G08  22817040.89114     11561.03014      1643.15814        25.90014
C11  21893603.67426    -54844.93826     -1679.35026        39.30026
R16  19977383.34526    -83538.11426     -2558.54026        35.90026
R18  19569932.71715    -33463.66315     -1034.27515        29.50015
> 2025 05 08 10 58 25.0000000  0 10                      
G16  20623771.56025    -93942.60925     -2786.86825        34.50025
G02  24413054.69425     59220.31525      1725.07025        32.60025
G27  20411711.86625      -336.84725       -30.20825        32.00025
G10  21958233.23115     37156.45915      1069.27315        31.50015
G23  21298565.41015    -52700.50415     -1574.39615        30.50015
G26  22278364.50914   -147691.47214     -4360.62614        27.10014
G08  22816492.87114     13209.18214      1641.68814        25.90014
C11  21893689.71426    -56518.81526     -1680.04826        39.20026
R16  19977621.38126    -86076.40526     -2560.09126        35.90026
R18  19569874.55814    -34418.37514     -1035.06414        29.40014
> 2025 05 08 10 58 26.0000001  0 10                      
G16  20624081.84525    -96723.58125     -2787.15125        34.60025
G02  24412500.07825     60951.63125      1725.35225        32.60025
G27  20411485.52325      -360.90925       -30.10825        32.00025
G10  21957794.63515     38232.81815      1070.48615        31.50015
G23  21298630.76515    -54269.30215     -1574.89015        30.50015
G26  22278965.29314   -152047.32814     -4362.69514        27.40014
G08  22815968.83314     14856.29814      1640.65014        25.80014
C11  21893784.44826    -58192.88526     -1680.05726        39.20026
R16  19977878.30326    -88652.09126     -2560.47926        36.00026
R18  19569863.76514    -35563.20614     -1038.57314        29.30014
> 2025 05 08 10 58 26.9999998  0 10                      
G16  20624283.60625    -99505.72925     -2788.56925        34.70025
G02  24411846.53025     62682.26425      1724.45625        32.70025
G27  20411161.14725      -385.90325       -31.29625        31.90025
G10  21957263.10315     39308.13315      1068.95615        31.50015
G23  21298595.08915    -55839.13815     -1576.19015        30.50015
G26  22279477.03914   -156402.17514     -4360.17514        27.50014
G08  22815326.67814     16505.21614      1643.98114        25.70014
C11  21893777.55326    -59867.59126     -1680.80526        39.20026
R16  19978018.60626    -91147.58026     -2562.12326        36.00026
R18  19569715.66814    -36517.91314     -1037.04114        29.10014
> 2025 05 08 10 58 27.9999999  0 10                      
G16  20624605.28325   -102288.75025     -2789.31825        34.70025
G02  24411306.90425     64412.41825      1724.04925        32.70025
G27  20410964.18425      -411.67325       -32.02125        31.90025
G10  21956858.08315     40381.42215      1066.41215        31.60015
G23  21298689.52415    -57410.82515     -1578.47415        30.50015
G26  22280096.11014   -160758.81514     -4363.39714        27.70014
G08  22814799.94314     18155.35314      1644.88314        25.70014
C11  21893893.27326    -61542.96526     -1681.51626        39.10026
R16  19978298.31226    -93748.54526     -2563.28526        36.00026
R18  19569703.97614    -37561.21514     -1042.40014        29.00014
> 2025 05 08 10 58 29.0000000  0 10                      
G16  20624908.67325   -105072.97125     -2790.76525        34.70025
G02  24410754.68625     66141.83125      1723.09525        32.70025
G27  20410741.43825      -438.27525       -32.96625        31.90025
G10  21956431.17915     41453.76915      1065.93015        31.60015
G23  21298757.87715    -58983.51815     -1579.14115        30.50015
G26  22280701.99114   -165120.59114     -4370.28614        27.70014
G08  22814251.92214     19804.23214      1642.30214        25.60014
C11  21893988.30726    -63219.11826     -1682.43326        39.10026
R16  19978545.34126    -96272.25826     -2565.01926        36.10026
R18  19569665.30314    -38557.87314     -1035.05614        29.00014
> 2025 05 08 10 58 30.0000000  0 10                      
G16  20625202.17025   -107858.30525     -2791.72325        34.70025
G02  24410184.18125     67870.61225      1722.62925        32.70025
G27  20410512.09715      -465.71915       -33.69915        31.90015
G10  21955980.59115     42525.75815      1065.97215        31.60015
G23  21298818.13515    -60557.52015     -1580.49015        30.50015
G26  22281295.58014   -169480.76714     -4365.20714        27.80014
G08  22813695.20714     21448.73614      1636.47914        25.60014
C11  21894074.94726    -64896.04726     -1683.09826        39.10026
R16  19978784.87526    -98817.42726     -2566.12426        36.10026
R18  19569633.22514    -39652.35014     -1044.65714        28.90014
> 2025 05 08 10 58 31.0000000  0 10                      
G16  20625492.96825   -110644.46925     -2792.44125        34.70025
G02  24409620.57125     69598.82925      1722.07025        32.70025
G27  20410289.05125      -494.02125       -34.59525        31.90025
G10  21955546.79115     43597.54315      1065.82015        31.60015
G23  21298881.39115    -62133.65415     -1583.06215        30.50015
G26  22281884.67214   -173838.44814     -4362.29414        28.00014
G08  22813145.98814     23092.60714      1637.69014        25.50014
C11  21894159.78926    -66573.44226     -1683.43726        39.00026
R16  19979037.00026   -101430.62126     -2567.35426        36.10026
R18  19569595.15114    -40713.98814     -1038.91514        28.80014
> 2025 05 08 10 58 31.9999998  0 10                      
G16  20625707.32025   -113431.52525     -2793.44625        34.70025
G02  24408975.41825     71326.68625      1721.72925        32.60025
G27  20409976.66725      -522.72825       -34.85625        31.90025
G10  21955027.85015     44670.27015      1067.25015        31.60015
G23  21298878.99315    -63709.32115     -1581.37815        30.50015
G26  22282408.41014   -178196.18514     -4363.70714        28.10014
G08  22812520.02114     24737.24414      1639.07314        25.40014
C11  21894166.38426    -68251.33126     -1684.02626        39.00026
R16  19979193.79226   -103952.80526     -2568.54426        36.10026
R18  19569480.03114    -41783.20514     -1042.47414        28.80014
> 2025 05 08 10 58 32.9999999  0 10                      
G16  20626028.99725   -116219.20225     -2793.82025        34.70025
G02  24408441.18825     73054.89325      1721.79525        32.60025
G27  20409777.60515      -552.19015       -35.67415        31.80015
G10  21954620.13315     45742.38815      1065.97715        31.60015
G23  21298962.03515    -65284.64115     -1580.98315        30.50015
G26  22283021.18514   -182554.79514     -4364.88014        28.20014
G08  22812002.57914     26384.46914      1642.68114        25.30014
C11  21894279.10626    -69929.66226     -1684.33326        38.90026
R16  19979464.50526   -106504.85326     -2569.44526        36.20026
R18  19569432.36414    -42634.80014     -1039.99214        28.70014
> 2025 05 08 10 58 34.0000000  0 10                      
G16  20626332.68725   -119007.80925     -2795.01625        34.70025
G02  24407881.47525     74782.04025      1720.92025        32.50025
G10  21954189.03115     46812.16015      1062.65315        31.60015
G27  20409555.45925      -582.05825       -36.01825        31.80025
G23  21299043.27915    -66859.79615     -1581.01615        30.50015
G26  22283631.56314   -186913.60014     -4364.84414        28.50014
G08  22811451.26114     28032.23414      1642.08914        25.30014
C11  21894377.13826    -71608.30126     -1684.68426        38.90026
R16  19979721.12726   -109082.06826     -2570.62526        36.30026
R18  19569413.47714    -43737.62414     -1045.47414        28.60014
> 2025 05 08 10 58 35.0000000  0 10                      
G16  20626626.48425   -121796.93525     -2795.21925        34.70025
G02  24407322.06325     76509.16825      1721.28125        32.50025
G10  21953752.23415     47881.25515      1062.92115        31.70015
G27  20409318.62325      -612.38525       -36.39225        31.80025
G23  21299113.43115    -68438.09615     -1585.70715        30.50015
G26  22284230.84814   -191273.78014     -4366.69914        28.80014
G08  22810902.94014     29678.89014      1640.26414        25.20014
C11  21894463.47826    -73287.24126     -1684.87126        38.80026
R16  19979966.65726   -111660.10426     -2571.22926        36.30026
R18  19569389.79314    -44877.92914     -1044.95214        28.50014
> 2025 05 08 10 58 36.0000000  0 10                      
G16  20626922.37925   -124586.76325     -2796.03925        34.70025
G02  24406755.15525     78235.94025      1720.72925        32.50025
G10  21953305.24315     48952.27315      1066.11415        31.70015
G27  20409085.68425      -643.15725       -36.85725        31.70025
G23  21299179.68515    -70018.14515     -1586.78515        30.50015
G26  22284823.83714   -195634.99314     -4367.59014        29.20014
G08  22810357.61814     31327.43014      1643.61814        25.00014
C11  21894548.61926    -74966.48526     -1685.20526        38.70026
R16  19980216.98426   -114262.59726     -2572.22726        36.40026
R18  19569333.43214    -45841.79714     -1044.38214        28.50014
> 2025 05 08 10 58 36.9999998  0 10                      
G16  20627134.93225   -127377.08125     -2796.50625        34.70025
G02  24406110.90125     79962.35525      1721.03925        32.50025
G10  21952794.99615     50022.47115      1063.84215        31.70015
G27  20408784.39325      -674.12525       -37.01325        31.70025
G23  21299162.59715    -71597.47615     -1584.91715        30.60015
G26  22285343.67815   -199996.09615     -4366.98915        29.60015
G08  22809733.15014     32973.19214      1638.42514        24.90014
C11  21894555.81426    -76645.81326     -1685.26126        38.70026
R16  19980380.97026   -116822.99726     -2572.92426        36.50026
R18  19569215.31414    -46894.21414     -1041.65114        28.40014
> 2025 05 08 10 58 37.9999999  0 10                      
G16  20627462.30525   -130167.90225     -2796.90625        34.70025
G02  24405580.86825     81688.87925      1720.49225        32.40025
G10  21952386.37915     51091.60815      1062.77015        31.80015
G27  20408579.63425      -705.48425       -37.39025        31.60025
G23  21299257.63115    -73176.48615     -1584.68415        30.70015
G26  22285963.04915   -204358.11815     -4368.31515        29.90015
G08  22809211.81114     34617.23714      1637.35114        24.80014
C11  21894671.23526    -78325.46026     -1685.58826        38.60026
R16  19980645.68726   -119343.70826     -2573.92326        36.50026
R18  19569196.12714    -47897.80014     -1045.87214        28.30014
> 2025 05 08 10 58 39.0000000  0 10                      
G16  20627762.09725   -132959.27925     -2797.60025        34.70025
G02  24405028.05125     83415.47225      1720.67925        32.40025
G10  21951955.57715     52159.13515      1060.77615        32.00015
G27  20408358.08825      -737.25725       -37.92525        31.60025
G23  21299331.68015    -74755.03215     -1584.25715        30.90015
G26  22286572.52715   -208718.77615     -4365.91715        30.20015
G08  22808675.18314     36264.99414      1643.66514        24.60014
C11  21894769.86626    -80005.21526     -1685.69926        38.60026
R16  19980899.01126   -121900.28726     -2574.72326        36.50026
R18  19569186.83414    -49050.26814     -1043.39014        28.30014
> 2025 05 08 10 58 40.0000000  0 10                      
G16  20628054.09525   -135751.45925     -2798.41425        34.60025
G02  24404462.04225     85141.62825      1720.10025        32.30025
G10  21951515.78225     53226.48225      1061.42125        32.10025
G27  20408132.34425      -769.39225       -38.15225        31.50025
G23  21299394.93615    -76334.54615     -1585.83315        31.00015
G26  22287165.21715   -213082.65615     -4371.32415        30.30015
G08  22808132.85814     37914.27114      1644.20014        24.40014
C11  21894857.10626    -81685.40226     -1686.18426        38.60026
R16  19981147.83926   -124495.90126     -2575.70826        36.60026
R18  19569137.06814    -50050.80414     -1043.82414        28.20014
> 2025 05 08 10 58 41.0000001  0 10                      
G16  20628358.08525   -138544.52225     -2799.44925        34.60025
G10  21951091.57625     54293.16525      1060.40425        32.20025
G02  24403913.42225     86867.37625      1719.59625        32.30025
G27  20407909.59825      -802.31025       -39.25525        31.50025
G23  21299470.18415    -77915.45315     -1587.54815        31.10015
G26  22287771.69715   -217445.71815     -4368.59415        30.40015
G08  22807589.93414     39560.90214      1639.36114        24.30014
C11  21894951.84026    -83366.01626     -1686.71926        38.60026
R16  19981403.26226   -127065.47326     -2577.29926        36.60026
R18  19569109.78714    -51108.56214     -1045.09714        28.20014
> 2025 05 08 10 58 41.9999998  0 10                      
G16  20628564.04225   -141338.53625     -2800.32225        34.60025
G10  21950565.74025     55358.88725      1059.40425        32.30025
G02  24403257.47625     88592.53525      1719.02825        32.20025
G27  20407591.21915      -836.27115       -40.31815        31.50015
G23  21299448.59915    -79498.84315     -1590.46615        31.20015
G26  22288267.55315   -221807.55315     -4367.05315        30.60015
G08  22806943.28214     41205.38414      1637.57114        24.10014
C11  21894947.94326    -85047.31626     -1687.42426        38.50026
R16  19981555.25726   -129622.87226     -2578.33026        36.70026
R18  19568980.57714    -52163.32214     -1044.43414        28.10014
> 2025 05 08 10 58 42.9999999  0 10                      
G16  20628880.02425   -144133.35525     -2801.16625        34.60025
G10  21950140.93425     56424.08925      1058.99625        32.40025
G02  24402706.15825     90317.33125      1718.66725        32.20025
G27  20407377.76615      -871.12715       -41.25015        31.50015
G23  21299523.24715    -81082.67915     -1590.00315        31.20015
G26  22288881.22915   -226170.63415     -4369.64715        30.70015
G08  22806416.24714     42850.02514      1638.77314        23.90014
C11  21895045.67526    -86729.13126     -1687.96326        38.50026
R16  19981822.37226   -132253.59026     -2579.50626        36.80026
R18  19568948.19914    -53193.59014     -1045.70914        28.10014
> 2025 05 08 10 58 43.9999999  0 10                      
G16  20629172.92125   -146929.40025     -2802.49125        34.60025
G10  21949699.33925     57488.21425      1057.74925        32.50025
G02  24402136.55225     92041.46025      1717.95725        32.20025
G23  21299589.50115    -82667.34115     -1590.91015        31.30015
G27  20407139.13215      -905.91615       -40.59115        31.40015
G26  22289470.32115   -230535.08315     -4370.96615        30.80015
G08  22805857.13414     44494.30614      1638.26414        23.80014
C11  21895132.01626    -88411.69626     -1688.72126        38.60026
R16  19982064.00526   -134811.75326     -2580.92726        36.80026
R18  19568910.12514    -54256.75314     -1050.42814        28.10014
> 2025 05 08 10 58 45.0000000  0 10                      
G16  20629478.70925   -149725.88525     -2802.64825        34.50025
G10  21949269.43725     58551.96925      1057.62425        32.60025
G02  24401580.43725     93765.52125      1718.08025        32.10025
G23  21299665.64815    -84254.00915     -1593.61515        31.30015
G27  20406929.57715      -940.87915       -40.99615        31.40015
G26  22290071.10515   -234900.40915     -4371.70615        31.00015
G08  22805325.90114     46135.74414      1634.07014        23.70014
C11  21895228.84826    -90094.41926     -1688.69326        38.60026
R16  19982314.93126   -137356.10226     -2581.63326        36.90026
R18  19568883.14414    -55316.03814     -1045.57114        28.10014
> 2025 05 08 10 58 46.0000001  0 10                      
G16  20629804.28425   -152523.20825     -2803.57725        34.50025
G10  21948854.82425     59615.07625      1056.94725        32.70025
G02  24401043.50925     95489.03625      1717.40525        32.10025
G23  21299761.28215    -85841.29615     -1593.43215        31.30015
G27  20406728.11615      -976.40815       -41.64815        31.30015
G26  22290697.37115   -239266.98315     -4373.03015        31.00015
G08  22804811.75714     47774.08214      1630.95014        23.50014
C11  21895343.66926    -91777.52226     -1689.07326        38.60026
R16  19982597.63626   -139973.88126     -2582.70826        36.90026
R18  19568864.25714    -56321.15814     -1049.10714        28.00014
> 2025 05 08 10 58 46.9999998  0 10                      
G16  20630009.04225   -155321.23525     -2804.23925        34.50025
G10  21948337.08225     60677.59325      1056.35725        32.70025
G02  24400390.56125     97212.40525      1717.43125        32.10025
G23  21299732.20215    -87427.44315     -1591.43815        31.40015
G26  22291207.01815   -243633.84715     -4372.86915        31.10015
G27  20406409.13715     -1014.42815       -45.12915        31.30015
G08  22804187.29013     49409.97113      1628.80013        23.40013
C11  21895343.66926    -93461.08626     -1689.60326        38.60026
R16  19982747.83226   -142522.87226     -2583.65926        37.00026
R18  19568727.85214    -57339.25314     -1051.22114        28.00014
> 2025 05 08 10 58 47.9999999  0 10                      
G16  20630319.92725   -158119.98325     -2805.05225        34.50025
G10  21947911.67725     61739.44125      1055.56725        32.80025
G02  24399832.04825     98935.42325      1716.89625        32.10025
G23  21299802.65315    -89014.65015     -1593.68215        31.40015
G26  22291813.79815   -247999.36415     -4370.78615        31.20015
G27  20406184.89215     -1052.42215       -43.92815        31.20015
G08  22803659.95513     51044.55213      1627.98013        23.30013
C11  21895440.80226    -95144.97426     -1689.94126        38.60026
R16  19983003.25526   -145090.91526     -2584.91426        37.00026
R18  19568699.67114    -58390.90514     -1047.72514        27.90014
> 2025 05 08 10 58 48.9999999  0 10                      
G16  20630611.62525   -160919.44525     -2805.65225        34.40025
G10  21947464.38725     62800.97025      1055.53325        32.90025
G02  24399262.14225    100658.27525      1716.93125        32.00025
G23  21299882.09815    -90603.72215     -1595.83915        31.40015
G26  22292401.69115   -252365.10215     -4371.68015        31.30015
G27  20405959.74815     -1092.10715       -46.36515        31.20015
G08  22803107.73713     52682.59613      1633.93813        23.20013
C11  21895527.44226    -96829.11826     -1690.05426        38.60026
R16  19983245.48726   -147651.37126     -2585.62026        37.00026
R18  19568670.29114    -59499.89414     -1051.72614        27.90014
> 2025 05 08 10 58 50.0000000  0 10                      
G16  20630914.11525   -163719.41725     -2806.17025        34.40025
G10  21947034.18425     63861.86225      1054.62625        33.00025
G02  24398712.92325    102380.98425      1716.69025        32.00025
G23  21299959.44515    -92191.38315     -1592.90115        31.40015
G26  22293012.06915   -256730.05615     -4370.50515        31.40015
G27  20405741.19915     -1128.99715       -41.43815        31.10015
G08  22802567.21113     54321.07913      1632.75513        23.10013
C11  21895624.87426    -98513.55526     -1690.47326        38.60026
R16  19983509.60426   -150266.80226     -2586.53426        37.00026
R18  19568633.71714    -60508.77614     -1054.44914        27.80014
> 2025 05 08 10 58 51.0000001  0 10                      
G16  20631239.99025   -166520.18325     -2806.99725        34.40025
G10  21946629.46525     64922.36825      1054.47725        33.10025
G02  24398182.88925    104103.32525      1716.32025        31.90025
G23  21300050.28215    -93782.35215     -1598.45615        31.50015
G26  22293650.02715   -261095.76415     -4371.91715        31.40015
G27  20405540.33815     -1167.15815       -44.63315        31.00015
G08  22802044.07313     55957.22813      1629.14613        23.10013
C11  21895742.39326   -100198.34226     -1690.74426        38.60026
R16  19983790.80926   -152873.88126     -2587.48126        37.00026
R18  19568606.13614    -61466.53714     -1054.61814        27.60014
> 2025 05 08 10 58 51.9999999  0 10                      
G16  20631460.63725   -169321.23025     -2807.13125        34.30025
G10  21946103.62925     65982.38325      1053.82225        33.10025
G02  24397539.23525    105825.69025      1716.42825        31.90025
G23  21300037.39115    -95372.85715     -1596.21815        31.50015
G27  20405235.74915     -1206.48815       -45.86015        31.00015
G26  22294163.87215   -265460.26115     -4369.83315        31.30015
G08  22801424.40213     57598.93713      1638.54113        23.20013
C11  21895751.98626   -101883.20926     -1690.79826        38.60026
R16  19983955.99526   -155441.92526     -2588.32826        37.10026
R18  19568479.02414    -62471.59414     -1054.65414        27.50014
> 2025 05 08 10 58 52.9999999  0 10                      
G16  20631758.03125   -172123.27925     -2808.38425        34.30025
G10  21945664.73225     67041.70425      1053.13825        33.10025
G02  24396972.02825    107547.54525      1715.76425        31.90025
G23  21300104.24515    -96963.83615     -1597.05015        31.60015
G27  20405004.90915     -1246.65415       -46.41915        30.90015
G26  22294747.26815   -269829.42115     -4377.32415        31.10015
G08  22800874.28313     59241.69413      1637.44413        23.30013
C11  21895837.72726   -103568.52326     -1691.31926        38.50026
R16  19984196.72826   -157993.97326     -2589.35826        37.10026
R18  19568453.24214    -63598.14714     -1050.35714        27.30014
> 2025 05 08 10 58 54.0000000  0 10                      
G16  20632073.11325   -174925.63625     -2808.45525        34.30025
G10  21945238.12825     68100.88225      1053.16025        33.20025
G02  24396411.71625    109269.63725      1716.26325        31.80025
G23  21300175.29515    -98556.31115     -1599.16815        31.60015
G27  20404788.45915     -1286.27015       -45.28715        30.90015
G26  22295352.84815   -274197.85615     -4374.01615        31.00015
G08  22800324.16413     60886.82113      1640.36513        23.30013
C11  21895936.05926   -105253.86726     -1691.24926        38.50026
R16  19984460.24626   -160604.81826     -2589.85026        37.10026
R18  19568418.76614    -64616.95514     -1051.12614        27.10014
> 2025 05 08 10 58 55.0000000  0 10                      
G16  20632372.30625   -177728.79925     -2809.40025        34.30025
G10  21944804.32825     69159.53825      1052.55725        33.30025
G02  24395851.40425    110991.35025      1715.68625        31.80025
G23  21300243.64815   -100148.78415     -1598.30615        31.60015
G27  20404562.41515     -1326.58415       -46.50015        31.00015
G26  22295952.13415   -278564.24215     -4371.19315        30.90015
G08  22799780.64013     62528.50713      1634.12913        23.30013
C11  21896022.09926   -106939.59526     -1691.70126        38.50026
R16  19984703.97726   -163173.68226     -2591.19426        37.10026
R18  19568372.59814    -65637.34814     -1055.12314        27.00014
> 2025 05 08 10 58 55.9999999  0 10                      
G16  20632615.13825   -180532.05425     -2809.24325        34.20025
G10  21944312.96815     70217.02415      1050.95415        33.30015
G02  24395235.33025    112713.01825      1715.69825        31.80025
G23  21300270.33015   -101742.97015     -1600.98815        31.60015
G27  20404282.70915     -1365.99315       -44.90115        31.10015
G26  22296484.56515   -282932.31915     -4374.86515        30.70015
G08  22799173.86014     64168.80014      1633.64914        23.60014
C11  21896061.67226   -108625.33526     -1691.63626        38.50026
R16  19984904.83826   -165770.00426     -2591.59226        37.10026
R18  19568290.75414    -66723.37014     -1053.64614        26.90014
> 2025 05 08 10 58 56.9999999  0 10                      
G16  20632908.93415   -183336.06415     -2810.97215        34.20015
G10  21943890.86015     71274.50415      1051.64115        33.20015
G02  24394678.61525    114434.39425      1715.39325        31.80025
G23  21300335.08515   -103336.59215     -1599.17415        31.60015
G27  20404056.66615     -1406.33815       -46.65015        31.10015
G26  22297081.15215   -287300.69915     -4374.36415        30.70015
G08  22798623.44114     65808.19014      1633.10114        24.00014
C11  21896145.91426   -110311.57526     -1692.27226        38.50026
R16  19985155.76526   -168378.61326     -2592.94226        37.10026
R18  19568254.77914    -67798.75214     -1055.23414        26.80014
> 2025 05 08 10 58 58.0000000  0 10                      
G16  20633221.01825   -186140.81325     -2810.81225        34.10025
G10  21943461.85725     72331.60925      1050.97125        33.10025
G02  24394124.89925    116155.64325      1715.23825        31.80025
G23  21300416.32915   -104928.69815     -1597.29215        31.60015
G27  20403837.21715     -1448.51815       -49.04215        31.20015
G26  22297689.13115   -291670.57915     -4376.57115        30.60015
G08  22798088.91114     67443.39614      1627.16714        24.00014
C11  21896247.54326   -111997.90726     -1692.26826        38.50026
R16  19985418.68326   -170987.16526     -2593.49626        37.10026
R18  19568210.11014    -68762.56314     -1054.09314        26.80014
> 2025 05 08 10 58 59.0000001  0 10                      
G16  20633532.20325   -188946.14125     -2811.53325        34.00025
G10  21943034.65325     73388.50225      1050.86825        33.10025
G02  24393574.48025    117876.93425      1715.39325        31.70025
G23  21300494.27515   -106523.70115     -1602.36915        31.60015
G27  20403618.96915     -1490.88415       -48.37815        31.20015
G26  22298287.21715   -296039.51515     -4374.38015        30.50015
G08  22797543.28914     69073.06914      1620.98714        24.00014
C11  21896341.67826   -113684.47926     -1692.55626        38.40026
R16  19985673.50626   -173552.15026     -2594.39526        37.10026
R18  19568181.03014    -69809.63314     -1053.63414        26.70014
> 2025 05 08 10 58 59.9999998  0 10                      
G16  20633736.66125   -191752.04925     -2812.03125        34.00025
G10  21942500.12325     74444.86725      1050.26425        33.10025
G02  24392920.93225    119597.97125      1715.07125        31.70025
G23  21300469.39215   -108120.84315     -1604.04615        31.50015
G27  20403290.39615     -1534.66615       -50.32615        31.20015
G26  22298795.66515   -300409.27915     -4376.01015        30.40015
G08  22796897.83614     70705.72514      1628.31114        24.00014
C11  21896340.47926   -115371.14226     -1692.48826        38.40026
R16  19985834.19526   -176157.70226     -2595.34226        37.10026
R18  19568057.21614    -70895.71014     -1054.84514        26.70014
> 2025 05 08 10 59 00.9999998  0 10                      
G16  20634040.05125   -194558.89725     -2812.51125        34.00025
G10  21942076.51725     75501.10525      1050.22725        33.10025
G02  24392368.41525    121319.00825      1715.09125        31.70025
G23  21300551.53515   -109715.62915     -1599.55215        31.50015
G27  20403073.94615     -1577.11815       -47.73315        31.20015
G26  22299409.94015   -304780.65615     -4378.12515        30.40015
G08  22796367.80314     72342.76114      1633.28014        24.00014
C11  21896437.31226   -117058.05826     -1692.93426        38.40026
R16  19986086.32026   -178708.92926     -2595.85026        37.20026
R18  19568023.63914    -71918.33414     -1055.40514        26.60014
> 2025 05 08 10 59 01.9999999  0 10                      
G16  20634336.54625   -197365.89325     -2813.15425        33.90025
G10  21941636.12125     76556.72125      1049.47025        33.10025
G02  24391803.30625    123039.83625      1714.88625        31.70025
G23  21300610.89415   -111312.47715     -1603.71515        31.40015
G27  20402841.30715     -1619.62415       -48.36915        31.20015
G26  22300003.82915   -309150.32915     -4374.65215        30.50015
G08  22795817.38414     73987.33514      1642.50514        24.00014
C11  21896525.15126   -118745.12426     -1692.92226        38.40026
R16  19986333.34926   -181294.60726     -2596.86726        37.20026
R18  19567984.96614    -72978.44014     -1050.73514        26.60014
> 2025 05 08 10 59 03.0000000  0 10                      
G16  20634650.72925   -200173.16125     -2813.34825        33.90025
G10  21941215.81225     77612.21625      1049.48725        33.10025
G02  24391251.08825    124760.69025      1714.91825        31.70025
G27  20402627.85515     -1662.40915       -48.87015        31.20015
G23  21300697.83415   -112911.95115     -1606.73115        31.40015
G26  22300605.51215   -313523.17515     -4380.37615        30.50015
G08  22795281.95514     75633.96014      1641.70214        24.00014
C11  21896623.78326   -120432.26126     -1693.06226        38.30026
R16  19986591.47126   -183876.40926     -2597.62826        37.20026
R18  19567969.67614    -74098.83314     -1053.06314        26.60014
> 2025 05 08 10 59 04.0000001  0 10                      
G16  20634975.40425   -202981.19225     -2814.24625        33.90025
G10  21940801.79925     78667.14725      1048.81225        33.20025
G02  24390706.66525    126481.52525      1714.99025        31.80025
G27  20402432.39015     -1703.84115       -46.59215        31.20015
G23  21300785.07315   -114511.49815     -1605.41815        31.30015
G26  22301227.58115   -317896.30215     -4379.10015        30.50015
G08  22794766.31214     77278.29714      1637.35614        24.00014
C11  21896741.60126   -122119.57426     -1693.18326        38.30026
R16  19986876.57326   -186506.41826     -2598.26726        37.20026
R18  19567950.19014    -75100.89214     -1054.98514        26.60014
> 2025 05 08 10 59 04.9999999  0 10                      
G16  20635197.85025   -205789.41425     -2814.26025        33.80025
G10  21940292.15225     79721.82625      1048.60725        33.30025
G02  24390061.51225    128202.27925      1714.76525        31.90025
G27  20402123.90415     -1745.26915       -47.37115        31.20015
G23  21300773.98115   -116110.62215     -1604.85815        31.20015
G26  22301739.32715   -322264.83615     -4372.18115        30.50015
G08  22794128.95314     78921.71114      1637.00614        23.90014
C11  21896750.29526   -123806.96526     -1693.32026        38.30026
R16  19987048.05526   -189106.56226     -2599.09326        37.20026
R18  19567811.38614    -76043.32214     -1055.14714        26.50014
> 2025 05 08 10 59 05.9999999  0 10                      
G16  20635498.84125   -208598.31025     -2815.06825        33.80025
G10  21939852.65625     80776.00925      1048.09825        33.30025
G02  24389503.29825    129922.91625      1714.74125        32.00025
G27  20401899.95915     -1787.99115       -49.20615        31.20015
G26  22302338.91215   -326637.17615     -4380.07415        30.50015
G23  21300840.23515   -117711.21115     -1607.15615        31.10015
G08  22793583.03114     80559.07714      1628.50414        23.90014
C11  21896837.23526   -125494.57226     -1693.49726        38.30026
R16  19987298.38126   -191710.58526     -2599.98226        37.10026
R18  19567782.90614    -77156.89114     -1054.04914        26.50014
> 2025 05 08 10 59 07.0000000  0 10                      
G16  20635802.83125   -211407.91025     -2815.89525        33.80025
G10  21939430.84825     81829.75025      1047.57325        33.40025
G02  24388954.37825    131643.20325      1714.16525        32.00025
G27  20401679.91115     -1831.32915       -49.59115        31.20015
G26  22302948.39015   -331009.61815     -4378.43515        30.70015
G23  21300922.67815   -119309.67015     -1603.33815        30.90015
G08  22793042.20514     82190.68714      1622.78514        23.80014
C11  21896938.26526   -127182.54326     -1694.04326        38.30026
R16  19987555.00426   -194287.03526     -2601.01826        37.10026
R18  19567730.74214    -78082.51714     -1053.01914        26.40014
> 2025 05 08 10 59 08.0000000  0 10                      
G16  20636104.12225   -214218.35625     -2816.70325        33.70025
G10  21938989.85325     82882.73725      1046.77425        33.50025
G02  24388383.87325    133363.20625      1714.02325        32.10025
G27  20401451.76915     -1875.77215       -50.83215        31.20015
G26  22303539.88115   -335381.17415     -4376.94515        30.80015
G23  21300986.53415   -120909.69915     -1606.64815        30.80015
G08  22792503.47814     83824.91814      1629.70514        23.80014
C11  21897026.40426   -128871.04426     -1694.54726        38.30026
R16  19987801.13326   -196867.36326     -2602.18526        37.10026
R18  19567746.33114    -79431.33914     -1053.19914        26.40014
> 2025 05 08 10 59 09.0000001  0 10                      
G10  21938581.53625     83934.89425      1045.87925        33.60025
G16  20636430.29725   -217029.76025     -2817.74425        33.70025
G02  24387848.74425    135082.60225      1713.22925        32.20025
G27  20401249.70915     -1921.52415       -52.26815        31.20015
G26  22304160.75115   -339752.33715     -4376.82815        30.80015
G23  21301083.96615   -122515.42215     -1614.43215        30.60015
G08  22791983.93814     85461.97614      1632.60714        23.70014
C11  21897140.92526   -130560.08726     -1695.12226        38.30026
R16  19988081.43926   -199470.62126     -2603.53126        37.10026
R18  19567719.65014    -80394.45014     -1062.30314        26.50014
> 2025 05 08 10 59 09.9999999  0 10                      
G10  21938064.09425     84986.55025      1045.45825        33.60025
G16  20636652.44325   -219841.76725     -2818.25125        33.70025
G02  24387208.38725    136801.71525      1713.02325        32.20025
G27  20400942.72115     -1969.05015       -54.36015        31.20015
G26  22304679.09215   -344123.69215     -4377.39215        30.80015
G23  21301068.97715   -124120.60315     -1610.85415        30.50015
G08  22791367.26514     87098.81614      1630.78414        23.70014
C11  21897150.21826   -132249.40726     -1695.34926        38.30026
R16  19988253.82026   -202076.88126     -2604.41926        37.00026
R18  19567598.53314    -81430.05914     -1062.56614        26.60014
> 2025 05 08 10 59 10.9999999  0 10                      
G10  21937628.79625     86037.29625      1044.45425        33.60025
