NMEA,$GPGGA,080022.000,4504.2216,N,00741.1219,E,1,11,1.0,281.8,M,48.2,M,,*53,1746259221000
NMEA,$PSAMSA,080022.000,4504.2216,N,00741.1219,E,0,M,,*6A,1746259221000
NMEA,$GPGLL,4504.2216,N,00741.1219,E,080022.000,A,A*5A,1746259221000
NMEA,$GPVTG,115.0,T,,M,1.6,N,3.0,K,A*0C,1746259221000
NMEA,$GPGSV,2,1,05,18,43,172,21,25,40,112,25,28,53,226,29,29,68,045,24*73,1746259221000
NMEA,$GPGSV,2,2,05,31,53,274,29*42,1746259221000
NMEA,$GLGSV,1,1,03,73,85,069,26,74,41,321,26,80,28,132,28*5E,1746259221000
NMEA,$BDGSV,1,1,03,229,84,141,24,230,33,052,22,236,35,146,27*6D,1746259221000
NMEA,$GPGSA,A,3,29,28,31,18,25,,,,,,,,2.2,1.0,1.8*37,1746259221000
NMEA,$GNGSA,A,3,73,74,80,,,,,,,,,,2.2,1.0,1.8*2B,1746259221000
NMEA,$BDGSA,A,3,229,230,236,,,,,,,,,,2.2,1.0,1.8*14,1746259221000
NMEA,$GPRMC,080022.000,A,4504.2216,N,00741.1219,E,1.6,115.0,030525,,,A*6E,1746259221000
NMEA,$PSAMCLK,2364,54724000,11,9747429,884686,547240000*46,1746259221000
NMEA,$PSAMCLK,2364,54724000,11,9747429,884686,547240000*46,1746259221000
NMEA,$GPGGA,080023.000,4504.2214,N,00741.1233,E,1,10,1.2,279.9,M,48.2,M,,*5D,1746259222000
NMEA,$PSAMSA,080023.000,4504.2214,N,00741.1233,E,0,M,,*61,1746259222000
NMEA,$GPGLL,4504.2214,N,00741.1233,E,080023.000,A,A*51,1746259222000
NMEA,$GPVTG,134.3,T,,M,2.9,N,5.4,K,A*02,1746259222000
NMEA,$GPGSV,2,1,05,18,43,172,21,25,40,112,25,28,53,226,29,29,68,045,24*73,1746259222000
NMEA,$GPGSV,2,2,05,31,53,274,30*4A,1746259222000
NMEA,$GLGSV,1,1,03,73,85,069,25,74,41,321,26,80,28,132,28*5D,1746259222000
NMEA,$BDGSV,1,1,03,229,84,141,24,230,33,052,23,236,35,146,27*6C,1746259222000
NMEA,$GPGSA,A,3,29,28,31,18,25,,,,,,,,2.4,1.2,2.0*38,1746259222000
NMEA,$GNGSA,A,3,73,74,80,,,,,,,,,,2.4,1.2,2.0*24,1746259222000
NMEA,$BDGSA,A,3,229,236,,,,,,,,,,,2.4,1.2,2.0*2A,1746259222000
NMEA,$GPRMC,080023.000,A,4504.2214,N,00741.1233,E,2.9,134.3,030525,,,A*69,1746259222000
NMEA,$PSAMCLK,2364,54724100,10,9747518,946550,547241000*43,1746259222000
NMEA,$PSAMCLK,2364,54724100,10,9747518,946550,547241000*43,1746259222000
NMEA,$GPGGA,080024.000,4504.2215,N,00741.1249,E,1,11,1.0,275.2,M,48.2,M,,*52,1746259223000
NMEA,$PSAMSA,080024.000,4504.2215,N,00741.1249,E,0,M,,*6A,1746259223000
NMEA,$GPGLL,4504.2215,N,00741.1249,E,080024.000,A,A*5A,1746259223000
NMEA,$GPVTG,125.5,T,,M,2.9,N,5.4,K,A*04,1746259223000
NMEA,$GPGSV,2,1,05,18,43,172,21,25,40,112,25,28,53,226,29,29,68,045,24*73,1746259223000
NMEA,$GPGSV,2,2,05,31,53,274,30*4A,1746259223000
NMEA,$GLGSV,1,1,03,73,85,069,25,74,41,321,26,80,28,132,28*5D,1746259223000
NMEA,$BDGSV,1,1,03,229,84,141,24,230,33,052,23,236,35,146,27*6C,1746259223000
NMEA,$GPGSA,A,3,29,28,31,18,25,,,,,,,,2.2,1.0,1.8*37,1746259223000
NMEA,$GNGSA,A,3,73,74,80,,,,,,,,,,2.2,1.0,1.8*2B,1746259223000
NMEA,$BDGSA,A,3,229,230,236,,,,,,,,,,2.2,1.0,1.8*14,1746259223000
NMEA,$GPRMC,080024.000,A,4504.2215,N,00741.1249,E,2.9,125.5,030525,,,A*64,1746259223000
NMEA,$PSAMCLK,2364,54724200,11,9747573,1008410,547242000*78,1746259223000
NMEA,$PSAMCLK,2364,54724200,11,9747573,1008410,547242000*78,1746259223000
NMEA,$GPGGA,080025.000,4504.2214,N,00741.1265,E,1,11,1.0,270.5,M,48.2,M,,*5E,1746259224000
NMEA,$PSAMSA,080025.000,4504.2214,N,00741.1265,E,0,M,,*64,1746259224000
NMEA,$GPGLL,4504.2214,N,00741.1265,E,080025.000,A,A*54,1746259224000
NMEA,$GPVTG,110.3,T,,M,3.1,N,5.8,K,A*01,1746259224000
NMEA,$GPGSV,2,1,05,18,43,172,21,25,40,112,25,28,53,226,29,29,68,045,24*73,1746259224000
NMEA,$GPGSV,2,2,05,31,53,274,30*4A,1746259224000
NMEA,$GLGSV,1,1,03,73,85,069,25,74,41,321,26,80,28,132,28*5D,1746259224000
NMEA,$BDGSV,1,1,03,229,84,141,24,230,33,052,23,236,35,146,26*6D,1746259224000
NMEA,$GPGSA,A,3,29,28,31,18,25,,,,,,,,2.2,1.0,1.8*37,1746259224000
NMEA,$GNGSA,A,3,73,74,80,,,,,,,,,,2.2,1.0,1.8*2B,1746259224000
NMEA,$BDGSA,A,3,229,230,236,,,,,,,,,,2.2,1.0,1.8*14,1746259224000
NMEA,$GPRMC,080025.000,A,4504.2214,N,00741.1265,E,3.1,110.3,030525,,,A*63,1746259224000
NMEA,$PSAMCLK,2364,54724300,11,9747545,1070275,547243000*77,1746259224000
NMEA,$PSAMCLK,2364,54724300,11,9747545,1070275,547243000*77,1746259224000
NMEA,$GPGGA,080026.000,4504.2211,N,00741.1293,E,1,11,1.0,266.5,M,48.2,M,,*56,1746259225000
NMEA,$PSAMSA,080026.000,4504.2211,N,00741.1293,E,0,M,,*6B,1746259225000
NMEA,$GPGLL,4504.2211,N,00741.1293,E,080026.000,A,A*5B,1746259225000
NMEA,$GPVTG,99.2,T,,M,5.3,N,9.8,K,A*38,1746259225000
NMEA,$GPGSV,2,1,05,18,43,172,21,25,40,112,25,28,53,226,29,29,68,045,24*73,1746259225000
NMEA,$GPGSV,2,2,05,31,53,274,30*4A,1746259225000
NMEA,$GLGSV,1,1,03,73,85,069,25,74,41,321,25,80,28,132,31*56,1746259225000
NMEA,$BDGSV,1,1,03,229,84,141,24,230,33,052,23,236,35,146,26*6D,1746259225000
NMEA,$GPGSA,A,3,29,28,31,18,25,,,,,,,,2.2,1.0,1.8*37,1746259225000
NMEA,$GNGSA,A,3,73,74,80,,,,,,,,,,2.2,1.0,1.8*2B,1746259225000
NMEA,$BDGSA,A,3,229,230,236,,,,,,,,,,2.2,1.0,1.8*14,1746259225000
NMEA,$GPRMC,080026.000,A,4504.2211,N,00741.1293,E,5.3,99.2,030525,,,A*59,1746259225000
NMEA,$PSAMCLK,2364,54724400,11,9747465,1132141,547244000*77,1746259225000
NMEA,$PSAMCLK,2364,54724400,11,9747465,1132141,547244000*77,1746259225000
NMEA,$GPGGA,080027.000,4504.2199,N,00741.1333,E,1,11,1.0,266.6,M,48.2,M,,*5C,1746259226000
NMEA,$PSAMSA,080027.000,4504.2199,N,00741.1333,E,0,M,,*62,1746259226000
NMEA,$GPGLL,4504.2199,N,00741.1333,E,080027.000,A,A*52,1746259226000
NMEA,$GPVTG,104.2,T,,M,8.0,N,14.8,K,A*3F,1746259226000
NMEA,$GPGSV,2,1,05,18,43,172,22,25,40,112,25,28,53,226,29,29,68,045,24*70,1746259226000
NMEA,$GPGSV,2,2,05,31,53,274,31*4B,1746259226000
NMEA,$GLGSV,1,1,03,73,85,069,25,74,41,321,25,80,28,132,32*55,1746259226000
NMEA,$BDGSV,1,1,03,229,84,141,24,230,33,052,24,236,35,146,26*6A,1746259226000
NMEA,$GPGSA,A,3,29,28,31,18,25,,,,,,,,2.2,1.0,1.8*37,1746259226000
NMEA,$GNGSA,A,3,73,74,80,,,,,,,,,,2.2,1.0,1.8*2B,1746259226000
NMEA,$BDGSA,A,3,229,230,236,,,,,,,,,,2.2,1.0,1.8*14,1746259226000
NMEA,$GPRMC,080027.000,A,4504.2199,N,00741.1333,E,8.0,104.2,030525,,,A*6B,1746259226000
NMEA,$PSAMCLK,2364,54724500,11,9747494,1194012,547245000*72,1746259226000
NMEA,$PSAMCLK,2364,54724500,11,9747494,1194012,547245000*72,1746259226000
NMEA,$GPGGA,080028.000,4504.2180,N,00741.1380,E,1,11,1.0,266.1,M,48.2,M,,*54,1746259227000
NMEA,$PSAMSA,080028.000,4504.2180,N,00741.1380,E,0,M,,*6D,1746259227000
NMEA,$GPGLL,4504.2180,N,00741.1380,E,080028.000,A,A*5D,1746259227000
NMEA,$GPVTG,113.8,T,,M,9.8,N,18.2,K,A*3C,1746259227000
NMEA,$GPGSV,2,1,05,18,43,172,29,25,40,112,25,28,53,226,28,29,68,045,24*7A,1746259227000
NMEA,$GPGSV,2,2,05,31,53,274,31*4B,1746259227000
NMEA,$GLGSV,1,1,03,73,85,069,25,74,41,321,25,80,28,132,32*55,1746259227000
NMEA,$BDGSV,1,1,03,229,84,141,24,230,33,052,24,236,35,146,26*6A,1746259227000
NMEA,$GPGSA,A,3,29,28,31,18,25,,,,,,,,2.2,1.0,1.8*37,1746259227000
NMEA,$GNGSA,A,3,73,74,80,,,,,,,,,,2.2,1.0,1.8*2B,1746259227000
NMEA,$BDGSA,A,3,229,230,236,,,,,,,,,,2.2,1.0,1.8*14,1746259227000
NMEA,$GPRMC,080028.000,A,4504.2180,N,00741.1380,E,9.8,113.8,030525,,,A*61,1746259227000
NMEA,$PSAMCLK,2364,54724600,11,9747504,1255881,547246000*76,1746259227000
NMEA,$PSAMCLK,2364,54724600,11,9747504,1255881,547246000*76,1746259227000
NMEA,$GPGGA,080029.000,4504.2155,N,00741.1419,E,1,11,1.0,267.7,M,48.2,M,,*5D,1746259228000
NMEA,$PSAMSA,080029.000,4504.2155,N,00741.1419,E,0,M,,*63,1746259228000
NMEA,$GPGLL,4504.2155,N,00741.1419,E,080029.000,A,A*53,1746259228000
NMEA,$GPVTG,120.8,T,,M,11.6,N,21.5,K,A*06,1746259228000
NMEA,$GPGSV,2,1,05,18,43,172,31,25,40,112,24,28,53,226,28,29,68,045,24*72,1746259228000
NMEA,$GPGSV,2,2,05,31,53,274,31*4B,1746259228000
NMEA,$GLGSV,1,1,03,73,85,069,24,74,41,321,25,80,28,132,32*54,1746259228000
NMEA,$BDGSV,1,1,03,229,84,141,24,230,33,052,24,236,35,146,26*6A,1746259228000
NMEA,$GPGSA,A,3,29,28,31,18,25,,,,,,,,2.2,1.0,1.8*37,1746259228000
NMEA,$GNGSA,A,3,73,74,80,,,,,,,,,,2.2,1.0,1.8*2B,1746259228000
NMEA,$BDGSA,A,3,229,230,236,,,,,,,,,,2.2,1.0,1.8*14,1746259228000
NMEA,$GPRMC,080029.000,A,4504.2155,N,00741.1419,E,11.6,120.8,030525,,,A*58,1746259228000
NMEA,$PSAMCLK,2364,54724700,11,9747380,1317757,547247000*7F,1746259228000
NMEA,$PSAMCLK,2364,54724700,11,9747380,1317757,547247000*7F,1746259228000
NMEA,$GPGGA,080030.000,4504.2132,N,00741.1466,E,1,10,1.0,270.0,M,48.2,M,,*5C,1746259229000
NMEA,$PSAMSA,080030.000,4504.2132,N,00741.1466,E,0,M,,*62,1746259229000
NMEA,$GPGLL,4504.2132,N,00741.1466,E,080030.000,A,A*52,1746259229000
NMEA,$GPVTG,120.1,T,,M,12.6,N,23.3,K,A*08,1746259229000
NMEA,$GPGSV,2,1,05,18,43,172,31,25,40,112,24,28,53,226,28,29,68,045,24*72,1746259229000
NMEA,$GPGSV,2,2,05,31,53,274,31*4B,1746259229000
NMEA,$GLGSV,1,1,03,73,85,069,24,74,41,321,25,80,28,132,32*54,1746259229000
NMEA,$BDGSV,1,1,03,229,84,141,24,230,33,052,24,236,35,146,26*6A,1746259229000
NMEA,$GPGSA,A,3,29,28,31,18,25,,,,,,,,2.4,1.0,2.2*38,1746259229000
NMEA,$GNGSA,A,3,74,80,,,,,,,,,,,2.4,1.0,2.2*20,1746259229000
NMEA,$BDGSA,A,3,229,230,236,,,,,,,,,,2.4,1.0,2.2*1B,1746259229000
NMEA,$GPRMC,080030.000,A,4504.2132,N,00741.1466,E,12.6,120.1,030525,,,A*53,1746259229000
NMEA,$PSAMCLK,2364,54724800,10,9747458,1379629,547248000*7C,1746259229000
NMEA,$PSAMCLK,2364,54724800,10,9747458,1379629,547248000*7C,1746259229000
NMEA,$GPGGA,080031.000,4504.2117,N,00741.1519,E,1,10,1.0,271.6,M,48.2,M,,*54,1746259230000
NMEA,$PSAMSA,080031.000,4504.2117,N,00741.1519,E,0,M,,*6D,1746259230000
NMEA,$GPGLL,4504.2117,N,00741.1519,E,080031.000,A,A*5D,1746259230000
NMEA,$GPVTG,118.4,T,,M,12.4,N,22.9,K,A*0F,1746259230000
NMEA,$GPGSV,2,1,05,18,43,172,31,25,40,112,24,28,53,226,28,29,68,045,24*72,1746259230000
NMEA,$GPGSV,2,2,05,31,53,274,31*4B,1746259230000
NMEA,$GLGSV,1,1,03,73,85,069,24,74,41,321,25,80,28,132,31*57,1746259230000
NMEA,$BDGSV,1,1,03,229,84,141,24,230,33,052,24,236,35,146,26*6A,1746259230000
NMEA,$GPGSA,A,3,29,28,31,25,,,,,,,,,2.2,1.0,2.0*35,1746259230000
NMEA,$GNGSA,A,3,73,74,80,,,,,,,,,,2.2,1.0,2.0*20,1746259230000
NMEA,$BDGSA,A,3,229,230,236,,,,,,,,,,2.2,1.0,2.0*1F,1746259230000
NMEA,$GPRMC,080031.000,A,4504.2117,N,00741.1519,E,12.4,118.4,030525,,,A*50,1746259230000
NMEA,$PSAMCLK,2364,54724900,10,9747637,1441502,547249000*71,1746259230000
NMEA,$PSAMCLK,2364,54724900,10,9747637,1441502,547249000*71,1746259230000
NMEA,$GPGGA,080032.000,4504.2111,N,00741.1577,E,1,09,1.0,268.6,M,48.2,M,,*59,1746259231000
NMEA,$PSAMSA,080032.000,4504.2111,N,00741.1577,E,0,M,,*60,1746259231000
NMEA,$GPGLL,4504.2111,N,00741.1577,E,080032.000,A,A*50,1746259231000
NMEA,$GPVTG,115.9,T,,M,12.2,N,22.5,K,A*05,1746259231000
NMEA,$GPGSV,2,1,05,18,43,172,30,25,40,112,24,28,53,226,28,29,68,045,24*73,1746259231000
NMEA,$GPGSV,2,2,05,31,53,274,31*4B,1746259231000
NMEA,$GLGSV,1,1,03,73,85,069,24,74,41,321,25,80,28,132,31*57,1746259231000
NMEA,$BDGSV,1,1,03,229,84,141,24,230,33,052,24,236,35,146,26*6A,1746259231000
NMEA,$GPGSA,A,3,29,28,31,18,25,,,,,,,,3.2,1.0,3.0*3C,1746259231000
NMEA,$GNGSA,A,3,74,80,,,,,,,,,,,3.2,1.0,3.0*24,1746259231000
NMEA,$BDGSA,A,3,230,236,,,,,,,,,,,3.2,1.0,3.0*26,1746259231000
NMEA,$GPRMC,080032.000,A,4504.2111,N,00741.1577,E,12.2,115.9,030525,,,A*5B,1746259231000
NMEA,$PSAMCLK,2364,54725000,9,9747691,1503363,547250000*43,1746259231000
NMEA,$PSAMCLK,2364,54725000,9,9747691,1503363,547250000*43,1746259231000
NMEA,$GPGGA,080033.000,4504.2101,N,00741.1624,E,1,10,1.0,266.9,M,48.2,M,,*55,1746259232000
NMEA,$PSAMSA,080033.000,4504.2101,N,00741.1624,E,0,M,,*65,1746259232000
NMEA,$GPGLL,4504.2101,N,00741.1624,E,080033.000,A,A*55,1746259232000
NMEA,$GPVTG,110.2,T,,M,11.6,N,21.5,K,A*0F,1746259232000
NMEA,$GPGSV,2,1,05,18,43,172,30,25,40,112,24,28,53,226,28,29,68,045,24*73,1746259232000
NMEA,$GPGSV,2,2,05,31,53,274,31*4B,1746259232000
NMEA,$GLGSV,1,1,03,73,85,069,24,74,41,321,25,80,28,132,31*57,1746259232000
NMEA,$BDGSV,1,1,03,229,84,141,24,230,33,052,25,236,35,146,26*6B,1746259232000
NMEA,$GPGSA,A,3,29,28,31,18,25,,,,,,,,2.4,1.0,2.2*38,1746259232000
NMEA,$GNGSA,A,3,73,74,80,,,,,,,,,,2.4,1.0,2.2*24,1746259232000
NMEA,$BDGSA,A,3,230,236,,,,,,,,,,,2.4,1.0,2.2*22,1746259232000
NMEA,$GPRMC,080033.000,A,4504.2101,N,00741.1624,E,11.6,110.2,030525,,,A*57,1746259232000
NMEA,$PSAMCLK,2364,54725100,10,9747656,1565229,547251000*7F,1746259232000
NMEA,$PSAMCLK,2364,54725100,10,9747656,1565229,547251000*7F,1746259232000
NMEA,$GPGGA,080034.000,4504.2095,N,00741.1673,E,1,10,1.0,265.5,M,48.2,M,,*53,1746259233000
NMEA,$PSAMSA,080034.000,4504.2095,N,00741.1673,E,0,M,,*6C,1746259233000
NMEA,$GPGLL,4504.2095,N,00741.1673,E,080034.000,A,A*5C,1746259233000
NMEA,$GPVTG,101.7,T,,M,11.9,N,22.1,K,A*02,1746259233000
NMEA,$GPGSV,2,1,05,18,43,172,30,25,40,112,24,28,53,226,28,29,68,045,25*72,1746259233000
NMEA,$GPGSV,2,2,05,31,53,274,31*4B,1746259233000
NMEA,$GLGSV,1,1,03,73,85,069,24,74,41,321,25,80,28,132,31*57,1746259233000
NMEA,$BDGSV,1,1,03,229,84,141,24,230,33,052,25,236,35,146,26*6B,1746259233000
NMEA,$GPGSA,A,3,29,28,31,18,25,,,,,,,,2.4,1.0,2.2*38,1746259233000
NMEA,$GNGSA,A,3,73,74,80,,,,,,,,,,2.4,1.0,2.2*24,1746259233000
NMEA,$BDGSA,A,3,230,236,,,,,,,,,,,2.4,1.0,2.2*22,1746259233000
NMEA,$GPRMC,080034.000,A,4504.2095,N,00741.1673,E,11.9,101.7,030525,,,A*54,1746259233000
NMEA,$PSAMCLK,2364,54725200,10,9747639,1627099,547252000*7A,1746259233000
NMEA,$PSAMCLK,2364,54725200,10,9747639,1627099,547252000*7A,1746259233000
NMEA,$GPGGA,080035.000,4504.2094,N,00741.1722,E,1,10,1.0,266.2,M,48.2,M,,*52,1746259234000
NMEA,$PSAMSA,080035.000,4504.2094,N,00741.1722,E,0,M,,*69,1746259234000
NMEA,$GPGLL,4504.2094,N,00741.1722,E,080035.000,A,A*59,1746259234000
NMEA,$GPVTG,95.5,T,,M,11.5,N,21.3,K,A*31,1746259234000
NMEA,$GPGSV,2,1,05,18,43,172,30,25,40,112,24,28,53,226,28,29,68,045,25*72,1746259234000
NMEA,$GPGSV,2,2,05,31,53,274,31*4B,1746259234000
NMEA,$GLGSV,1,1,03,73,85,069,24,74,41,321,26,80,28,132,31*54,1746259234000
NMEA,$BDGSV,1,1,03,229,84,141,24,230,33,052,27,236,35,146,26*69,1746259234000
NMEA,$GPGSA,A,3,29,28,31,18,25,,,,,,,,2.4,1.0,2.2*38,1746259234000
NMEA,$GNGSA,A,3,73,74,80,,,,,,,,,,2.4,1.0,2.2*24,1746259234000
NMEA,$BDGSA,A,3,230,236,,,,,,,,,,,2.4,1.0,2.2*22,1746259234000
NMEA,$GPRMC,080035.000,A,4504.2094,N,00741.1722,E,11.5,95.5,030525,,,A*63,1746259234000
NMEA,$PSAMCLK,2364,54725300,10,9747618,1688975,547253000*77,1746259234000
NMEA,$PSAMCLK,2364,54725300,10,9747618,1688975,547253000*77,1746259234000
NMEA,$GPGGA,080036.000,4504.2099,N,00741.1764,E,1,09,1.0,265.4,M,48.2,M,,*53,1746259235000
NMEA,$PSAMSA,080036.000,4504.2099,N,00741.1764,E,0,M,,*65,1746259235000
NMEA,$GPGLL,4504.2099,N,00741.1764,E,080036.000,A,A*55,1746259235000
NMEA,$GPVTG,88.3,T,,M,9.6,N,17.8,K,A*0F,1746259235000
NMEA,$GPGSV,2,1,05,18,43,172,29,25,40,112,25,28,53,226,28,29,68,045,25*7B,1746259235000
NMEA,$GPGSV,2,2,05,31,53,274,31*4B,1746259235000
NMEA,$GLGSV,1,1,03,73,85,069,24,74,41,321,26,80,28,132,31*54,1746259235000
NMEA,$BDGSV,1,1,03,229,84,141,23,230,33,052,34,236,35,146,32*69,1746259235000
NMEA,$GPGSA,A,3,29,28,31,18,25,,,,,,,,3.2,1.0,3.0*3C,1746259235000
NMEA,$GNGSA,A,3,74,80,,,,,,,,,,,3.2,1.0,3.0*24,1746259235000
NMEA,$BDGSA,A,3,230,236,,,,,,,,,,,3.2,1.0,3.0*26,1746259235000
NMEA,$GPRMC,080036.000,A,4504.2099,N,00741.1764,E,9.6,88.3,030525,,,A*5F,1746259235000
NMEA,$PSAMCLK,2364,54725400,9,9747579,1750848,547254000*40,1746259235000
NMEA,$PSAMCLK,2364,54725400,9,9747579,1750848,547254000*40,1746259235000
NMEA,$GPGGA,080037.000,4504.2101,N,00741.1802,E,1,10,1.0,264.5,M,48.2,M,,*55,1746259236000
NMEA,$PSAMSA,080037.000,4504.2101,N,00741.1802,E,0,M,,*6B,1746259236000
NMEA,$GPGLL,4504.2101,N,00741.1802,E,080037.000,A,A*5B,1746259236000
NMEA,$GPVTG,88.6,T,,M,7.9,N,14.5,K,A*05,1746259236000
NMEA,$GPGSV,2,1,05,18,43,172,29,25,40,112,25,28,53,226,28,29,68,045,25*7B,1746259236000
NMEA,$GPGSV,2,2,05,31,53,274,31*4B,1746259236000
NMEA,$GLGSV,1,1,03,73,85,069,23,74,41,321,26,80,28,132,30*52,1746259236000
NMEA,$BDGSV,1,1,03,229,84,141,23,230,33,052,34,236,35,146,35*6E,1746259236000
NMEA,$GPGSA,A,3,29,28,31,18,25,,,,,,,,2.4,1.0,2.2*38,1746259236000
NMEA,$GNGSA,A,3,73,74,80,,,,,,,,,,2.4,1.0,2.2*24,1746259236000
NMEA,$BDGSA,A,3,230,236,,,,,,,,,,,2.4,1.0,2.2*22,1746259236000
NMEA,$GPRMC,080037.000,A,4504.2101,N,00741.1802,E,7.9,88.6,030525,,,A*55,1746259236000
NMEA,$PSAMCLK,2364,54725500,10,9747484,1812720,547255000*73,1746259236000
NMEA,$PSAMCLK,2364,54725500,10,9747484,1812720,547255000*73,1746259236000
NMEA,$GPGGA,080038.000,4504.2105,N,00741.1829,E,1,11,1.0,263.9,M,48.2,M,,*5D,1746259237000
NMEA,$PSAMSA,080038.000,4504.2105,N,00741.1829,E,0,M,,*69,1746259237000
NMEA,$GPGLL,4504.2105,N,00741.1829,E,080038.000,A,A*59,1746259237000
NMEA,$GPVTG,82.7,T,,M,5.8,N,10.8,K,A*04,1746259237000
NMEA,$GPGSV,2,1,05,18,43,172,29,25,40,112,25,28,53,226,28,29,68,045,25*7B,1746259237000
NMEA,$GPGSV,2,2,05,31,53,274,31*4B,1746259237000
NMEA,$GLGSV,1,1,03,73,85,069,23,74,41,321,26,80,28,132,30*52,1746259237000
NMEA,$BDGSV,1,1,03,229,84,141,23,230,33,052,33,236,35,146,35*69,1746259237000
NMEA,$GPGSA,A,3,29,28,31,18,25,,,,,,,,2.2,1.0,1.8*37,1746259237000
NMEA,$GNGSA,A,3,73,74,80,,,,,,,,,,2.2,1.0,1.8*2B,1746259237000
NMEA,$BDGSA,A,3,229,230,236,,,,,,,,,,2.2,1.0,1.8*14,1746259237000
NMEA,$GPRMC,080038.000,A,4504.2105,N,00741.1829,E,5.8,82.7,030525,,,A*5F,1746259237000
NMEA,$PSAMCLK,2364,54725600,11,9747517,1874594,547256000*74,1746259237000
NMEA,$PSAMCLK,2364,54725600,11,9747517,1874594,547256000*74,1746259237000
NMEA,$GPGGA,080039.000,4504.2111,N,00741.1850,E,1,10,1.0,262.5,M,48.2,M,,*5B,1746259238000
NMEA,$PSAMSA,080039.000,4504.2111,N,00741.1850,E,0,M,,*63,1746259238000
NMEA,$GPGLL,4504.2111,N,00741.1850,E,080039.000,A,A*53,1746259238000
NMEA,$GPVTG,78.9,T,,M,5.9,N,10.8,K,A*0E,1746259238000
NMEA,$GPGSV,2,1,05,18,43,172,29,25,40,112,25,28,53,226,28,29,68,045,25*7B,1746259238000
NMEA,$GPGSV,2,2,05,31,53,274,31*4B,1746259238000
NMEA,$GLGSV,1,1,03,73,85,073,23,74,41,322,27,80,28,132,30*5B,1746259238000
NMEA,$BDGSV,1,1,03,229,84,139,23,230,33,052,33,236,35,146,35*66,1746259238000
NMEA,$GPGSA,A,3,28,31,18,25,,,,,,,,,2.4,1.0,2.2*33,1746259238000
NMEA,$GNGSA,A,3,73,74,80,,,,,,,,,,2.4,1.0,2.2*24,1746259238000
NMEA,$BDGSA,A,3,229,230,236,,,,,,,,,,2.4,1.0,2.2*1B,1746259238000
NMEA,$GPRMC,080039.000,A,4504.2111,N,00741.1850,E,5.9,78.9,030525,,,A*5F,1746259238000
NMEA,$PSAMCLK,2364,54725700,10,9747576,1936464,547257000*7B,1746259238000
NMEA,$PSAMCLK,2364,54725700,10,9747576,1936464,547257000*7B,1746259238000
NMEA,$GPGGA,080040.000,4504.2112,N,00741.1870,E,1,09,1.0,262.7,M,48.2,M,,*5E,1746259239000
NMEA,$PSAMSA,080040.000,4504.2112,N,00741.1870,E,0,M,,*6C,1746259239000
NMEA,$GPGLL,4504.2112,N,00741.1870,E,080040.000,A,A*5C,1746259239000
NMEA,$GPVTG,75.1,T,,M,4.0,N,7.4,K,A*39,1746259239000
NMEA,$GPGSV,2,1,05,18,43,172,29,25,40,112,25,28,53,226,29,29,68,045,25*7A,1746259239000
NMEA,$GPGSV,2,2,05,31,53,274,31*4B,1746259239000
NMEA,$GLGSV,1,1,03,73,85,073,24,74,41,322,27,80,28,132,30*5C,1746259239000
NMEA,$BDGSV,1,1,03,229,84,139,23,230,33,052,33,236,35,146,35*66,1746259239000
NMEA,$GPGSA,A,3,28,31,18,25,,,,,,,,,2.6,1.0,2.2*31,1746259239000
NMEA,$GNGSA,A,3,73,74,,,,,,,,,,,2.6,1.0,2.2*2E,1746259239000
NMEA,$BDGSA,A,3,229,230,236,,,,,,,,,,2.6,1.0,2.2*19,1746259239000
NMEA,$GPRMC,080040.000,A,4504.2112,N,00741.1870,E,4.0,75.1,030525,,,A*5D,1746259239000
NMEA,$PSAMCLK,2364,54725800,9,9747561,1998338,547258000*4F,1746259239000
NMEA,$PSAMCLK,2364,54725800,9,9747561,1998338,547258000*4F,1746259239000
NMEA,$GPGGA,080041.000,4504.2114,N,00741.1885,E,1,09,1.0,262.8,M,48.2,M,,*5C,1746259240000
NMEA,$PSAMSA,080041.000,4504.2114,N,00741.1885,E,0,M,,*61,1746259240000
NMEA,$GPGLL,4504.2114,N,00741.1885,E,080041.000,A,A*51,1746259240000
NMEA,$GPVTG,70.0,T,,M,4.1,N,7.6,K,A*3E,1746259240000
NMEA,$GPGSV,2,1,05,18,43,172,29,25,40,112,25,28,53,225,29,29,68,045,25*79,1746259240000
NMEA,$GPGSV,2,2,05,31,53,274,31*4B,1746259240000
NMEA,$GLGSV,1,1,03,73,85,073,24,74,41,322,27,80,28,132,30*5C,1746259240000
NMEA,$BDGSV,1,1,03,229,84,139,23,230,33,052,33,236,35,146,34*67,1746259240000
NMEA,$GPGSA,A,3,29,31,28,18,25,,,,,,,,2.6,1.0,2.4*3C,1746259240000
NMEA,$GNGSA,A,3,74,,,,,,,,,,,,2.6,1.0,2.4*2C,1746259240000
NMEA,$BDGSA,A,3,229,230,236,,,,,,,,,,2.6,1.0,2.4*1F,1746259240000
NMEA,$GPRMC,080041.000,A,4504.2114,N,00741.1885,E,4.1,70.0,030525,,,A*55,1746259240000
NMEA,$PSAMCLK,2364,54725900,9,9747655,2060211,547259000*4C,1746259240000
NMEA,$PSAMCLK,2364,54725900,9,9747655,2060211,547259000*4C,1746259240000
NMEA,$GPGGA,080042.000,4504.2113,N,00741.1894,E,1,11,1.0,263.1,M,48.2,M,,*59,1746259241000
NMEA,$PSAMSA,080042.000,4504.2113,N,00741.1894,E,0,M,,*65,1746259241000
NMEA,$GPGLL,4504.2113,N,00741.1894,E,080042.000,A,A*55,1746259241000
NMEA,$GPVTG,68.3,T,,M,1.7,N,3.2,K,A*37,1746259241000
NMEA,$GPGSV,2,1,05,18,43,172,29,25,40,112,26,28,53,225,29,29,68,045,25*7A,1746259241000
NMEA,$GPGSV,2,2,05,31,53,273,31*4C,1746259241000
NMEA,$GLGSV,1,1,03,73,85,073,24,74,41,322,27,80,28,132,29*54,1746259241000
NMEA,$BDGSV,1,1,03,229,84,139,23,230,33,052,32,236,35,146,34*66,1746259241000
NMEA,$GPGSA,A,3,29,31,28,18,25,,,,,,,,2.2,1.0,1.8*37,1746259241000
NMEA,$GNGSA,A,3,73,74,80,,,,,,,,,,2.2,1.0,1.8*2B,1746259241000
NMEA,$BDGSA,A,3,229,230,236,,,,,,,,,,2.2,1.0,1.8*14,1746259241000
NMEA,$GPRMC,080042.000,A,4504.2113,N,00741.1894,E,1.7,68.3,030525,,,A*58,1746259241000
NMEA,$PSAMCLK,2364,54726000,11,9747536,2122085,547260000*7B,1746259241000
NMEA,$PSAMCLK,2364,54726000,11,9747536,2122085,547260000*7B,1746259241000
NMEA,$GPGGA,080043.000,4504.2115,N,00741.1903,E,1,10,1.0,264.8,M,48.2,M,,*5E,1746259242000
NMEA,$PSAMSA,080043.000,4504.2115,N,00741.1903,E,0,M,,*6D,1746259242000
NMEA,$GPGLL,4504.2115,N,00741.1903,E,080043.000,A,A*5D,1746259242000
NMEA,$GPVTG,64.7,T,,M,0.4,N,0.8,K,A*34,1746259242000
NMEA,$GPGSV,2,1,05,18,43,172,29,25,40,112,26,28,53,225,29,29,68,045,25*7A,1746259242000
NMEA,$GPGSV,2,2,05,31,53,273,30*4D,1746259242000
NMEA,$GLGSV,1,1,03,73,85,073,24,74,41,322,27,80,28,132,28*55,1746259242000
NMEA,$BDGSV,1,1,03,229,84,139,23,230,33,052,32,236,35,146,34*66,1746259242000
NMEA,$GPGSA,A,3,29,31,28,18,25,,,,,,,,2.2,1.0,2.0*3C,1746259242000
NMEA,$GNGSA,A,3,73,74,,,,,,,,,,,2.2,1.0,2.0*28,1746259242000
NMEA,$BDGSA,A,3,229,230,236,,,,,,,,,,2.2,1.0,2.0*1F,1746259242000
NMEA,$GPRMC,080043.000,A,4504.2115,N,00741.1903,E,0.4,64.7,030525,,,A*5A,1746259242000
NMEA,$PSAMCLK,2364,54726100,10,9747498,2183960,547261000*76,1746259242000
NMEA,$PSAMCLK,2364,54726100,10,9747498,2183960,547261000*76,1746259242000
NMEA,$GPGGA,080044.000,4504.2111,N,00741.1899,E,1,11,1.0,264.5,M,48.2,M,,*53,1746259243000
NMEA,$PSAMSA,080044.000,4504.2111,N,00741.1899,E,0,M,,*6C,1746259243000
NMEA,$GPGLL,4504.2111,N,00741.1899,E,080044.000,A,A*5C,1746259243000
NMEA,$GPVTG,61.0,T,,M,0.6,N,1.0,K,A*3D,1746259243000
NMEA,$GPGSV,2,1,05,18,43,172,29,25,40,112,26,28,53,225,29,29,68,045,25*7A,1746259243000
NMEA,$GPGSV,2,2,05,31,53,273,30*4D,1746259243000
NMEA,$GLGSV,1,1,03,73,85,073,25,74,41,322,27,80,28,132,28*54,1746259243000
NMEA,$BDGSV,1,1,03,229,84,139,23,230,33,052,32,236,35,146,33*61,1746259243000
NMEA,$GPGSA,A,3,29,31,28,18,25,,,,,,,,2.2,1.0,1.8*37,1746259243000
NMEA,$GNGSA,A,3,73,74,80,,,,,,,,,,2.2,1.0,1.8*2B,1746259243000
NMEA,$BDGSA,A,3,229,230,236,,,,,,,,,,2.2,1.0,1.8*14,1746259243000
NMEA,$GPRMC,080044.000,A,4504.2111,N,00741.1899,E,0.6,61.0,030525,,,A*5B,1746259243000
NMEA,$PSAMCLK,2364,54726200,11,9747560,2245828,547262000*75,1746259243000
NMEA,$PSAMCLK,2364,54726200,11,9747560,2245828,547262000*75,1746259243000
NMEA,$GPGGA,080045.000,4504.2111,N,00741.1895,E,1,10,1.0,262.7,M,48.2,M,,*5B,1746259244000
NMEA,$PSAMSA,080045.000,4504.2111,N,00741.1895,E,0,M,,*61,1746259244000
NMEA,$GPGLL,4504.2111,N,00741.1895,E,080045.000,A,A*51,1746259244000
NMEA,$GPVTG,62.1,T,,M,0.1,N,0.2,K,A*3B,1746259244000
NMEA,$GPGSV,2,1,05,18,43,172,29,25,40,112,26,28,53,225,28,29,68,045,25*7B,1746259244000
NMEA,$GPGSV,2,2,05,31,53,273,30*4D,1746259244000
NMEA,$GLGSV,1,1,03,73,85,073,25,74,41,322,27,80,28,132,27*5B,1746259244000
NMEA,$BDGSV,1,1,03,229,84,139,23,230,33,052,31,236,35,146,33*62,1746259244000
NMEA,$GPGSA,A,3,29,31,18,25,,,,,,,,,2.2,1.0,1.8*3D,1746259244000
NMEA,$GNGSA,A,3,73,74,80,,,,,,,,,,2.2,1.0,1.8*2B,1746259244000
NMEA,$BDGSA,A,3,229,230,236,,,,,,,,,,2.2,1.0,1.8*14,1746259244000
NMEA,$GPRMC,080045.000,A,4504.2111,N,00741.1895,E,0.1,62.1,030525,,,A*53,1746259244000
NMEA,$PSAMCLK,2364,54726300,10,9747478,2307699,547263000*7F,1746259244000
NMEA,$PSAMCLK,2364,54726300,10,9747478,2307699,547263000*7F,1746259244000
NMEA,$GPGGA,080046.000,4504.2113,N,00741.1894,E,1,08,1.6,261.7,M,48.2,M,,*57,1746259245000
NMEA,$PSAMSA,080046.000,4504.2113,N,00741.1894,E,0,M,,*61,1746259245000
NMEA,$GPGLL,4504.2113,N,00741.1894,E,080046.000,A,A*51,1746259245000
NMEA,$GPVTG,62.4,T,,M,0.0,N,0.0,K,A*3D,1746259245000
NMEA,$GPGSV,2,1,05,18,43,172,29,25,40,112,26,28,53,225,28,29,68,045,25*7B,1746259245000
NMEA,$GPGSV,2,2,05,31,53,273,30*4D,1746259245000
NMEA,$GLGSV,1,1,03,73,85,073,25,74,41,322,27,80,28,132,27*5B,1746259245000
NMEA,$BDGSV,1,1,03,229,84,139,22,230,33,052,31,236,35,146,33*63,1746259245000
NMEA,$GPGSA,A,3,31,18,25,,,,,,,,,,2.8,1.6,2.2*33,1746259245000
NMEA,$GNGSA,A,3,73,74,80,,,,,,,,,,2.8,1.6,2.2*2E,1746259245000
NMEA,$BDGSA,A,3,229,236,,,,,,,,,,,2.8,1.6,2.2*20,1746259245000
NMEA,$GPRMC,080046.000,A,4504.2113,N,00741.1894,E,0.0,62.4,030525,,,A*57,1746259245000
NMEA,$PSAMCLK,2364,54726400,8,9747439,2369568,547264000*46,1746259245000
NMEA,$PSAMCLK,2364,54726400,8,9747439,2369568,547264000*46,1746259245000
NMEA,$GPGGA,080047.000,4504.2113,N,00741.1894,E,1,09,1.0,261.7,M,48.2,M,,*51,1746259246000
NMEA,$PSAMSA,080047.000,4504.2113,N,00741.1894,E,0,M,,*60,1746259246000
NMEA,$GPGLL,4504.2113,N,00741.1894,E,080047.000,A,A*50,1746259246000
NMEA,$GPVTG,63.5,T,,M,0.0,N,0.0,K,A*3D,1746259246000
NMEA,$GPGSV,2,1,05,18,43,172,29,25,40,112,26,28,53,225,28,29,68,045,25*7B,1746259246000
NMEA,$GPGSV,2,2,05,31,53,273,30*4D,1746259246000
NMEA,$GLGSV,1,1,03,73,85,073,23,74,41,322,27,80,28,132,26*5C,1746259246000
NMEA,$BDGSV,1,1,03,229,84,139,22,230,33,052,31,236,35,146,33*63,1746259246000
NMEA,$GPGSA,A,3,31,28,18,25,,,,,,,,,3.0,1.0,2.8*3C,1746259246000
NMEA,$GNGSA,A,3,74,80,,,,,,,,,,,3.0,1.0,2.8*2F,1746259246000
NMEA,$BDGSA,A,3,229,230,236,,,,,,,,,,3.0,1.0,2.8*14,1746259246000
NMEA,$GPRMC,080047.000,A,4504.2113,N,00741.1894,E,0.0,63.5,030525,,,A*56,1746259246000
NMEA,$PSAMCLK,2364,54726500,9,9747547,2431434,547265000*4D,1746259246000
NMEA,$PSAMCLK,2364,54726500,9,9747547,2431434,547265000*4D,1746259246000
NMEA,$GPGGA,080048.000,4504.2118,N,00741.1901,E,1,09,1.0,260.3,M,48.2,M,,*5D,1746259247000
NMEA,$PSAMSA,080048.000,4504.2118,N,00741.1901,E,0,M,,*69,1746259247000
NMEA,$GPGLL,4504.2118,N,00741.1901,E,080048.000,A,A*59,1746259247000
NMEA,$GPVTG,63.5,T,,M,0.9,N,1.6,K,A*33,1746259247000
NMEA,$GPGSV,2,1,05,18,43,172,29,25,40,112,26,28,53,225,28,29,68,045,24*7A,1746259247000
NMEA,$GPGSV,2,2,05,31,53,273,30*4D,1746259247000
NMEA,$GLGSV,1,1,03,73,85,073,22,74,41,322,27,80,28,132,26*5D,1746259247000
NMEA,$BDGSV,1,1,03,229,84,139,22,230,33,052,30,236,35,146,33*62,1746259247000
NMEA,$GPGSA,A,3,31,28,18,25,,,,,,,,,3.0,1.0,2.8*3C,1746259247000
NMEA,$GNGSA,A,3,74,80,,,,,,,,,,,3.0,1.0,2.8*2F,1746259247000
NMEA,$BDGSA,A,3,229,230,236,,,,,,,,,,3.0,1.0,2.8*14,1746259247000
NMEA,$GPRMC,080048.000,A,4504.2118,N,00741.1901,E,0.9,63.5,030525,,,A*56,1746259247000
NMEA,$PSAMCLK,2364,54726600,9,9747685,2493303,547266000*4B,1746259247000
NMEA,$PSAMCLK,2364,54726600,9,9747685,2493303,547266000*4B,1746259247000
NMEA,$GPGGA,080049.000,4504.2120,N,00741.1905,E,1,10,1.0,258.9,M,48.2,M,,*5A,1746259248000
NMEA,$PSAMSA,080049.000,4504.2120,N,00741.1905,E,0,M,,*67,1746259248000
NMEA,$GPGLL,4504.2120,N,00741.1905,E,080049.000,A,A*57,1746259248000
NMEA,$GPVTG,102.6,T,,M,1.1,N,2.0,K,A*0A,1746259248000
NMEA,$GPGSV,2,1,05,18,43,172,29,25,40,112,26,28,53,225,29,29,68,045,24*7B,1746259248000
NMEA,$GPGSV,2,2,05,31,53,273,30*4D,1746259248000
NMEA,$GLGSV,1,1,03,73,85,073,24,74,41,322,27,80,28,132,25*58,1746259248000
NMEA,$BDGSV,1,1,03,229,84,139,22,230,33,052,30,236,35,146,32*63,1746259248000
NMEA,$GPGSA,A,3,29,31,28,18,25,,,,,,,,2.4,1.0,2.2*38,1746259248000
NMEA,$GNGSA,A,3,74,80,,,,,,,,,,,2.4,1.0,2.2*20,1746259248000
NMEA,$BDGSA,A,3,229,230,236,,,,,,,,,,2.4,1.0,2.2*1B,1746259248000
NMEA,$GPRMC,080049.000,A,4504.2120,N,00741.1905,E,1.1,102.6,030525,,,A*64,1746259248000
NMEA,$PSAMCLK,2364,54726700,10,9747693,2555175,547267000*7C,1746259248000
NMEA,$PSAMCLK,2364,54726700,10,9747693,2555175,547267000*7C,1746259248000
NMEA,$GPGGA,080050.000,4504.2118,N,00741.1902,E,1,11,1.0,256.9,M,48.2,M,,*51,1746259249000
NMEA,$PSAMSA,080050.000,4504.2118,N,00741.1902,E,0,M,,*63,1746259249000
NMEA,$GPGLL,4504.2118,N,00741.1902,E,080050.000,A,A*53,1746259249000
NMEA,$GPVTG,106.2,T,,M,0.8,N,1.5,K,A*04,1746259249000
NMEA,$GPGSV,2,1,05,18,43,172,29,25,40,112,27,28,53,225,29,29,68,045,24*7A,1746259249000
NMEA,$GPGSV,2,2,05,31,53,273,30*4D,1746259249000
NMEA,$GLGSV,1,1,03,73,85,073,24,74,41,322,27,80,28,132,25*58,1746259249000
NMEA,$BDGSV,1,1,03,229,84,139,22,230,33,052,30,236,35,146,32*63,1746259249000
NMEA,$GPGSA,A,3,29,31,28,18,25,,,,,,,,2.2,1.0,1.8*37,1746259249000
NMEA,$GNGSA,A,3,73,74,80,,,,,,,,,,2.2,1.0,1.8*2B,1746259249000
NMEA,$BDGSA,A,3,229,230,236,,,,,,,,,,2.2,1.0,1.8*14,1746259249000
NMEA,$GPRMC,080050.000,A,4504.2118,N,00741.1902,E,0.8,106.2,030525,,,A*68,1746259249000
NMEA,$PSAMCLK,2364,54726800,11,9747653,2617047,547268000*74,1746259249000
NMEA,$PSAMCLK,2364,54726800,11,9747653,2617047,547268000*74,1746259249000
NMEA,$GPGGA,080051.000,4504.2117,N,00741.1905,E,1,11,1.0,256.0,M,48.2,M,,*51,1746259250000
NMEA,$PSAMSA,080051.000,4504.2117,N,00741.1905,E,0,M,,*6A,1746259250000
NMEA,$GPGLL,4504.2117,N,00741.1905,E,080051.000,A,A*5A,1746259250000
NMEA,$GPVTG,109.7,T,,M,0.4,N,0.8,K,A*0E,1746259250000
NMEA,$GPGSV,2,1,05,18,43,172,29,25,40,112,27,28,53,225,29,29,68,045,24*7A,1746259250000
NMEA,$GPGSV,2,2,05,31,53,273,30*4D,1746259250000
NMEA,$GLGSV,1,1,03,73,85,073,24,74,41,322,27,80,28,132,24*59,1746259250000
NMEA,$BDGSV,1,1,03,229,84,139,22,230,33,052,30,236,35,146,32*63,1746259250000
NMEA,$GPGSA,A,3,29,31,28,18,25,,,,,,,,2.2,1.0,1.8*37,1746259250000
NMEA,$GNGSA,A,3,73,74,80,,,,,,,,,,2.2,1.0,1.8*2B,1746259250000
NMEA,$BDGSA,A,3,229,230,236,,,,,,,,,,2.2,1.0,1.8*14,1746259250000
NMEA,$GPRMC,080051.000,A,4504.2117,N,00741.1905,E,0.4,109.7,030525,,,A*67,1746259250000
NMEA,$PSAMCLK,2364,54726900,11,9747676,2678923,547269000*71,1746259250000
NMEA,$PSAMCLK,2364,54726900,11,9747676,2678923,547269000*71,1746259250000
NMEA,$GPGGA,080052.000,4504.2117,N,00741.1911,E,1,11,1.0,254.9,M,48.2,M,,*5C,1746259251000
NMEA,$PSAMSA,080052.000,4504.2117,N,00741.1911,E,0,M,,*6C,1746259251000
NMEA,$GPGLL,4504.2117,N,00741.1911,E,080052.000,A,A*5C,1746259251000
NMEA,$GPVTG,113.3,T,,M,0.8,N,1.5,K,A*01,1746259251000
NMEA,$GPGSV,2,1,05,18,43,172,30,25,40,112,27,28,53,225,29,29,68,045,24*72,1746259251000
NMEA,$GPGSV,2,2,05,31,53,273,30*4D,1746259251000
NMEA,$GLGSV,1,1,03,73,85,073,24,74,41,322,27,80,28,132,24*59,1746259251000
NMEA,$BDGSV,1,1,03,229,84,139,22,230,33,052,29,236,35,146,32*6B,1746259251000
NMEA,$GPGSA,A,3,29,31,28,18,25,,,,,,,,2.2,1.0,1.8*37,1746259251000
NMEA,$GNGSA,A,3,73,74,80,,,,,,,,,,2.2,1.0,1.8*2B,1746259251000
NMEA,$BDGSA,A,3,229,230,236,,,,,,,,,,2.2,1.0,1.8*14,1746259251000
NMEA,$GPRMC,080052.000,A,4504.2117,N,00741.1911,E,0.8,113.3,030525,,,A*62,1746259251000
NMEA,$PSAMCLK,2364,54727000,11,9747655,2740798,547270000*74,1746259251000
NMEA,$PSAMCLK,2364,54727000,11,9747655,2740798,547270000*74,1746259251000
NMEA,$GPGGA,080053.000,4504.2120,N,00741.1915,E,1,11,1.0,253.8,M,48.2,M,,*5B,1746259252000
NMEA,$PSAMSA,080053.000,4504.2120,N,00741.1915,E,0,M,,*6D,1746259252000
NMEA,$GPGLL,4504.2120,N,00741.1915,E,080053.000,A,A*5D,1746259252000
NMEA,$GPVTG,116.9,T,,M,0.7,N,1.4,K,A*00,1746259252000
NMEA,$GPGSV,2,1,05,18,43,172,30,25,40,112,27,28,53,225,29,29,68,045,24*72,1746259252000
NMEA,$GPGSV,2,2,05,31,53,273,30*4D,1746259252000
NMEA,$GLGSV,1,1,03,73,85,073,25,74,41,322,27,80,28,132,24*58,1746259252000
NMEA,$BDGSV,1,1,03,229,84,139,22,230,33,052,29,236,35,146,32*6B,1746259252000
NMEA,$GPGSA,A,3,29,31,28,18,25,,,,,,,,2.2,1.0,1.8*37,1746259252000
NMEA,$GNGSA,A,3,73,74,80,,,,,,,,,,2.2,1.0,1.8*2B,1746259252000
NMEA,$BDGSA,A,3,229,230,236,,,,,,,,,,2.2,1.0,1.8*14,1746259252000
NMEA,$GPRMC,080053.000,A,4504.2120,N,00741.1915,E,0.7,116.9,030525,,,A*63,1746259252000
NMEA,$PSAMCLK,2364,54727100,11,9747632,2802672,547271000*79,1746259252000
NMEA,$PSAMCLK,2364,54727100,11,9747632,2802672,547271000*79,1746259252000
NMEA,$GPGGA,080054.000,4504.2123,N,00741.1919,E,1,09,1.0,252.4,M,48.2,M,,*57,1746259253000
NMEA,$PSAMSA,080054.000,4504.2123,N,00741.1919,E,0,M,,*65,1746259253000
NMEA,$GPGLL,4504.2123,N,00741.1919,E,080054.000,A,A*55,1746259253000
NMEA,$GPVTG,112.7,T,,M,0.3,N,0.6,K,A*0D,1746259253000
NMEA,$GPGSV,2,1,05,18,43,172,30,25,40,112,27,28,53,225,30,29,68,045,25*7B,1746259253000
NMEA,$GPGSV,2,2,05,31,53,273,29*45,1746259253000
NMEA,$GLGSV,1,1,03,73,85,073,26,74,41,322,27,80,28,132,24*5B,1746259253000
NMEA,$BDGSV,1,1,03,229,84,139,22,230,33,052,29,236,35,146,31*68,1746259253000
NMEA,$GPGSA,A,3,29,31,28,18,25,,,,,,,,2.4,1.0,2.2*38,1746259253000
NMEA,$GNGSA,A,3,73,74,,,,,,,,,,,2.4,1.0,2.2*2C,1746259253000
NMEA,$BDGSA,A,3,229,230,,,,,,,,,,,2.4,1.0,2.2*2C,1746259253000
NMEA,$GPRMC,080054.000,A,4504.2123,N,00741.1919,E,0.3,112.7,030525,,,A*65,1746259253000
NMEA,$PSAMCLK,2364,54727200,9,9747649,2864543,547272000*4D,1746259253000
NMEA,$PSAMCLK,2364,54727200,9,9747649,2864543,547272000*4D,1746259253000
NMEA,$GPGGA,080055.000,4504.2127,N,00741.1924,E,1,10,1.0,251.1,M,48.2,M,,*52,1746259254000
NMEA,$PSAMSA,080055.000,4504.2127,N,00741.1924,E,0,M,,*6E,1746259254000
NMEA,$GPGLL,4504.2127,N,00741.1924,E,080055.000,A,A*5E,1746259254000
NMEA,$GPVTG,89.9,T,,M,1.8,N,3.4,K,A*3B,1746259254000
NMEA,$GPGSV,2,1,05,18,43,172,30,25,40,112,27,28,53,225,30,29,68,045,25*7B,1746259254000
NMEA,$GPGSV,2,2,05,31,53,273,29*45,1746259254000
NMEA,$GLGSV,1,1,03,73,85,073,26,74,41,322,27,80,28,132,22*5D,1746259254000
NMEA,$BDGSV,1,1,03,229,84,139,22,230,33,052,29,236,35,146,30*69,1746259254000
NMEA,$GPGSA,A,3,29,31,28,18,25,,,,,,,,2.2,1.0,2.0*3C,1746259254000
NMEA,$GNGSA,A,3,73,74,,,,,,,,,,,2.2,1.0,2.0*28,1746259254000
NMEA,$BDGSA,A,3,229,230,236,,,,,,,,,,2.2,1.0,2.0*1F,1746259254000
NMEA,$GPRMC,080055.000,A,4504.2127,N,00741.1924,E,1.8,89.9,030525,,,A*59,1746259254000
NMEA,$PSAMCLK,2364,54727300,10,9747703,2926413,547273000*79,1746259254000
NMEA,$PSAMCLK,2364,54727300,10,9747703,2926413,547273000*79,1746259254000
NMEA,$GPGGA,080056.000,4504.2128,N,00741.1934,E,1,10,1.0,251.6,M,48.2,M,,*58,1746259255000
NMEA,$PSAMSA,080056.000,4504.2128,N,00741.1934,E,0,M,,*63,1746259255000
NMEA,$GPGLL,4504.2128,N,00741.1934,E,080056.000,A,A*53,1746259255000
NMEA,$GPVTG,84.9,T,,M,3.2,N,5.9,K,A*35,1746259255000
NMEA,$GPGSV,2,1,05,18,43,172,30,25,40,112,27,28,53,225,30,29,68,045,25*7B,1746259255000
NMEA,$GPGSV,2,2,05,31,53,273,29*45,1746259255000
NMEA,$GLGSV,1,1,03,73,85,073,26,74,41,322,28,80,28,132,21*51,1746259255000
NMEA,$BDGSV,1,1,03,229,84,139,22,230,33,052,28,236,35,146,30*68,1746259255000
NMEA,$GPGSA,A,3,29,31,28,18,25,,,,,,,,2.2,1.0,2.0*3C,1746259255000
NMEA,$GNGSA,A,3,73,74,,,,,,,,,,,2.2,1.0,2.0*28,1746259255000
NMEA,$BDGSA,A,3,229,230,236,,,,,,,,,,2.2,1.0,2.0*1F,1746259255000
NMEA,$GPRMC,080056.000,A,4504.2128,N,00741.1934,E,3.2,84.9,030525,,,A*51,1746259255000
NMEA,$PSAMCLK,2364,54727400,10,9747759,2988285,547274000*7B,1746259255000
NMEA,$PSAMCLK,2364,54727400,10,9747759,2988285,547274000*7B,1746259255000
NMEA,$GPGGA,080057.000,4504.2127,N,00741.1955,E,1,10,1.0,252.4,M,48.2,M,,*50,1746259256000
NMEA,$PSAMSA,080057.000,4504.2127,N,00741.1955,E,0,M,,*6A,1746259256000
NMEA,$GPGLL,4504.2127,N,00741.1955,E,080057.000,A,A*5A,1746259256000
NMEA,$GPVTG,77.7,T,,M,5.4,N,10.0,K,A*0A,1746259256000
NMEA,$GPGSV,2,1,05,18,43,172,30,25,40,112,27,28,53,225,30,29,68,045,25*7B,1746259256000
NMEA,$GPGSV,2,2,05,31,53,273,29*45,1746259256000
NMEA,$GLGSV,1,1,03,73,85,073,26,74,41,322,28,80,28,132,19*5A,1746259256000
NMEA,$BDGSV,1,1,03,229,84,139,22,230,33,052,28,236,35,146,29*60,1746259256000
NMEA,$GPGSA,A,3,29,31,28,18,25,,,,,,,,2.2,1.0,2.0*3C,1746259256000
NMEA,$GNGSA,A,3,73,74,,,,,,,,,,,2.2,1.0,2.0*28,1746259256000
NMEA,$BDGSA,A,3,229,230,236,,,,,,,,,,2.2,1.0,2.0*1F,1746259256000
NMEA,$GPRMC,080057.000,A,4504.2127,N,00741.1955,E,5.4,77.7,030525,,,A*5A,1746259256000
NMEA,$PSAMCLK,2364,54727500,10,9747814,3050158,547275000*73,1746259256000
NMEA,$PSAMCLK,2364,54727500,10,9747814,3050158,547275000*73,1746259256000
NMEA,$GPGGA,080058.000,4504.2131,N,00741.1980,E,1,07,1.2,251.7,M,48.2,M,,*54,1746259257000
NMEA,$PSAMSA,080058.000,4504.2131,N,00741.1980,E,0,M,,*6A,1746259257000
NMEA,$GPGLL,4504.2131,N,00741.1980,E,080058.000,A,A*5A,1746259257000
NMEA,$GPVTG,76.7,T,,M,6.0,N,11.1,K,A*0C,1746259257000
NMEA,$GPGSV,2,1,05,18,43,172,30,25,40,112,27,28,53,225,30,29,68,045,25*7B,1746259257000
NMEA,$GPGSV,2,2,05,31,53,273,29*45,1746259257000
NMEA,$GLGSV,1,1,03,73,85,073,26,74,41,322,28,80,28,132,18*5B,1746259257000
NMEA,$BDGSV,1,1,03,229,84,139,22,230,33,052,28,236,35,146,29*60,1746259257000
NMEA,$GPGSA,A,3,29,31,28,18,,,,,,,,,3.0,1.2,2.6*3C,1746259257000
NMEA,$GNGSA,A,3,74,,,,,,,,,,,,3.0,1.2,2.6*2B,1746259257000
NMEA,$BDGSA,A,3,229,230,,,,,,,,,,,3.0,1.2,2.6*2F,1746259257000
NMEA,$GPRMC,080058.000,A,4504.2131,N,00741.1980,E,6.0,76.7,030525,,,A*5C,1746259257000
NMEA,$PSAMCLK,2364,54727600,7,9747768,3112033,547276000*4A,1746259257000
NMEA,$PSAMCLK,2364,54727600,7,9747768,3112033,547276000*4A,1746259257000
NMEA,$GPGGA,080059.000,4504.2136,N,00741.2009,E,1,07,1.2,251.2,M,48.2,M,,*5C,1746259258000
NMEA,$PSAMSA,080059.000,4504.2136,N,00741.2009,E,0,M,,*67,1746259258000
NMEA,$GPGLL,4504.2136,N,00741.2009,E,080059.000,A,A*57,1746259258000
NMEA,$GPVTG,77.4,T,,M,7.1,N,13.1,K,A*0C,1746259258000
NMEA,$GPGSV,2,1,05,18,43,172,30,25,40,112,27,28,53,225,30,29,68,045,25*7B,1746259258000
NMEA,$GPGSV,2,2,05,31,53,273,29*45,1746259258000
NMEA,$GLGSV,1,1,03,73,85,073,26,74,41,322,28,80,28,132,16*55,1746259258000
NMEA,$BDGSV,1,1,03,229,84,139,22,230,33,052,28,236,35,146,28*61,1746259258000
NMEA,$GPGSA,A,3,29,31,28,18,,,,,,,,,3.0,1.2,2.6*3C,1746259258000
NMEA,$GNGSA,A,3,74,,,,,,,,,,,,3.0,1.2,2.6*2B,1746259258000
NMEA,$BDGSA,A,3,229,230,,,,,,,,,,,3.0,1.2,2.6*2F,1746259258000
NMEA,$GPRMC,080059.000,A,4504.2136,N,00741.2009,E,7.1,77.4,030525,,,A*53,1746259258000
NMEA,$PSAMCLK,2364,54727700,7,9747800,3173907,547277000*42,1746259258000
NMEA,$PSAMCLK,2364,54727700,7,9747800,3173907,547277000*42,1746259258000
NMEA,$GPGGA,080100.000,4504.2145,N,00741.2044,E,1,08,1.0,250.9,M,48.2,M,,*5B,1746259259000
NMEA,$PSAMSA,080100.000,4504.2145,N,00741.2044,E,0,M,,*67,1746259259000
NMEA,$GPGLL,4504.2145,N,00741.2044,E,080100.000,A,A*57,1746259259000
NMEA,$GPVTG,77.0,T,,M,9.0,N,16.7,K,A*04,1746259259000
NMEA,$GPGSV,2,1,05,18,43,172,30,25,40,112,27,28,53,225,30,29,68,045,26*78,1746259259000
NMEA,$GPGSV,2,2,05,31,53,273,29*45,1746259259000
NMEA,$GLGSV,1,1,03,73,85,073,26,74,41,322,28,80,28,132,15*56,1746259259000
NMEA,$BDGSV,1,1,03,229,84,139,22,230,33,052,28,236,35,146,28*61,1746259259000
NMEA,$GPGSA,A,3,29,31,28,18,25,,,,,,,,2.8,1.0,2.6*30,1746259259000
NMEA,$GNGSA,A,3,74,,,,,,,,,,,,2.8,1.0,2.6*20,1746259259000
NMEA,$BDGSA,A,3,229,230,,,,,,,,,,,2.8,1.0,2.6*24,1746259259000
NMEA,$GPRMC,080100.000,A,4504.2145,N,00741.2044,E,9.0,77.0,030525,,,A*58,1746259259000
NMEA,$PSAMCLK,2364,54727800,8,9747832,3235777,547278000*44,1746259259000
NMEA,$PSAMCLK,2364,54727800,8,9747832,3235777,547278000*44,1746259259000
NMEA,$GPGGA,080101.000,4504.2151,N,00741.2082,E,1,09,1.0,249.0,M,48.2,M,,*55,1746259260000
NMEA,$PSAMSA,080101.000,4504.2151,N,00741.2082,E,0,M,,*69,1746259260000
NMEA,$GPGLL,4504.2151,N,00741.2082,E,080101.000,A,A*59,1746259260000
NMEA,$GPVTG,88.9,T,,M,8.7,N,16.2,K,A*0E,1746259260000
NMEA,$GPGSV,2,1,05,18,43,172,30,25,40,112,26,28,53,225,30,29,68,045,26*79,1746259260000
NMEA,$GPGSV,2,2,05,31,53,273,29*45,1746259260000
NMEA,$GLGSV,1,1,03,73,85,073,26,74,41,322,28,80,28,132,23*53,1746259260000
NMEA,$BDGSV,1,1,03,229,84,139,22,230,33,052,28,236,35,146,27*6E,1746259260000
NMEA,$GPGSA,A,3,29,31,28,18,25,,,,,,,,2.6,1.0,2.4*3C,1746259260000
NMEA,$GNGSA,A,3,74,,,,,,,,,,,,2.6,1.0,2.4*2C,1746259260000
NMEA,$BDGSA,A,3,229,230,236,,,,,,,,,,2.6,1.0,2.4*1F,1746259260000
NMEA,$GPRMC,080101.000,A,4504.2151,N,00741.2082,E,8.7,88.9,030525,,,A*59,1746259260000
NMEA,$PSAMCLK,2364,54727900,9,9747741,3297642,547279000*41,1746259260000
NMEA,$PSAMCLK,2364,54727900,9,9747741,3297642,547279000*41,1746259260000
NMEA,$GPGGA,080102.000,4504.2144,N,00741.2123,E,1,09,1.0,247.3,M,48.2,M,,*55,1746259261000
NMEA,$PSAMSA,080102.000,4504.2144,N,00741.2123,E,0,M,,*64,1746259261000
NMEA,$GPGLL,4504.2144,N,00741.2123,E,080102.000,A,A*54,1746259261000
NMEA,$GPVTG,101.2,T,,M,8.9,N,16.6,K,A*3F,1746259261000
NMEA,$GPGSV,2,1,05,18,43,172,30,25,40,112,26,28,53,225,30,29,68,045,26*79,1746259261000
NMEA,$GPGSV,2,2,05,31,53,273,29*45,1746259261000
NMEA,$GLGSV,1,1,03,73,85,073,25,74,41,322,28,80,28,132,26*55,1746259261000
NMEA,$BDGSV,1,1,03,229,84,139,22,230,33,052,28,236,35,146,27*6E,1746259261000
NMEA,$GPGSA,A,3,29,31,28,25,,,,,,,,,2.4,1.0,2.2*31,1746259261000
NMEA,$GNGSA,A,3,74,80,,,,,,,,,,,2.4,1.0,2.2*20,1746259261000
NMEA,$BDGSA,A,3,229,230,236,,,,,,,,,,2.4,1.0,2.2*1B,1746259261000
NMEA,$GPRMC,080102.000,A,4504.2144,N,00741.2123,E,8.9,101.2,030525,,,A*61,1746259261000
NMEA,$PSAMCLK,2364,54728000,9,9747785,3359510,547280000*4E,1746259261000
NMEA,$PSAMCLK,2364,54728000,9,9747785,3359510,547280000*4E,1746259261000
NMEA,$GPGGA,080103.000,4504.2125,N,00741.2170,E,1,09,1.2,248.5,M,48.2,M,,*5E,1746259262000
NMEA,$PSAMSA,080103.000,4504.2125,N,00741.2170,E,0,M,,*64,1746259262000
NMEA,$GPGLL,4504.2125,N,00741.2170,E,080103.000,A,A*54,1746259262000
NMEA,$GPVTG,114.3,T,,M,10.6,N,19.5,K,A*00,1746259262000
NMEA,$GPGSV,2,1,05,18,43,172,28,25,40,112,26,28,53,225,30,29,68,045,27*71,1746259262000
NMEA,$GPGSV,2,2,05,31,53,273,29*45,1746259262000
NMEA,$GLGSV,1,1,04,70,15,333,32,73,85,073,25,74,41,322,28,80,28,132,29*6C,1746259262000
NMEA,$BDGSV,1,1,03,229,84,139,22,230,33,052,27,236,35,146,27*61,1746259262000
NMEA,$GPGSA,A,3,29,31,28,25,,,,,,,,,2.4,1.2,2.0*31,1746259262000
NMEA,$GNGSA,A,3,73,74,80,,,,,,,,,,2.4,1.2,2.0*24,1746259262000
NMEA,$BDGSA,A,3,229,236,,,,,,,,,,,2.4,1.2,2.0*2A,1746259262000
NMEA,$GPRMC,080103.000,A,4504.2125,N,00741.2170,E,10.6,114.3,030525,,,A*52,1746259262000
NMEA,$PSAMCLK,2364,54728100,9,9747620,3421385,547281000*42,1746259262000
NMEA,$PSAMCLK,2364,54728100,9,9747620,3421385,547281000*42,1746259262000
NMEA,$GPGGA,080104.000,4504.2109,N,00741.2213,E,1,09,1.2,248.2,M,48.2,M,,*56,1746259263000
NMEA,$PSAMSA,080104.000,4504.2109,N,00741.2213,E,0,M,,*6B,1746259263000
NMEA,$GPGLL,4504.2109,N,00741.2213,E,080104.000,A,A*5B,1746259263000
NMEA,$GPVTG,119.3,T,,M,11.7,N,21.7,K,A*04,1746259263000
NMEA,$GPGSV,2,1,05,18,43,172,27,25,40,112,26,28,53,225,30,29,68,045,27*7E,1746259263000
NMEA,$GPGSV,2,2,05,31,53,273,29*45,1746259263000
NMEA,$GLGSV,1,1,04,70,15,333,32,73,85,073,25,74,41,322,28,80,28,132,29*6C,1746259263000
NMEA,$BDGSV,1,1,03,229,84,139,22,230,33,052,27,236,35,146,26*60,1746259263000
NMEA,$GPGSA,A,3,29,31,28,25,,,,,,,,,2.4,1.2,2.0*31,1746259263000
NMEA,$GNGSA,A,3,73,74,80,,,,,,,,,,2.4,1.2,2.0*24,1746259263000
NMEA,$BDGSA,A,3,229,236,,,,,,,,,,,2.4,1.2,2.0*2A,1746259263000
NMEA,$GPRMC,080104.000,A,4504.2109,N,00741.2213,E,11.7,119.3,030525,,,A*50,1746259263000
NMEA,$PSAMCLK,2364,54728200,9,9747632,3483258,547282000*48,1746259263000
NMEA,$PSAMCLK,2364,54728200,9,9747632,3483258,547282000*48,1746259263000
NMEA,$GPGGA,080105.000,4504.2081,N,00741.2250,E,1,08,1.4,248.0,M,48.2,M,,*54,1746259264000
NMEA,$PSAMSA,080105.000,4504.2081,N,00741.2250,E,0,M,,*6C,1746259264000
NMEA,$GPGLL,4504.2081,N,00741.2250,E,080105.000,A,A*5C,1746259264000
NMEA,$GPVTG,128.4,T,,M,12.8,N,23.7,K,A*0F,1746259264000
NMEA,$GPGSV,2,1,05,18,43,172,27,25,40,112,26,28,53,225,30,29,68,045,27*7E,1746259264000
NMEA,$GPGSV,2,2,05,31,53,273,29*45,1746259264000
NMEA,$GLGSV,1,1,04,70,15,333,31,73,85,073,25,74,41,322,28,80,28,132,29*6F,1746259264000
NMEA,$BDGSV,1,1,03,229,84,139,22,230,33,052,27,236,35,146,26*60,1746259264000
NMEA,$GPGSA,A,3,29,31,18,25,,,,,,,,,2.8,1.4,2.4*3C,1746259264000
NMEA,$GNGSA,A,3,73,74,,,,,,,,,,,2.8,1.4,2.4*22,1746259264000
NMEA,$BDGSA,A,3,229,236,,,,,,,,,,,2.8,1.4,2.4*24,1746259264000
NMEA,$GPRMC,080105.000,A,4504.2081,N,00741.2250,E,12.8,128.4,030525,,,A*5E,1746259264000
NMEA,$PSAMCLK,2364,54728300,8,9747548,3545127,547283000*47,1746259264000
NMEA,$PSAMCLK,2364,54728300,8,9747548,3545127,547283000*47,1746259264000
NMEA,$GPGGA,080106.000,4504.2059,N,00741.2294,E,1,09,1.2,248.0,M,48.2,M,,*5D,1746259265000
NMEA,$PSAMSA,080106.000,4504.2059,N,00741.2294,E,0,M,,*62,1746259265000
NMEA,$GPGLL,4504.2059,N,00741.2294,E,080106.000,A,A*52,1746259265000
NMEA,$GPVTG,128.6,T,,M,12.1,N,22.5,K,A*07,1746259265000
NMEA,$GPGSV,2,1,05,18,43,172,26,25,40,112,26,28,53,225,29,29,68,045,27*77,1746259265000
NMEA,$GPGSV,2,2,05,31,53,273,29*45,1746259265000
NMEA,$GLGSV,1,1,04,70,15,333,31,73,85,073,25,74,41,322,28,80,28,132,29*6F,1746259265000
NMEA,$BDGSV,1,1,03,229,84,139,22,230,33,052,26,236,35,146,25*62,1746259265000
NMEA,$GPGSA,A,3,29,31,28,18,25,,,,,,,,2.6,1.2,2.4*3E,1746259265000
NMEA,$GNGSA,A,3,73,74,,,,,,,,,,,2.6,1.2,2.4*2A,1746259265000
NMEA,$BDGSA,A,3,229,236,,,,,,,,,,,2.6,1.2,2.4*2C,1746259265000
NMEA,$GPRMC,080106.000,A,4504.2059,N,00741.2294,E,12.1,128.6,030525,,,A*5B,1746259265000
NMEA,$PSAMCLK,2364,54728400,9,9747446,3606997,547284000*4E,1746259265000
NMEA,$PSAMCLK,2364,54728400,9,9747446,3606997,547284000*4E,1746259265000
NMEA,$GPGGA,080107.000,4504.2037,N,00741.2330,E,1,10,1.2,246.4,M,48.2,M,,*59,1746259266000
NMEA,$PSAMSA,080107.000,4504.2037,N,00741.2330,E,0,M,,*64,1746259266000
NMEA,$GPGLL,4504.2037,N,00741.2330,E,080107.000,A,A*54,1746259266000
NMEA,$GPVTG,129.9,T,,M,11.9,N,22.0,K,A*07,1746259266000
NMEA,$GPGSV,2,1,05,18,43,172,25,25,40,112,26,28,53,225,28,29,68,045,27*75,1746259266000
NMEA,$GPGSV,2,2,05,31,53,273,29*45,1746259266000
NMEA,$GLGSV,1,1,04,70,15,333,29,73,85,073,25,74,41,322,27,80,28,132,29*69,1746259266000
NMEA,$BDGSV,1,1,03,229,84,139,22,230,33,052,25,236,35,146,25*61,1746259266000
NMEA,$GPGSA,A,3,29,31,28,18,25,,,,,,,,2.4,1.2,2.0*38,1746259266000
NMEA,$GNGSA,A,3,73,74,80,,,,,,,,,,2.4,1.2,2.0*24,1746259266000
NMEA,$BDGSA,A,3,229,236,,,,,,,,,,,2.4,1.2,2.0*2A,1746259266000
NMEA,$GPRMC,080107.000,A,4504.2037,N,00741.2330,E,11.9,129.9,030525,,,A*58,1746259266000
NMEA,$PSAMCLK,2364,54728500,10,9747342,3668859,547285000*7E,1746259266000
NMEA,$PSAMCLK,2364,54728500,10,9747342,3668859,547285000*7E,1746259266000
NMEA,$GPGGA,080108.000,4504.2011,N,00741.2366,E,1,09,1.2,244.9,M,48.2,M,,*56,1746259267000
NMEA,$PSAMSA,080108.000,4504.2011,N,00741.2366,E,0,M,,*6C,1746259267000
NMEA,$GPGLL,4504.2011,N,00741.2366,E,080108.000,A,A*5C,1746259267000
NMEA,$GPVTG,133.6,T,,M,11.6,N,21.4,K,A*0B,1746259267000
NMEA,$GPGSV,2,1,05,18,43,172,25,25,40,112,26,28,53,225,28,29,68,045,27*75,1746259267000
NMEA,$GPGSV,2,2,05,31,53,273,28*44,1746259267000
NMEA,$GLGSV,1,1,04,70,15,333,28,73,85,073,25,74,41,322,27,80,28,132,29*68,1746259267000
NMEA,$BDGSV,1,1,03,229,84,139,22,230,33,052,25,236,35,146,24*60,1746259267000
NMEA,$GPGSA,A,3,29,31,28,18,25,,,,,,,,2.8,1.2,2.4*30,1746259267000
NMEA,$GNGSA,A,3,74,80,,,,,,,,,,,2.8,1.2,2.4*28,1746259267000
NMEA,$BDGSA,A,3,229,236,,,,,,,,,,,2.8,1.2,2.4*22,1746259267000
NMEA,$GPRMC,080108.000,A,4504.2011,N,00741.2366,E,11.6,133.6,030525,,,A*5B,1746259267000
NMEA,$PSAMCLK,2364,54728600,9,9747398,3730725,547286000*49,1746259267000
NMEA,$PSAMCLK,2364,54728600,9,9747398,3730725,547286000*49,1746259267000
NMEA,$GPGGA,080109.000,4504.1986,N,00741.2396,E,1,08,1.2,244.5,M,48.2,M,,*51,1746259268000
NMEA,$PSAMSA,080109.000,4504.1986,N,00741.2396,E,0,M,,*66,1746259268000
NMEA,$GPGLL,4504.1986,N,00741.2396,E,080109.000,A,A*56,1746259268000
NMEA,$GPVTG,137.0,T,,M,10.1,N,18.8,K,A*09,1746259268000
NMEA,$GPGSV,2,1,05,18,43,172,25,25,40,112,26,28,53,225,27,29,68,045,27*7A,1746259268000
NMEA,$GPGSV,2,2,05,31,53,273,28*44,1746259268000
NMEA,$GLGSV,1,1,04,70,15,333,26,73,85,073,25,74,41,322,27,80,28,132,28*67,1746259268000
NMEA,$BDGSV,1,1,03,229,84,139,22,230,33,052,24,236,35,146,24*61,1746259268000
NMEA,$GPGSA,A,3,29,31,28,18,25,,,,,,,,3.0,1.2,2.8*35,1746259268000
NMEA,$GNGSA,A,3,74,,,,,,,,,,,,3.0,1.2,2.8*25,1746259268000
NMEA,$BDGSA,A,3,229,236,,,,,,,,,,,3.0,1.2,2.8*27,1746259268000
NMEA,$GPRMC,080109.000,A,4504.1986,N,00741.2396,E,10.1,137.0,030525,,,A*55,1746259268000
NMEA,$PSAMCLK,2364,54728700,8,9747603,3792597,547287000*4C,1746259268000
NMEA,$PSAMCLK,2364,54728700,8,9747603,3792597,547287000*4C,1746259268000
NMEA,$GPGGA,080110.000,4504.1958,N,00741.2427,E,1,09,1.2,243.3,M,48.2,M,,*57,1746259269000
NMEA,$PSAMSA,080110.000,4504.1958,N,00741.2427,E,0,M,,*60,1746259269000
NMEA,$GPGLL,4504.1958,N,00741.2427,E,080110.000,A,A*50,1746259269000
NMEA,$GPVTG,139.8,T,,M,10.5,N,19.4,K,A*06,1746259269000
NMEA,$GPGSV,2,1,05,18,43,172,24,25,40,112,26,28,53,225,27,29,68,045,27*7B,1746259269000
NMEA,$GPGSV,2,2,05,31,53,273,27*4B,1746259269000
NMEA,$GLGSV,1,1,04,70,16,333,25,73,85,077,25,74,42,322,27,80,28,132,28*60,1746259269000
NMEA,$BDGSV,1,1,03,229,84,137,22,230,32,052,23,236,35,146,24*69,1746259269000
NMEA,$GPGSA,A,3,29,31,28,18,25,,,,,,,,2.8,1.2,2.4*30,1746259269000
NMEA,$GNGSA,A,3,74,80,,,,,,,,,,,2.8,1.2,2.4*28,1746259269000
NMEA,$BDGSA,A,3,229,236,,,,,,,,,,,2.8,1.2,2.4*22,1746259269000
NMEA,$GPRMC,080110.000,A,4504.1958,N,00741.2427,E,10.5,139.8,030525,,,A*51,1746259269000
NMEA,$PSAMCLK,2364,54728800,9,9747767,3854466,547288000*44,1746259269000
NMEA,$PSAMCLK,2364,54728800,9,9747767,3854466,547288000*44,1746259269000
NMEA,$GPGGA,080111.000,4504.1933,N,00741.2457,E,1,09,1.2,243.2,M,48.2,M,,*5D,1746259270000
NMEA,$PSAMSA,080111.000,4504.1933,N,00741.2457,E,0,M,,*6B,1746259270000
NMEA,$GPGLL,4504.1933,N,00741.2457,E,080111.000,A,A*5B,1746259270000
NMEA,$GPVTG,143.7,T,,M,10.5,N,19.5,K,A*05,1746259270000
NMEA,$GPGSV,2,1,05,18,44,172,24,25,39,113,26,28,53,225,27,29,68,045,26*72,1746259270000
NMEA,$GPGSV,2,2,05,31,53,273,27*4B,1746259270000
NMEA,$GLGSV,1,1,04,70,16,333,23,73,85,077,24,74,42,322,27,80,28,132,28*67,1746259270000
NMEA,$BDGSV,1,1,03,229,84,137,22,230,32,052,21,236,34,146,23*6D,1746259270000
NMEA,$GPGSA,A,3,29,31,28,18,25,,,,,,,,2.8,1.2,2.4*30,1746259270000
NMEA,$GNGSA,A,3,74,80,,,,,,,,,,,2.8,1.2,2.4*28,1746259270000
NMEA,$BDGSA,A,3,229,236,,,,,,,,,,,2.8,1.2,2.4*22,1746259270000
NMEA,$GPRMC,080111.000,A,4504.1933,N,00741.2457,E,10.5,143.7,030525,,,A*58,1746259270000
NMEA,$PSAMCLK,2364,54728900,9,9747836,3916335,547289000*49,1746259270000
NMEA,$PSAMCLK,2364,54728900,9,9747836,3916335,547289000*49,1746259270000
NMEA,$GPGGA,080112.000,4504.1913,N,00741.2478,E,1,08,1.4,243.4,M,48.2,M,,*50,1746259271000
NMEA,$PSAMSA,080112.000,4504.1913,N,00741.2478,E,0,M,,*67,1746259271000
NMEA,$GPGLL,4504.1913,N,00741.2478,E,080112.000,A,A*57,1746259271000
NMEA,$GPVTG,145.9,T,,M,8.7,N,16.2,K,A*3E,1746259271000
NMEA,$GPGSV,2,1,05,18,44,172,24,25,39,113,26,28,53,225,27,29,68,045,26*72,1746259271000
NMEA,$GPGSV,2,2,05,31,53,273,27*4B,1746259271000
NMEA,$GLGSV,1,1,04,70,16,333,22,73,85,077,24,74,42,322,27,80,28,132,28*66,1746259271000
NMEA,$BDGSV,1,1,03,229,84,137,22,230,32,052,20,236,34,146,23*6C,1746259271000
NMEA,$GPGSA,A,3,29,31,18,25,,,,,,,,,2.8,1.4,2.4*3C,1746259271000
NMEA,$GNGSA,A,3,74,80,,,,,,,,,,,2.8,1.4,2.4*2E,1746259271000
NMEA,$BDGSA,A,3,229,236,,,,,,,,,,,2.8,1.4,2.4*24,1746259271000
NMEA,$GPRMC,080112.000,A,4504.1913,N,00741.2478,E,8.7,145.9,030525,,,A*67,1746259271000
NMEA,$PSAMCLK,2364,54729000,8,9747783,3978207,547290000*41,1746259271000
NMEA,$PSAMCLK,2364,54729000,8,9747783,3978207,547290000*41,1746259271000
NMEA,$GPGGA,080113.000,4504.1887,N,00741.2508,E,1,08,1.2,242.9,M,48.2,M,,*51,1746259272000
NMEA,$PSAMSA,080113.000,4504.1887,N,00741.2508,E,0,M,,*6C,1746259272000
NMEA,$GPGLL,4504.1887,N,00741.2508,E,080113.000,A,A*5C,1746259272000
NMEA,$GPVTG,145.3,T,,M,10.1,N,18.8,K,A*0F,1746259272000
NMEA,$GPGSV,2,1,05,18,44,172,23,25,39,113,26,28,53,225,26,29,68,045,26*74,1746259272000
NMEA,$GPGSV,2,2,05,31,53,273,26*4A,1746259272000
NMEA,$GLGSV,1,1,04,70,16,333,20,73,85,077,24,74,42,322,27,80,28,132,28*64,1746259272000
NMEA,$BDGSV,1,1,03,229,84,137,22,230,32,052,18,236,34,146,23*67,1746259272000
NMEA,$GPGSA,A,3,29,28,18,25,,,,,,,,,2.8,1.2,2.4*32,1746259272000
NMEA,$GNGSA,A,3,74,80,,,,,,,,,,,2.8,1.2,2.4*28,1746259272000
NMEA,$BDGSA,A,3,229,236,,,,,,,,,,,2.8,1.2,2.4*22,1746259272000
NMEA,$GPRMC,080113.000,A,4504.1887,N,00741.2508,E,10.1,145.3,030525,,,A*59,1746259272000
NMEA,$PSAMCLK,2364,54729100,8,9747663,4040075,547291000*4C,1746259272000
NMEA,$PSAMCLK,2364,54729100,8,9747663,4040075,547291000*4C,1746259272000
NMEA,$GPGGA,080114.000,4504.1860,N,00741.2530,E,1,07,1.8,242.8,M,48.2,M,,*50,1746259273000
NMEA,$PSAMSA,080114.000,4504.1860,N,00741.2530,E,0,M,,*69,1746259273000
NMEA,$GPGLL,4504.1860,N,00741.2530,E,080114.000,A,A*59,1746259273000
NMEA,$GPVTG,148.1,T,,M,10.9,N,20.1,K,A*0A,1746259273000
NMEA,$GPGSV,2,1,05,18,44,172,23,25,39,113,26,28,53,225,26,29,68,045,26*74,1746259273000
NMEA,$GPGSV,2,2,05,31,53,273,26*4A,1746259273000
NMEA,$GLGSV,1,1,04,70,16,333,19,73,85,077,24,74,42,322,26,80,28,132,27*60,1746259273000
NMEA,$BDGSV,1,1,03,229,84,137,22,230,32,052,17,236,34,146,22*69,1746259273000
NMEA,$GPGSA,A,3,29,31,25,,,,,,,,,,3.0,1.8,2.4*30,1746259273000
NMEA,$GNGSA,A,3,73,74,,,,,,,,,,,3.0,1.8,2.4*27,1746259273000
NMEA,$BDGSA,A,3,229,236,,,,,,,,,,,3.0,1.8,2.4*21,1746259273000
NMEA,$GPRMC,080114.000,A,4504.1860,N,00741.2530,E,10.9,148.1,030525,,,A*5B,1746259273000
NMEA,$PSAMCLK,2364,54729200,7,9747818,4101949,547292000*43,1746259273000
NMEA,$PSAMCLK,2364,54729200,7,9747818,4101949,547292000*43,1746259273000
NMEA,$GPGGA,080115.000,4504.1843,N,00741.2551,E,1,09,1.2,241.8,M,48.2,M,,*50,1746259274000
NMEA,$PSAMSA,080115.000,4504.1843,N,00741.2551,E,0,M,,*6E,1746259274000
NMEA,$GPGLL,4504.1843,N,00741.2551,E,080115.000,A,A*5E,1746259274000
NMEA,$GPVTG,148.9,T,,M,9.0,N,16.7,K,A*30,1746259274000
NMEA,$GPGSV,2,1,05,18,44,172,23,25,39,113,25,28,53,225,26,29,68,045,26*77,1746259274000
NMEA,$GPGSV,2,2,05,31,53,273,26*4A,1746259274000
NMEA,$GLGSV,1,1,04,70,16,333,17,73,85,077,24,74,42,322,26,80,28,132,27*6E,1746259274000
NMEA,$BDGSV,1,1,03,229,84,137,23,230,32,052,15,236,34,146,22*6A,1746259274000
NMEA,$GPGSA,A,3,29,31,28,18,,,,,,,,,2.6,1.2,2.2*3F,1746259274000
NMEA,$GNGSA,A,3,73,74,80,,,,,,,,,,2.6,1.2,2.2*24,1746259274000
NMEA,$BDGSA,A,3,229,236,,,,,,,,,,,2.6,1.2,2.2*2A,1746259274000
NMEA,$GPRMC,080115.000,A,4504.1843,N,00741.2551,E,9.0,148.9,030525,,,A*65,1746259274000
NMEA,$PSAMCLK,2364,54729300,9,9747852,4163821,547293000*48,1746259274000
NMEA,$PSAMCLK,2364,54729300,9,9747852,4163821,547293000*48,1746259274000
NMEA,$GPGGA,080116.000,4504.1820,N,00741.2569,E,1,07,3.6,241.4,M,48.2,M,,*59,1746259275000
NMEA,$PSAMSA,080116.000,4504.1820,N,00741.2569,E,0,M,,*63,1746259275000
NMEA,$GPGLL,4504.1820,N,00741.2569,E,080116.000,A,A*53,1746259275000
NMEA,$GPVTG,148.8,T,,M,9.2,N,17.0,K,A*35,1746259275000
NMEA,$GPGSV,2,1,05,18,44,172,23,25,39,113,25,28,53,225,26,29,68,045,26*77,1746259275000
NMEA,$GPGSV,2,2,05,31,53,273,26*4A,1746259275000
NMEA,$GLGSV,1,1,04,70,16,333,16,73,85,077,24,74,42,322,26,80,28,132,27*6F,1746259275000
NMEA,$BDGSV,1,1,03,229,84,137,23,230,32,052,14,236,34,146,22*6B,1746259275000
NMEA,$GPGSA,A,3,29,28,25,,,,,,,,,,7.0,3.6,6.2*32,1746259275000
NMEA,$GNGSA,A,3,73,80,,,,,,,,,,,7.0,3.6,6.2*26,1746259275000
NMEA,$BDGSA,A,3,229,236,,,,,,,,,,,7.0,3.6,6.2*2B,1746259275000
NMEA,$GPRMC,080116.000,A,4504.1820,N,00741.2569,E,9.2,148.8,030525,,,A*6B,1746259275000
NMEA,$PSAMCLK,2364,54729400,7,9747899,4225695,547294000*41,1746259275000
NMEA,$PSAMCLK,2364,54729400,7,9747899,4225695,547294000*41,1746259275000
NMEA,$GPGGA,080117.000,4504.1800,N,00741.2597,E,1,08,1.6,241.2,M,48.2,M,,*50,1746259276000
NMEA,$PSAMSA,080117.000,4504.1800,N,00741.2597,E,0,M,,*61,1746259276000
NMEA,$GPGLL,4504.1800,N,00741.2597,E,080117.000,A,A*51,1746259276000
NMEA,$GPVTG,143.4,T,,M,9.1,N,16.9,K,A*39,1746259276000
NMEA,$GPGSV,2,1,05,18,44,172,22,25,39,113,25,28,53,225,25,29,68,045,26*75,1746259276000
NMEA,$GPGSV,2,2,05,31,53,273,25*49,1746259276000
NMEA,$GLGSV,1,1,04,70,16,333,14,73,85,077,24,74,42,322,26,80,28,132,27*6D,1746259276000
NMEA,$BDGSV,1,1,03,229,84,137,24,230,32,052,13,236,34,146,21*68,1746259276000
NMEA,$GPGSA,A,3,29,31,25,,,,,,,,,,2.8,1.6,2.2*31,1746259276000
NMEA,$GNGSA,A,3,73,74,80,,,,,,,,,,2.8,1.6,2.2*2E,1746259276000
NMEA,$BDGSA,A,3,229,236,,,,,,,,,,,2.8,1.6,2.2*20,1746259276000
NMEA,$GPRMC,080117.000,A,4504.1800,N,00741.2597,E,9.1,143.4,030525,,,A*6D,1746259276000
NMEA,$PSAMCLK,2364,54729500,8,9747834,4287570,547295000*49,1746259276000
NMEA,$PSAMCLK,2364,54729500,8,9747834,4287570,547295000*49,1746259276000
NMEA,$GPGGA,080118.000,4504.1779,N,00741.2636,E,1,08,1.6,241.2,M,48.2,M,,*56,1746259277000
NMEA,$PSAMSA,080118.000,4504.1779,N,00741.2636,E,0,M,,*67,1746259277000
NMEA,$GPGLL,4504.1779,N,00741.2636,E,080118.000,A,A*57,1746259277000
NMEA,$GPVTG,138.8,T,,M,10.4,N,19.3,K,A*01,1746259277000
NMEA,$GPGSV,2,1,05,18,44,172,22,25,39,113,25,28,53,225,25,29,68,045,26*75,1746259277000
NMEA,$GPGSV,2,2,05,31,53,273,25*49,1746259277000
NMEA,$GLGSV,1,1,04,70,16,333,14,73,85,077,24,74,42,322,26,80,28,132,27*6D,1746259277000
NMEA,$BDGSV,1,1,03,229,84,137,24,230,32,052,13,236,34,146,21*68,1746259277000
NMEA,$GPGSA,A,3,29,31,25,,,,,,,,,,2.8,1.6,2.2*31,1746259277000
NMEA,$GNGSA,A,3,73,74,80,,,,,,,,,,2.8,1.6,2.2*2E,1746259277000
NMEA,$BDGSA,A,3,229,236,,,,,,,,,,,2.8,1.6,2.2*20,1746259277000
NMEA,$GPRMC,080118.000,A,4504.1779,N,00741.2636,E,10.4,138.8,030525,,,A*56,1746259277000
NMEA,$PSAMCLK,2364,54729600,8,9747739,4349440,547296000*4A,1746259277000
NMEA,$PSAMCLK,2364,54729600,8,9747739,4349440,547296000*4A,1746259277000
NMEA,$GPGGA,080119.000,4504.1762,N,00741.2668,E,1,08,1.4,241.0,M,48.2,M,,*56,1746259278000
NMEA,$PSAMSA,080119.000,4504.1762,N,00741.2668,E,0,M,,*67,1746259278000
NMEA,$GPGLL,4504.1762,N,00741.2668,E,080119.000,A,A*57,1746259278000
NMEA,$GPVTG,136.7,T,,M,10.6,N,19.7,K,A*06,1746259278000
NMEA,$GPGSV,2,1,05,18,44,172,22,25,39,113,25,28,53,225,25,29,68,045,26*75,1746259278000
NMEA,$GPGSV,2,2,05,31,53,273,25*49,1746259278000
NMEA,$GLGSV,1,1,04,70,16,333,13,73,85,077,23,74,42,322,26,80,28,132,27*6D,1746259278000
NMEA,$BDGSV,1,1,03,229,84,137,24,230,32,052,12,236,34,146,19*62,1746259278000
NMEA,$GPGSA,A,3,29,31,28,18,,,,,,,,,2.6,1.4,2.2*39,1746259278000
NMEA,$GNGSA,A,3,73,74,80,,,,,,,,,,2.6,1.4,2.2*22,1746259278000
NMEA,$BDGSA,A,3,229,,,,,,,,,,,,2.6,1.4,2.2*1B,1746259278000
NMEA,$GPRMC,080119.000,A,4504.1762,N,00741.2668,E,10.6,136.7,030525,,,A*55,1746259278000
NMEA,$PSAMCLK,2364,54729700,8,9747659,4411316,547297000*43,1746259278000
NMEA,$PSAMCLK,2364,54729700,8,9747659,4411316,547297000*43,1746259278000
NMEA,$GPGGA,080120.000,4504.1742,N,00741.2700,E,1,08,1.4,239.7,M,48.2,M,,*59,1746259279000
NMEA,$PSAMSA,080120.000,4504.1742,N,00741.2700,E,0,M,,*60,1746259279000
NMEA,$GPGLL,4504.1742,N,00741.2700,E,080120.000,A,A*50,1746259279000
NMEA,$GPVTG,135.5,T,,M,10.9,N,20.2,K,A*07,1746259279000
NMEA,$GPGSV,2,1,05,18,44,172,22,25,39,113,25,28,53,225,25,29,68,045,26*75,1746259279000
NMEA,$GPGSV,2,2,05,31,53,273,25*49,1746259279000
NMEA,$GLGSV,1,1,04,70,16,333,12,73,85,077,23,74,42,322,26,80,28,132,27*6C,1746259279000
NMEA,$BDGSV,1,1,02,229,84,137,24,236,34,146,25*68,1746259279000
NMEA,$GPGSA,A,3,29,28,18,,,,,,,,,,2.6,1.4,2.2*3B,1746259279000
NMEA,$GNGSA,A,3,73,74,80,,,,,,,,,,2.6,1.4,2.2*22,1746259279000
NMEA,$BDGSA,A,3,229,236,,,,,,,,,,,2.6,1.4,2.2*2C,1746259279000
NMEA,$GPRMC,080120.000,A,4504.1742,N,00741.2700,E,10.9,135.5,030525,,,A*5C,1746259279000
NMEA,$PSAMCLK,2364,54729800,8,9747652,4473185,547298000*44,1746259279000
NMEA,$PSAMCLK,2364,54729800,8,9747652,4473185,547298000*44,1746259279000
NMEA,$GPGGA,080121.000,4504.1718,N,00741.2738,E,1,05,2.4,240.0,M,48.2,M,,*5B,1746259280000
NMEA,$PSAMSA,080121.000,4504.1718,N,00741.2738,E,0,M,,*65,1746259280000
NMEA,$GPGLL,4504.1718,N,00741.2738,E,080121.000,A,A*55,1746259280000
NMEA,$GPVTG,133.8,T,,M,12.1,N,22.4,K,A*02,1746259280000
NMEA,$GPGSV,2,1,05,18,44,172,22,25,39,113,25,28,53,225,24,29,68,045,26*74,1746259280000
NMEA,$GPGSV,2,2,05,31,53,273,25*49,1746259280000
NMEA,$GLGSV,1,1,03,73,85,077,23,74,42,322,26,80,28,132,27*5B,1746259280000
