     4.01           OBSERVATION DATA    M                   RINEX VERSION / TYPE
GnssLogger          samsung 13          20250503 080039 UTC PGM / RUN BY / DATE
Google GnssLogger                                           MARKER NAME
Unknown                                                     MARKER NUMBER
Unknown             Unknown                                 OBSERVER / AGENCY
Unknown             GnssLogger          v3.1.0.4            REC # / TYPE / VERS
Unknown             Unknown                                 ANT # / TYPE
        0.0000        0.0000        0.0000                  ANTENNA: DELTA H/E/N
G    4 C1C L1C D1C S1C                                      SYS / # / OBS TYPES
R    4 C1C L1C D1C S1C                                      SYS / # / OBS TYPES
C    4 C2C L2C D2C S2C                                      SYS / # / OBS TYPES
  2025    05    03    08    00   39.0000000     GPS         TIME OF FIRST OBS
 3 R09 -2 R10 -7 R16 -1                                     GLONASS SLOT / FRQ #
samsung SM-A515F (Android 13) HW Year: 2016 HW Model:       COMMENT
S.LSI,K102                                                  COMMENT
                                                            END OF HEADER
> 2025 05 03 08 00 39.9999999  0 11                      
G31  21193862.29414    -14715.54114     -1147.72414        28.90014
G28  21354786.68914    -37046.88914     -2861.13414        27.70014
G25  21833718.93114    -51325.85314     -3952.09614        23.70014
G29  20653529.55913    -31066.77113     -2405.38113        22.50013
G18  22072143.87313     14572.96913      1603.76713        21.20013
R16  21786244.39714    -61076.51614     -4676.76614        26.00014
R10  20924064.97114     24161.07014      1829.31414        23.80014
C36  23661318.81014    -51808.90214     -3993.34714        23.80014
R09  19066612.05913    -15878.08513     -1241.14413        23.10013
C30  23853700.12713    -11469.58613     -3829.79313        22.30013
C29  21426082.43213    -13838.84713     -1070.60413        23.20013
> 2025 05 03 08 00 41.0000000  0 11                      
G31  21193871.88815    -15863.45715     -1157.59915        29.50015
G28  21355129.65114    -39901.31314     -2860.22814        27.60014
G25  21834259.15714    -55275.89714     -3960.05514        23.70014
G29  20653775.68913    -33461.57213     -2398.18213        22.50013
G18  22071632.42713     16180.13713      1598.15013        21.20013
R16  21786900.94214    -65689.17114     -4679.55914        26.10014
R10  20923493.26714     26105.26014      1817.82214        23.90014
C36  23661868.32914    -55792.85314     -3987.08114        23.70014
R09  19066629.44713    -17076.85813     -1242.45613        23.10013
C30  23854256.84213    -15293.60113     -3829.83613        22.50013
C29  21426092.32513    -14908.28513     -1081.16613        22.90013
> 2025 05 03 08 00 41.9999999  0 11                      
G31  21193840.11015    -17015.34615     -1159.79215        29.90015
G28  21355426.14614    -42759.47014     -2865.94014        27.50014
G25  21834759.51114    -59230.60014     -3962.94814        23.60014
G29  20653984.94413    -35853.51013     -2396.42213        23.00013
G18  22071077.21113     17780.52613      1591.08113        21.20013
R16  21787520.61314    -70329.30714     -4663.49514        26.50014
C36  23662382.77314  31162190.21414     -3980.21414        24.00014
R10  20922912.86914     27872.53914      1817.50814        23.90014
C30  23854726.61613    -19112.85013     -3822.72813        22.90013
R09  19066605.16413    -18274.83113     -1236.80513        23.10013
C29  21426077.63513    -15988.53013     -1088.30013        22.70013
> 2025 05 03 08 00 43.0000000  0 11                      
G31  21193859.29715    -18170.12915     -1162.07515        30.10015
G28  21355752.32014    -45623.05614     -2872.14214        27.40014
G29  20654231.07313    -38244.16113     -2395.85113        23.30013
G25  21835307.83114    -63188.18014     -3964.86114        23.50014
G18  22070557.07113     19379.60313      1592.57413        21.10013
R16  21788190.64914    -75013.81214     -4662.31214        26.80014
C36  23662931.09414  31158217.78214     -3976.11914        24.20014
R10  20922389.13114     29561.21814      1809.60114        23.90014
C30  23855246.75613    -22929.24413     -3820.75613        23.00013
R09  19066623.15113    -19476.66213     -1243.54913        23.00013
C29  21426085.73013    -17073.68013     -1093.53113        22.70013
> 2025 05 03 08 00 44.0000000  0 11                      
G31  21193841.30915    -19325.53315     -1161.57715        30.40015
G28  21356068.60114    -48488.15814     -2871.72114        27.40014
G29  20654452.02014    -40635.76714     -2397.94414        23.60014
G25  21835820.17613    -67139.80513     -3954.50713        23.40013
G18  22070021.04213     20982.52513      1598.98013        21.20013
R16  21788828.00815    -79686.08615     -4661.06515        31.10015
C36  23663461.42714  31154248.42114     -3976.36414        24.40014
R10  20921812.33114     31371.17114      1803.84014        24.20014
C30  23855743.21313    -26747.55313     -3825.07413        23.30013
R09  19066616.55613    -20708.28913     -1237.35313        23.00013
C29  21426049.75413    -18164.32513     -1095.31913        22.70013
> 2025 05 03 08 00 45.0000000  0 11                      
G31  21193835.61315    -20484.06215     -1166.00815        30.50015
G28  21356395.37514    -51353.70114     -2871.68014        27.30014
G25  21836346.31214    -71076.48814     -3935.12814        23.50014
G29  20654691.55514    -43026.68414     -2396.48914        23.60014
G18  22069492.80813     22601.43613      1620.98613        21.70013
R16  21789461.47015    -84237.56415     -4658.68615        32.20015
C36  23664003.75114  31150278.41114     -3974.97714        24.50014
R10  20921269.70614     33097.26214      1801.93614        24.50014
C30  23856259.75514    -30565.58914     -3823.76114        23.50014
C29  21426034.16513    -19251.45513     -1090.53513        22.90013
R09  19066588.07613    -21723.65213     -1235.36013        22.90013
> 2025 05 03 08 00 46.0000000  0 11                      
G18  22068930.39714     24227.83114      1624.29014        29.30014
G31  21193820.02415    -21646.25915     -1169.87515        30.50015
G28  21356710.45714    -54217.55514     -2868.85214        27.20014
G25  21836861.05614    -75005.21414     -3930.58814        23.80014
G29  20654908.90414    -45422.34314     -2403.87314        23.60014
R16  21790116.51615    -89003.08515     -4660.16315        31.90015
C36  23664530.78614  31146311.75214     -3972.77814        24.90014
R10  20920675.51814     35001.03114      1801.46614        24.70014
C30  23856754.41314    -34383.24314     -3823.25214        23.50014
C29  21426007.78313    -20333.06613     -1082.83013        23.20013
R09  19066557.49713    -22826.15613     -1235.46513        22.90013
> 2025 05 03 08 00 47.0000000  0 11                      
G18  22068377.88015     25854.54115      1621.00415        31.10015
G31  21193805.33415    -22806.64515     -1165.34215        30.50015
G28  21357016.24514    -57081.70114     -2870.15214        27.00014
G25  21837383.89414    -78930.04214     -3928.73914        23.80014
G29  20655118.75914    -47817.73314     -2401.11614        23.50014
R16  21790757.17315    -93692.17715     -4657.95015        31.40015
C36  23665059.02114  31142346.32314     -3971.87514        25.10014
R10  20920102.61414     36791.91614      1804.48414        24.90014
C30  23857250.56914    -38196.65314     -3817.09414        23.70014
C29  21425973.60713    -21409.81013     -1082.41413        23.20013
R09  19066590.47413    -24267.90113     -1239.40613        22.80013
> 2025 05 03 08 00 48.0000000  0 11                      
G31  21193808.93115    -23968.38215     -1168.33215        30.50015
G18  22067842.75015     27477.95815      1615.85015        30.90015
G28  21357328.92914    -59946.62514     -2871.22914        26.80014
G29  20655350.79814    -50211.18514     -2398.40014        23.50014
G25  21837904.03414    -82850.95314     -3924.86814        23.80014
R16  21791398.42915    -98286.45615     -4655.37315        30.80015
C36  23665600.74614  31138379.78814     -3973.35914        25.10014
R10  20919532.40914     38664.44914      1803.80814        24.90014
C30  23857760.81614    -42009.97814     -3819.14514        23.80014
C29  21425958.61814    -22486.29014     -1083.47414        23.50014
R09  19066621.65213    -25602.63813     -1238.59413        22.70013
> 2025 05 03 08 00 49.0000000  0 11                      
G31  21193788.54515    -25130.88915     -1168.73415        30.80015
G18  22067296.22915     29098.11115      1612.67615        30.50015
G28  21357635.61714    -62815.31714     -2876.41914        26.70014
G29  20655555.85614    -52606.89314     -2402.67914        23.50014
G25  21838416.67914    -86770.84914     -3925.23114        23.70014
R16  21792023.49615   -102892.23815     -4660.72715        30.20015
C36  23666126.28214  31134410.46314     -3976.53714        25.10014
R10  20918968.79914     40404.99714      1814.05314        24.90014
C30  23858250.97714    -45823.36714     -3819.20914        23.80014
C29  21425927.73914    -23565.36014     -1082.99414        23.60014
R09  19066612.95913    -26822.04013     -1230.33213        22.60013
> 2025 05 03 08 00 50.0000000  0 11                      
G31  21193782.55015    -26294.93915     -1170.68415        30.90015
G18  22066756.30215     30715.55415      1610.22315        29.50015
G28  21357954.29614    -65684.45814     -2875.22614        26.70014
G29  20655784.59814    -55004.11714     -2403.84314        23.90014
G25  21838925.72614    -90695.42014     -3932.76814        23.60014
R16  21792647.06415   -107489.61215     -4662.33715        29.90015
R10  20918379.10714     42285.88114      1800.50014        24.80014
C36  23666654.51614  31130437.91814     -3978.87114        25.00014
C30  23858740.23814    -49637.38714     -3820.14314        24.20014
C29  21425894.76214    -24642.06114     -1084.81714        23.60014
R09  19066609.06113    -28067.42513     -1237.95713        22.50013
> 2025 05 03 08 00 51.0000000  0 11                      
G31  21193779.25215    -27458.94515     -1169.90115        30.90015
G28  21358285.26714    -68556.33314     -2879.15914        27.20014
G18  22066227.76814     32332.30614      1610.48714        28.80014
G29  20656030.72714    -57397.25114     -2397.00514        24.40014
G25  21839451.56214    -94627.66314     -3941.99414        23.60014
R16  21793304.50915   -112170.25915     -4663.99015        29.70015
C30  23859250.18514    -53447.02414     -3813.30714        24.80014
R10  20917816.39714     44118.75314      1802.05814        24.90014
C36  23667207.93314  31126461.94014     -3986.42714        25.00014
C29  21425886.36814    -25719.30514     -1080.75914        23.50014
R09  19066617.15613    -29279.91513     -1238.34513        22.40013
> 2025 05 03 08 00 52.0000000  0 11                      
G31  21193763.96315    -28625.79115     -1174.11015        30.80015
G28  21358600.64814    -71432.73314     -2884.50514        27.20014
G18  22065686.04314     33949.93314      1612.21814        28.30014
G29  20656239.98314    -59790.72614     -2399.48914        24.70014
G25  21839969.00414    -98566.40714     -3947.83614        23.60014
R16  21793943.96715   -116851.70915     -4669.10215        29.50015
R10  20917251.58814     45866.16614      1812.15914        25.30014
C30  23859746.94114    -57251.88814     -3808.26714        25.30014
C36  23667731.37114  31122480.61514     -3990.98314        25.00014
C29  21425859.68613    -26793.58513     -1080.69413        23.40013
R09  19066606.96313    -30490.91413     -1240.31713        22.50013
> 2025 05 03 08 00 53.0000000  0 11                      
G31  21193747.17415    -29791.58815     -1171.13515        30.70015
G28  21358907.93614    -74311.92314     -2886.44614        27.20014
G18  22065152.11314     35562.32614      1603.91214        28.00014
G29  20656453.13514    -62186.30814     -2402.49714        24.80014
G25  21840485.84614   -102509.46114     -3951.06814        23.80014
C30  23860240.09914    -61058.59214     -3813.43114        26.50014
R16  21794602.61114   -121637.10814     -4677.59014        29.40014
C36  23668254.50814  31118494.20114     -3993.37214        25.20014
R10  20916686.17914     47616.62914      1814.09814        25.60014
R09  19066598.26913    -31711.08513     -1246.67713        22.70013
C29  21425832.40513    -27867.65613     -1079.27313        23.30013
> 2025 05 03 08 00 54.0000000  0 11                      
G31  21193756.46815    -30955.48415     -1168.86215        30.60015
G28  21359225.11614    -77191.51614     -2885.71014        27.40014
G18  22064632.57314     37165.52114      1592.67714        27.80014
G25  21841005.08714   -106453.75114     -3950.82514        24.80014
G29  20656696.86614    -64588.84414     -2411.92914        24.80014
C36  23668797.73215  31114507.29915     -3992.66915        32.10015
C30  23860749.44715    -64867.32515     -3815.60815        33.90015
R16  21795262.75414   -126330.74714     -4682.45514        29.30014
R10  20916122.27014     49456.36514      1813.80514        25.90014
R09  19066608.16213    -32931.98013     -1247.97313        22.70013
C29  21425811.12013    -28942.07213     -1079.14113        23.10013
> 2025 05 03 08 00 55.0000000  0 11                      
G31  21193738.18015    -32118.76315     -1168.81615        30.60015
G28  21359536.00114    -80069.14914     -2882.49714        27.50014
G18  22064092.64714     38771.76214      1601.91714        27.60014
G25  21841520.43014   -110399.20014     -3951.86814        25.00014
G29  20656924.10914    -66995.35414     -2414.34014        24.70014
C36  23669325.06715  31110519.93715     -3993.73315        34.70015
C30  23861245.60315    -68680.90715     -3821.79615        33.50015
R16  21795883.62414   -130913.59914     -4673.02514        29.20014
R10  20915536.77514     51312.84414      1810.91014        26.10014
R09  19066593.17213    -34117.76313     -1249.20413        22.80013
C29  21425783.83813    -30016.41313     -1080.57313        22.90013
> 2025 05 03 08 00 56.0000001  0 11                      
G31  21193751.97115    -33278.75915     -1164.21615        30.50015
G28  21359881.96114    -82943.99614     -2879.31414        27.60014
G18  22063573.40614     40375.60814      1596.78614        27.50014
G25  21842061.25614   -114347.14014     -3955.04714        25.10014
G29  20657171.43814    -69405.32314     -2417.56114        24.70014
C36  23669888.67715  31106530.93215     -3997.08515        34.60015
C30  23861773.83815    -72495.33415     -3820.65715        32.80015
R16  21796566.85114   -135670.71914     -4686.19314        29.10014
R10  20914989.35414     53126.61114      1816.49814        26.40014
R09  19066655.82913    -35557.21713     -1245.10413        23.00013
C29  21425788.63513    -31091.79013     -1082.52013        22.70013
> 2025 05 03 08 00 56.9999998  0 11                      
G31  21193645.54415    -34439.29215     -1166.66315        30.40015
G28  21360102.90814    -85820.16514     -2882.69114        28.10014
G18  22062938.14614     41976.59614      1593.69314        27.40014
G25  21842485.76214   -118297.46414     -3957.37614        25.20014
G29  20657306.64414    -71816.52114     -2417.67314        24.60014
C36  23670327.57315  31102540.06215     -3998.22615        34.50015
C30  23862178.55815    -76311.46415     -3822.78715        32.10015
R16  21797125.06414   -140399.55614     -4699.10114        29.00014
R10  20914301.33014     55050.97214      1815.97214        27.10014
R09  19066556.89713    -36775.85613     -1250.55913        23.40013
C29  21425679.81113    -32173.01413     -1090.96013        22.50013
> 2025 05 03 08 00 58.0000001  0 11                      
G31  21193743.27715    -35597.37715     -1162.78015        30.40015
G28  21360517.52114    -88695.51014     -2880.84914        28.50014
G18  22062495.65214     43581.91714      1601.56914        27.40014
G25  21843099.13714   -122250.73414     -3960.65914        25.40014
G29  20657640.61314    -74226.05614     -2414.62014        24.40014
C36  23670967.63015  31098545.59115     -4003.09815        34.30015
C30  23862789.83415    -80130.09515     -3825.74415        31.50015
R16  21797865.85114   -145045.04314     -4691.34114        28.80014
R10  20913859.13714     56721.38714      1817.41714        27.30014
R09  19066653.43014    -37979.17714     -1245.47614        23.70014
C29  21425756.85713    -33259.71013     -1094.12213        22.40013
> 2025 05 03 08 00 59.0000001  0 10                      
G31  21193717.49515    -36755.66015     -1164.22515        30.30015
G28  21360831.40414    -91574.71814     -2886.98414        28.50014
G18  22061952.42814     45187.79314      1600.30614        27.60014
G25  21843627.67114   -126207.45514     -3964.28814        25.40014
G29  20657848.96914    -76628.76614     -2405.14014        24.30014
C36  23671499.46215  31094547.86015     -4003.84715        34.10015
C30  23863281.19415    -83956.95015     -3836.75515        30.90015
R10  20913286.53314     58509.98414      1816.56514        27.30014
R09  19066668.42014    -39324.65114     -1248.39914        23.80014
C29  21425730.17613    -34348.55913     -1096.47113        22.20013
> 2025 05 03 08 00 59.9999998  0 11                      
G31  21193613.76615    -37911.46315     -1160.42615        30.10015
G28  21361046.35514    -94449.49314     -2878.41714        28.40014
G18  22061324.36314     46792.57414      1598.37014        27.90014
G25  21844048.58014   -130166.64014     -3966.27614        25.70014
G29  20657970.68414    -79030.21114     -2406.67514        24.20014
C36  23671930.26415  31090551.88015     -4001.16715        33.70015
C30  23863702.10315    -87782.71115     -3831.02115        30.40015
R10  20912605.40514     60396.21014      1823.33114        27.30014
R09  19066552.40014    -40453.13214     -1256.03914        24.00014
R16  21799058.72614   -154431.63414     -4691.19714        27.10014
C29  21425610.55813    -35439.92013     -1097.99013        22.00013
> 2025 05 03 08 01 00.9999998  0 11                      
G31  21193638.05015    -39065.81415     -1159.48715        30.00015
G28  21361385.42114    -97315.84914     -2868.00914        28.40014
G18  22060816.21514     48389.70614      1587.44214        27.90014
G25  21844593.60314   -134128.16414     -3968.55414        26.00014
G29  20658225.80814    -81434.25414     -2411.20214        24.30014
C30  23864223.14215    -91608.76815     -3832.01215        30.00015
R10  20912044.79314     62281.67214      1818.69614        27.30014
C36  23672491.17515  31086553.60515     -4004.36315        32.30015
R09  19066588.07614    -41749.70514     -1245.92114        24.40014
C29  21425602.76413    -36532.68313     -1098.00613        21.90013
R16  21799785.12314   -159418.04714     -4688.58014        25.80014
> 2025 05 03 08 01 01.9999997  0 11                      
G31  21193594.58015    -40220.96515     -1161.46915        29.90015
G28  21361672.02214   -100178.67714     -2866.97914        28.40014
G18  22060247.20914     49990.73514      1597.05914        28.00014
G25  21845091.25814   -138093.03914     -3972.46614        26.20014
G29  20658432.36514    -83833.53614     -2402.81814        24.30014
C36  23673017.31115  31082555.26915     -4004.59415        31.20015
C30  23864732.48915    -95437.79415     -3836.37215        29.60015
R10  20911453.00214     64109.96914      1818.31414        27.30014
R09  19066571.28714    -42988.17314     -1251.00014        24.60014
C29  21425574.88313    -37626.15013     -1098.77013        21.80013
R16  21800417.98514   -164126.97814     -4697.41514        24.70014
> 2025 05 03 08 01 02.9999998  0 11                      
G31  21193608.97015    -41374.70115     -1158.87215        29.70015
G18  22059755.24914     51593.40314      1597.64114        28.30014
G28  21362017.38314   -103042.61014     -2870.32914        28.30014
G25  21845646.17414   -142058.25714     -3971.23114        26.20014
G29  20658697.08214    -86234.58514     -2407.77614        24.50014
C36  23673576.12415  31078556.51715     -4000.29815        30.90015
C30  23865275.11414    -99263.81214     -3830.30314        29.20014
R10  20910925.96714     65815.43214      1834.47814        27.20014
R09  19066618.05514    -44343.58314     -1256.51014        24.60014
C29  21425587.77413    -38719.74313     -1099.38113        21.80013
R16  21801080.52614   -168772.50314     -4710.27814        23.80014
> 2025 05 03 08 01 03.9999998  0 11                      
G18  22059214.72314     53196.30214      1597.15114        28.90014
G31  21193587.68515    -42529.99915     -1161.94115        29.60015
G28  21362331.86514   -105911.83514     -2877.73214        28.20014
G25  21846158.81914   -146023.38314     -3970.94014        26.10014
G29  20658913.83214    -88636.41414     -2408.08114        24.50014
C36  23674104.65815  31074560.38015     -4003.66515        31.00015
C30  23865763.47614   -103088.86414     -3830.37614        28.90014
R10  20910322.48514     67768.77314      1819.77014        27.10014
R09  19066619.85414    -45619.52514     -1265.55114        24.60014
C29  21425564.99013    -39814.26713     -1100.07213        21.70013
R16  21801733.77413   -173528.85613     -4706.00213        23.00013
> 2025 05 03 08 01 04.9999999  0 10                      
G18  22058692.48514     54797.61814      1594.60514        29.10014
G31  21193599.67614    -43686.99814     -1163.76714        29.40014
G28  21362656.54114   -108785.15414     -2881.28214        28.10014
G25  21846686.75314   -149987.65914     -3969.76614        26.00014
G29  20659146.17114    -91036.60414     -2405.28614        24.40014
C36  23674656.27715  31070562.71615     -4005.68615        31.00015
C30  23866262.33014   -106916.06314     -3834.13414        28.70014
R10  20909724.09914     69792.32114      1810.10814        27.00014
C29  21425543.10513    -40908.30113     -1099.58913        21.60013
R16  21802374.43013   -178120.07713     -4708.17513        22.40013
> 2025 05 03 08 01 05.9999999  0 10                      
G18  22058148.66114     56398.58214      1594.94014        29.10014
G31  21193582.88814    -44847.16414     -1167.59514        29.30014
G28  21362966.82614   -111659.11014     -2880.11714        28.40014
G25  21847214.98814   -153951.20014     -3969.01614        26.00014
G29  20659372.21414    -93436.60414     -2405.74914        24.30014
C36  23675181.81315  31066564.06815     -4003.43715        31.00015
C30  23866750.99214   -110747.60114     -3839.49714        28.40014
R10  20909184.47314     71404.73214      1807.17614        26.80014
C29  21425520.62113    -42002.03313     -1099.00313        21.60013
R16  21802944.63613   -182432.35713     -4706.12813        21.90013
> 2025 05 03 08 01 06.9999999  0 10                      
G18  22057615.33114     57999.32914      1594.77414        29.20014
G31  21193583.78714    -46007.88914     -1166.86614        29.10014
G28  21363274.41314   -114532.98014     -2879.68814        28.50014
G25  21847736.92614   -157916.33014     -3971.78514        26.20014
G29  20659602.75514    -95841.75514     -2413.58714        24.10014
C36  23675713.34515  31062565.65515     -4007.70615        30.90015
C30  23867248.34814   -114582.44214     -3842.29814        28.10014
R10  20908617.56514     73163.58614      1820.06314        26.70014
C29  21425507.43013    -43095.77313     -1100.31413        21.60013
R16  21803573.90013   -187058.77013     -4695.76113        21.50013
> 2025 05 03 08 01 07.9999999  0 11                      
G18  22057098.18914     59600.36514      1595.26114        29.20014
G31  21193587.68514    -47169.57214     -1168.08014        29.00014
G28  21363608.98114   -117406.78214     -2879.68414        28.50014
G25  21848269.65814   -161881.74014     -3971.46514        26.60014
G29  20659835.09414    -98252.87714     -2420.02514        24.10014
C36  23676259.56715  31058566.93815     -4006.13615        30.80015
R10  20908050.65814     75019.33914      1817.88514        26.70014
C30  23867763.99114   -118414.26414     -3836.17514        27.80014
R09  19066637.24214     -1540.27114     -1253.39614        24.30014
C29  21425507.43013    -44191.32713     -1102.17513        21.60013
R16  21804204.96313   -191598.77913     -4677.55413        21.30013
> 2025 05 03 08 01 08.9999999  0 11                      
G18  22056550.76814     61199.98714      1593.06914        29.40014
G28  21363928.86014   -120283.18014     -2883.53814        28.50014
G31  21193586.48514    -48328.83914     -1163.90314        28.90014
G25  21848791.59614   -165846.13214     -3969.72514        26.60014
G29  20660059.93814   -100664.96814     -2418.41814        24.00014
C36  23676798.89315  31054565.17415     -4006.32615        30.70015
R10  20907484.05014     76775.90214      1815.51614        27.00014
C30  23868263.44514   -122245.48714     -3836.71214        27.50014
R09  19066609.06114     -2656.53014     -1257.32614        24.30014
C29  21425472.65413    -45289.67213     -1106.29513        21.50013
R16  21804778.16613   -195927.11013     -4680.01713        21.10013
> 2025 05 03 08 01 09.9999999  0 11                      
G18  22056007.54415     62797.56815      1590.69615        29.50015
G28  21364234.94814   -123158.47614     -2880.60714        28.80014
G31  21193574.49414    -49490.38514     -1168.54814        28.80014
G25  21849312.33614   -169808.71514     -3967.54014        26.80014
G29  20660273.39014   -103074.31514     -2413.83514        23.90014
C36  23677328.92615  31050564.68515     -4011.29715        30.60015
R10  20906903.35214     78607.97414      1813.05814        27.30014
C30  23868753.90614   -126073.59114     -3832.35214        27.20014
R09  19066621.65214     -3989.01114     -1259.95614        24.30014
C29  21425444.17413    -46389.97213     -1104.91813        21.50013
R16  21805499.16713   -201045.75413     -4688.10013        20.90013
> 2025 05 03 08 01 11.0000000  0 11                      
G18  22055497.89715     64395.33915      1592.00215        29.50015
G28  21364574.31314   -126034.40714     -2882.10914        29.30014
G31  21193579.89014    -50652.58314     -1168.38714        28.80014
G25  21849857.35914   -173771.96314     -3969.44014        26.90014
G29  20660524.31714   -105480.13414     -2409.91714        24.00014
C36  23677888.03915  31046559.01215     -4010.93515        30.50015
R10  20906348.13614     80463.69114      1816.70914        27.40014
C30  23869280.94114   -129902.83914     -3835.62714        27.00014
R09  19066642.63814     -5207.65214     -1258.08314        25.30014
C29  21425459.46313    -47491.15513     -1109.35713        21.80013
R16  21806203.38013   -205913.69913     -4701.69513        20.70013
> 2025 05 03 08 01 11.9999999  0 10                      
G28  21364872.90615   -128912.87015     -2885.64515        29.50015
G18  22054934.88615     65992.50615      1590.94415        29.50015
G31  21193540.01814    -51812.49714     -1164.68914        28.90014
G25  21850360.41014   -177734.02114     -3967.37914        26.90014
G29  20660733.87214   -107886.54914     -2412.62914        24.60014
R10  20905747.35214     82339.27214      1809.59114        27.40014
R09  19066639.34014     -6517.94014     -1257.19614        25.80014
C30  23869777.69714   -133732.86314     -3836.27414        26.70014
C29  21425414.79413    -48593.95513     -1106.95413        22.10013
R16  21806867.42013   -210789.24913     -4705.31713        20.80013
> 2025 05 03 08 01 12.9999999  0 10                      
G18  22054390.46315     67590.22015      1592.14115        29.90015
G28  21365188.28815   -131793.96415     -2888.25215        29.60015
G31  21193518.13314    -52978.12514     -1174.32814        29.00014
G25  21850872.45614   -181696.14814     -3968.00314        26.80014
G29  20660964.71214   -110291.67114     -2410.31914        24.80014
R10  20905153.46314     84240.75314      1812.07814        27.40014
R09  19066619.85414     -7680.04114     -1258.37214        25.80014
C30  23870275.65214   -137562.59714     -3835.37814        26.50014
C36  23678948.40514  31038543.24714     -4010.84414        27.80014
C29  21425391.71013    -49696.55213     -1110.22813        22.10013
> 2025 05 03 08 01 14.0000000  0 10                      
G18  22053877.81815     69187.96015      1591.88915        30.00015
G28  21365518.65915   -134677.42215     -2890.50115        29.60015
G31  21193532.22314    -54148.28914     -1178.29514        29.00014
G25  21851428.87114   -185654.64814     -3962.54714        26.70014
G29  20661216.83714   -112695.40614     -2408.90314        24.90014
R10  20904615.03614     86007.99414      1808.39714        27.50014
C30  23870800.28914   -141391.16614     -3833.79414        26.30014
R09  19066608.76114     -8726.77014     -1263.78314        25.80014
C36  23679511.11614  31034541.16914     -4006.79314        26.80014
C29  21425386.31413    -50802.89013     -1115.82113        22.00013
> 2025 05 03 08 01 15.0000000  0 10                      
G18  22053330.69715     70782.31715      1586.80115        30.00015
G28  21365830.74315   -137565.38815     -2896.08115        29.50015
G31  21193516.33414    -55323.32014     -1183.32814        29.00014
G25  21851944.51414   -189613.28014     -3964.55714        26.60014
G29  20661434.78614   -115099.76414     -2410.53014        25.10014
R10  20904052.92514     87740.14914      1809.09714        27.70014
C30  23871290.15014   -145211.50114     -3822.02514        26.20014
R09  19066607.86214     -9987.43214     -1264.14614        25.70014
C36  23680049.24314  31030542.64014     -4005.72014        26.20014
C29  21425355.73513    -51911.10213     -1110.81913        22.00013
> 2025 05 03 08 01 16.0000000  0 10                      
G28  21366168.90915   -140456.53415     -2898.65215        29.80015
G18  22052820.15015     72375.14915      1586.15015        29.90015
G31  21193525.02814    -56497.41214     -1179.53914        28.90014
G25  21852483.24114   -193575.68414     -3970.20614        26.50014
G29  20661682.41514   -117504.54514     -2410.90914        25.30014
R10  20903502.80614     89507.42914      1803.95814        27.70014
C30  23871793.80114   -149023.48914     -3813.67714        26.30014
R09  19066668.12014    -11476.50814     -1258.97914        25.60014
C36  23680591.56814  31026547.49814     -3997.37614        25.60014
C29  21425342.54413    -53013.28513     -1104.12213        21.90013
> 2025 05 03 08 01 17.0000000  0 10                      
G28  21366485.19015   -143349.18715     -2899.24915        29.80015
G18  22052280.52415     73969.35415      1589.04615        29.80015
G31  21193508.53914    -57677.37814     -1188.74714        28.80014
G25  21852994.08714   -197540.09114     -3971.25014        26.30014
G29  20661892.56914   -119912.33114     -2415.13214        25.40014
R10  20902917.91114     91360.85814      1807.45914        27.70014
C30  23872293.55514   -152833.75514     -3815.19314        26.30014
R09  19066658.82714    -12692.85714     -1255.36914        25.50014
C36  23681122.20014  31022561.55714     -3986.31414        24.90014
C29  21425316.76213    -54112.53213     -1105.92213        21.80013
> 2025 05 03 08 01 18.0000000  0 10                      
G28  21366786.78115   -146242.33415     -2899.25515        29.80015
G18  22051738.19915     75564.41215      1589.62115        29.70015
G31  21193497.44714    -58862.26414     -1193.20914        28.80014
G29  20662101.22514   -122314.79514     -2405.66314        26.00014
G25  21853531.31514   -201499.70714     -3963.08114        26.10014
R10  20902327.62014     93244.02714      1793.30014        27.60014
C30  23872785.21514   -156648.62614     -3822.98014        26.50014
R09  19066646.83514    -13894.68714     -1265.71314        25.40014
C36  23681642.94014  31018584.84714     -3976.91914        24.40014
C29  21425289.18113    -55213.75713     -1107.22913        21.70013
> 2025 05 03 08 01 19.0000000  0 10                      
G28  21367100.66415   -149134.30215     -2897.23915        30.00015
G18  22051206.66715     77161.01415      1591.50915        29.60015
G31  21193483.95614    -60044.41314     -1186.64214        28.80014
G29  20662321.87214   -124715.69414     -2405.97914        26.20014
G25  21854041.86214   -205454.59414     -3958.38214        26.00014
R10  20901751.11914     95052.45514      1794.56214        27.60014
C30  23873279.27314   -160468.24114     -3827.79414        26.50014
R09  19066662.42414    -15244.74414     -1260.67114        25.20014
C29  21425271.79313    -56311.63613     -1102.34813        22.00013
C36  23682159.78214  31014617.08314     -3971.45314        23.90014
> 2025 05 03 08 01 20.0000000  0 10                      
G28  21367438.53015   -152022.24815     -2891.85215        30.00015
G31  21193482.15814    -61227.00314     -1188.73014        28.80014
G29  20662571.30014   -127124.74714     -2419.04614        26.30014
G25  21854570.39614   -209401.57614     -3948.94614        25.80014
R10  20901221.38614     96709.90314      1791.91514        27.60014
C30  23873798.81314   -164290.38814     -3829.27414        26.40014
R09  19066687.00714    -16544.34014     -1263.80414        25.00014
R16  21812020.55214     -4774.83014     -4678.27214        26.40014
C29  21425272.39313    -57408.23613     -1102.16213        22.00013
C36  23682689.81513  31010654.00713     -3968.73413        23.40013
> 2025 05 03 08 01 21.0000000  0 10                      
G28  21367751.21415   -154910.76915     -2894.65115        30.00015
G31  21193473.46414    -62410.02114     -1189.07414        28.90014
G29  20662787.45014   -129534.61514     -2416.11914        26.50014
G25  21855067.45214   -213343.60114     -3945.38814        25.70014
R16  21812666.00614     -9488.38114     -4676.95414        29.40014
R10  20900662.57214     98426.04114      1790.14414        27.60014
C30  23874309.65914   -168118.44314     -3836.79914        26.20014
R09  19066697.20014    -17863.83614     -1277.49414        24.80014
C29  21425239.41513    -58503.48213     -1098.21013        22.00013
C36  23683205.15813  31006693.73513     -3963.82213        22.90013
> 2025 05 03 08 01 22.0000001  0 10                      
G28  21368101.67115   -157799.30415     -2894.40315        30.00015
G31  21193486.65414    -63595.62914     -1192.76614        29.20014
G29  20663035.97814   -131943.65514     -2414.48714        26.60014
G25  21855614.57314   -217284.29314     -3945.88514        25.50014
R16  21813336.34114    -14175.94314     -4678.48614        29.20014
R10  20900109.75514    100268.79014      1783.02314        27.60014
C30  23874837.89414   -171955.19214     -3846.90314        26.00014
R09  19066696.30114    -18964.81114     -1270.00614        24.50014
C29  21425244.21213    -59594.59513     -1094.62813        21.90013
C36  23683758.87513  31002738.52313     -3958.52213        22.50013
> 2025 05 03 08 01 23.0000000  0 9                      
G31  21193455.77614    -64780.25214     -1190.04814        29.20014
G29  20663249.73014   -134357.08414     -2421.54014        26.60014
G25  21856103.53414   -221224.21214     -3945.44814        25.40014
G18  22049064.35013     83573.87813      1610.72713        22.20013
R16  21813955.71314    -18813.78714     -4679.87114        28.90014
R10  20899535.05314    102005.55814      1775.83114        27.40014
R09  19066675.31514    -20181.11814     -1269.54314        24.40014
C29  21425210.93513    -60684.80513     -1097.00013        21.90013
C36  23684263.72513  30998786.06713     -3957.82313        22.20013
> 2025 05 03 08 01 24.0000000  0 10                      
G31  21193451.87914    -65963.34814     -1188.17614        29.10014
G29  20663470.67714   -136768.00814     -2415.51414        26.60014
G25  21856617.37914   -225165.63214     -3948.01214        25.30014
G28  21368709.95014   -163579.78114     -2897.11314        27.70014
G18  22048529.22113     85189.84913      1610.10713        21.30013
R16  21814573.58514    -23380.58614     -4677.20814        28.50014
R10  20898930.37214    103965.00614      1788.97214        27.20014
R09  19066660.32614    -21366.90314     -1261.39514        24.20014
C29  21425179.75713    -61780.04713     -1103.87513        21.80013
C36  23684797.05613  30994832.15513     -3962.26413        21.70013
> 2025 05 03 08 01 25.0000001  0 10                      
G29  20663727.89914   -139178.79014     -2416.57314        26.60014
G25  21857161.50214   -229107.83214     -3948.45014        25.10014
G31  21193464.17014    -67144.19714     -1185.58814        28.50014
G28  21369051.71314   -166468.23314     -2894.31314        26.50014
G18  22048018.67413     86806.83513      1611.62913        20.80013
R16  21815228.93114    -27987.13214     -4669.86014        28.00014
R10  20898371.55814    105840.55414      1791.73814        27.00014
R09  19066694.80214    -22658.13014     -1269.56214        24.10014
C29  21425186.05213    -62879.96513     -1107.50113        21.80013
C36  23685342.37913  30990877.03013     -3961.58513        21.40013
> 2025 05 03 08 01 26.0000000  0 10                      
G29  20663929.35914   -141587.99814     -2414.33714        26.50014
G25  21857663.35514   -233055.15514     -3955.79914        25.00014
G31  21193456.37514    -68324.08414     -1185.32414        27.40014
G28  21369343.71114   -169354.30014     -2890.79114        25.50014
G18  22047463.15913     88420.61613      1606.25913        20.50013
R16  21815821.62114    -32482.81214     -4673.81414        27.60014
R10  20897792.65914    107600.20314      1784.28414        26.80014
R09  19066719.68514    -24118.17114     -1265.47614        24.00014
C29  21425147.97913    -63984.68513     -1113.44113        21.90013
C36  23685852.32613  30986924.56413     -3956.90713        21.00013
> 2025 05 03 08 01 27.0000001  0 10                      
G29  20664190.47914   -144002.61014     -2423.15814        26.40014
G25  21858217.67114   -237005.35114     -3957.47514        25.30014
G28  21369686.07414   -172231.81814     -2879.08614        24.80014
G31  21193480.95814    -69505.13414     -1187.47614        26.20014
G18  22046941.52013     90027.87813      1598.15613        20.30013
R16  21816513.84214    -37285.78914     -4675.17414        27.20014
R10  20897278.51514    109237.78614      1788.98014        26.60014
R09  19066707.99314    -25161.84514     -1267.58914        23.90014
C29  21425143.48213    -65091.92213     -1113.73913        21.90013
C36  23686399.74713  30982975.12013     -3954.05613        20.70013
> 2025 05 03 08 01 27.9999998  0 10                      
G29  20664313.99314   -146420.39714     -2425.23614        26.30014
G25  21858637.08014   -240957.27314     -3958.64414        25.30014
G28  21369907.32114   -175107.27714     -2880.29014        24.40014
G31  21193375.43114    -70690.27214     -1193.04314        25.30014
G18  22046302.06313     91623.87913      1584.50513        20.20013
R16  21817072.65514    -42018.44814     -4680.88614        26.80014
R10  20896592.59014    111149.94414      1796.76314        26.30014
R09  19066635.44314    -26520.30414     -1267.65114        23.80014
C29  21425031.95913    -66202.32513     -1115.63813        21.90013
C36  23686824.25313  30979029.08313     -3950.19813        20.40013
> 2025 05 03 08 01 29.0000001  0 10                      
G29  20664629.67514   -148839.36914     -2425.48114        26.20014
G25  21859256.75114   -244912.17314     -3962.30414        25.30014
G31  21193457.57514    -71878.48314     -1195.66514        24.70014
G28  21370335.12514   -177988.30914     -2889.73514        24.10014
G18  22045861.36813     93217.40713      1586.37413        20.20013
R16  21817830.83014    -46755.65614     -4682.78414        26.50014
R10  20896128.51114    112937.05314      1795.69314        26.10014
R09  19066716.08714    -27639.57714     -1261.26814        23.60014
C29  21425117.10013    -67311.19713     -1112.95213        22.00013
C36  23687449.02013  30975084.12413     -3950.28813        20.10013
> 2025 05 03 08 01 29.9999998  0 10                      
G29  20664767.27914   -151258.53614     -2425.10614        26.10014
G25  21859679.75914   -248874.95114     -3972.55914        25.30014
G31  21193362.54014    -73064.83514     -1191.26714        24.40014
G28  21370545.57914   -180874.54814     -2894.68514        23.90014
G18  22045229.40513     94804.26513      1577.67613        20.20013
R16  21818386.64514    -51472.26214     -4694.43614        26.30014
R10  20895481.85914    114640.98814      1792.01414        25.90014
R09  19066626.44913    -28907.11613     -1258.05513        23.40013
C29  21424996.88313    -68419.16313     -1114.74913        22.00013
C36  23687884.91913  30971139.50413     -3951.97413        19.70013
> 2025 05 03 08 01 30.9999999  0 10                      
G29  20665020.90414   -153676.54914     -2423.29814        26.00014
G25  21860224.78114   -252845.95814     -3980.98314        25.20014
G31  21193386.82414    -74251.97614     -1193.39714        24.10014
G28  21370886.44314   -183770.01214     -2905.93714        23.80014
G18  22044718.55913     96388.71613      1577.38313        20.20013
R16  21819030.59914    -56018.42614     -4680.37914        26.20014
R10  20894922.74614    116518.05914      1786.93414        25.70014
R09  19066706.49413    -30440.54913     -1261.19713        23.20013
C29  21424998.68213    -69530.74413     -1120.79313        22.00013
C36  23688435.03813  30967192.08613     -3955.06813        19.40013
> 2025 05 03 08 01 32.0000001  0 10                      
G29  20665321.89514   -156099.20014     -2430.88514        25.90014
G25  21860829.16314   -256823.59214     -3986.86214        25.10014
G31  21193457.27514    -75439.16514     -1193.13014        23.90014
G28  21371282.76914   -186666.00814     -2902.17814        23.60014
G18  22044272.76813     97969.77913      1573.44913        20.20013
R16  21819792.37214    -60936.01314     -4687.11114        26.20014
R10  20894421.79314    118341.77814      1780.98314        25.50014
R09  19066764.65313    -31598.79113     -1265.58013        23.10013
C29  21425058.34113    -70645.65713     -1118.65813        22.00013
C36  23689026.82813  30963243.75013     -3955.85013        19.20013
> 2025 05 03 08 01 32.9999998  0 10                      
G29  20665459.80014   -158521.84314     -2428.48314        25.70014
G25  21861257.56614   -260797.37714     -3977.70214        25.00014
G31  21193359.84214    -76625.05014     -1191.07614        23.70014
G28  21371507.61313   -189559.83513     -2898.58513        23.40013
G18  22043647.70013     99549.90713      1573.81413        20.20013
R16  21820312.51214    -65461.54214     -4691.35014        26.20014
R10  20893752.95614    120164.70014      1786.16914        25.40014
C29  21424941.72113    -71751.94913     -1109.15713        22.60013
R09  19066710.69113    -33057.34713     -1270.37713        22.90013
C36  23689458.82913  30959292.04613     -3959.30113        19.00013
> 2025 05 03 08 01 33.9999999  0 10                      
G29  20665712.22514   -160944.44014     -2428.43514        25.50014
G25  21861801.98914   -264761.66414     -3965.39814        24.90014
G31  21193388.62214    -77815.18314     -1198.12014        23.50014
G28  21371841.28213   -192452.62913     -2898.13813        23.20013
G18  22043140.15213    101135.20113      1582.01313        20.20013
R16  21820981.34914    -70139.93414     -4701.03014        26.10014
R10  20893187.54714    122074.56814      1797.36214        25.30014
C29  21424947.41813    -72852.94213     -1105.28313        22.90013
R09  19066734.07513    -34287.45313     -1284.22813        22.70013
C36  23690009.54813  30955338.43513     -3961.47013        18.70013
> 2025 05 03 08 01 34.9999999  0 10                      
G29  20665935.27114   -163362.07814     -2421.02014        25.40014
G25  21862310.73714   -268722.22614     -3964.55914        24.90014
G31  21193369.73513    -79007.29013     -1198.95713        23.30013
G28  21372159.96213   -195342.79513     -2894.71413        23.10013
G18  22042596.02813    102727.78513      1590.36413        20.20013
R16  21821619.00814    -74814.50414     -4707.47314        26.00014
R10  20892657.81414    123632.06214      1784.88214        25.20014
C29  21424920.13614    -73955.38214     -1111.49614        23.50014
R09  19066726.28013    -35512.96613     -1284.23713        22.60013
C36  23690548.57413  30951383.43313     -3961.18613        18.50013
> 2025 05 03 08 01 35.9999999  0 10                      
G29  20666171.80714   -165780.99014     -2425.46614        25.60014
G25  21862834.47514   -272678.31514     -3959.76914        24.80014
G31  21193373.93313    -80199.87313     -1198.73913        23.20013
G28  21372506.82113   -198234.39313     -2898.22913        23.00013
G18  22042064.79613    104327.76113      1597.75213        20.10013
R16  21822285.14614    -79539.48014     -4696.56714        25.90014
R10  20892090.90614    125490.10314      1782.00914        25.20014
C29  21424907.54514    -75059.66614     -1109.54914        23.80014
R09  19066734.67413    -36725.45413     -1272.22613        22.50013
C36  23691088.20113  30947430.51613     -3956.66113        18.20013
> 2025 05 03 08 01 36.9999999  0 9                      
G29  20666398.75014   -168199.24614     -2423.77214        25.60014
G25  21863350.71714   -276629.85214     -3955.10314        24.60014
G31  21193367.93713    -81393.39013     -1199.82713        23.10013
G28  21372816.20713   -201125.31613     -2896.42913        22.80013
G18  22041524.87013    105932.65213      1601.50413        20.10013
R16  21822941.99214    -84316.46814     -4694.25714        25.70014
R10  20891523.39914    127250.48014      1784.40114        25.10014
C29  21424883.26214    -76163.12114     -1111.69814        24.10014
R09  19066754.46113    -38098.43513     -1275.87213        22.50013
> 2025 05 03 08 01 37.9999999  0 10                      
G29  20666632.58814   -170614.80114     -2420.06414        25.50014
G25  21863873.25614   -280578.37714     -3952.87814        24.50014
G28  21373139.68313   -204017.26213     -2898.31913        22.70013
G31  21193354.44613    -82587.96213     -1200.96213        23.00013
G18  22040981.94613    107539.61713      1602.13613        20.00013
C36  23692269.68324                     -3991.54924        24.80024
R16  21823569.45714    -88934.47514     -4684.40414        25.50014
R10  20890934.30714    129126.78814      1782.83714        25.00014
C29  21424864.97514    -77271.12014     -1116.97114        24.40014
R09  19066756.25913    -39374.37813     -1282.66913        22.40013
> 2025 05 03 08 01 38.9999999  0 10                      
G29  20666860.73014   -173031.05114     -2422.51514        25.50014
G25  21864399.39114   -284522.02714     -3947.12714        24.30014
G28  21373472.45313   -206910.81213     -2900.26813        22.60013
G31  21193351.74813    -83784.64913     -1203.66313        22.80013
G18  22040460.00713    109150.86213      1607.46713        20.00013
R10  20890401.57614    130799.48914      1775.96114        24.90014
R16  21824234.99714    -93658.68714     -4673.54114        25.30014
C29  21424861.07714    -78383.13714     -1119.13814        24.40014
C36  23692825.19814     -3986.73414     -3992.57714        24.70014
R09  19066740.97013    -40460.79913     -1273.78013        22.40013
> 2025 05 03 08 01 39.9999999  0 10                      
G29  20667098.76514   -175449.51614     -2425.41514        25.40014
G25  21864916.53314   -288465.09314     -3948.61514        24.10014
G28  21373797.72813   -209806.33013     -2902.34413        22.60013
G31  21193343.05413    -84978.90613     -1198.88513        22.60013
G18  22039920.68013    110761.11913      1603.91613        19.90013
R10  20889877.83914    132328.00014      1775.10214        24.90014
R16  21824899.93614    -98476.95014     -4677.96214        25.20014
C29  21424833.79614    -79495.55614     -1116.74514        24.40014
C36  23693357.33014     -7971.42114     -3989.45214        24.50014
R09  19066768.85113    -41875.80313     -1282.43813        22.30013
> 2025 05 03 08 01 40.9999999  0 10                      
G29  20667321.21114   -177869.87514     -2427.16714        25.30014
G25  21865443.56814   -292409.95314     -3951.61714        23.90014
G31  21193318.77113    -86169.86913     -1195.17813        22.50013
G28  21374103.51613   -212701.45913     -2900.79513        22.50013
G18  22039385.55113    112366.74713      1597.44813        19.80013
R10  20889294.74214    134172.27614      1775.43814        24.80014
C36  23693883.16614    -11956.03814     -3990.39014        24.40014
R16  21825514.51114   -103026.93614     -4682.18314        25.00014
C29  21424804.11714    -80606.35014     -1114.30514        24.30014
R09  19066743.96813    -43008.86713     -1283.08913        22.30013
> 2025 05 03 08 01 42.0000000  0 10                      
G29  20667583.23014   -180292.93214     -2430.26814        25.40014
G25  21865985.59314   -296359.56814     -3957.85414        23.80014
G31  21193347.85113    -87362.36813     -1199.13013        22.40013
G28  21374451.87513   -215596.76213     -2901.25313        22.40013
G18  22038881.30013    113964.23413      1587.55313        19.80013
C36  23694433.28514    -15941.33914     -3991.44914        24.60014
R10  20888699.65414    136240.79214      1777.06714        24.80014
R16  21826163.86114   -107601.38014     -4692.74514        24.90014
C29  21424820.30614    -81714.06314     -1114.06414        24.30014
R09  19066776.94513    -44290.16213     -1285.32713        22.20013
> 2025 05 03 08 01 42.9999999  0 10                      
G29  20667795.78314   -182718.02314     -2432.02414        25.50014
G25  21866498.53814   -300312.76614     -3960.90414        23.80014
G31  21193330.76213    -88561.11213     -1207.78413        22.30013
G28  21374748.07013   -218491.05113     -2899.69713        22.20013
G18  22038325.78513    115555.17213      1581.74413        19.80013
R10  20888135.74514    137920.35814      1782.08714        24.80014
R16  21826818.00814   -112424.19314     -4700.33214        24.80014
C29  21424785.23014    -82822.83814     -1116.76714        24.20014
C36  23694926.44414    -19925.78214     -3989.87514        24.50014
R09  19066774.84613    -45608.08813     -1286.14013        22.20013
> 2025 05 03 08 01 44.0000000  0 10                      
G29  20668044.91014   -185138.50314     -2424.01714        25.60014
G25  21867033.06814   -304269.14514     -3963.81114        23.90014
G28  21375092.83113   -221384.61013     -2899.03613        22.10013
G31  21193349.94913    -89762.45413     -1208.48413        22.10013
G18  22037815.23813    117141.48913      1578.16013        20.20013
R10  20887578.43014    139787.51514      1779.16814        24.90014
R16  21827478.45114   -117059.01614     -4696.13114        24.60014
C29  21424794.52314    -83936.34414     -1121.32914        24.20014
C36  23695494.55014    -23911.51014     -3992.16014        24.40014
R09  19066786.53813    -46776.29413     -1268.24213        22.10013
> 2025 05 03 08 01 45.0000000  0 10                      
G29  20668273.35214   -187558.59214     -2425.75614        25.70014
G25  21867551.10914   -308230.11014     -3969.11914        23.90014
G28  21375405.81413   -224282.94713     -2906.58813        22.40013
G31  21193349.05013    -90965.74013     -1210.12013        22.00013
G18  22037264.81913    118725.42213      1576.87613        20.30013
R10  20887011.22314    141547.89314      1787.59414        25.20014
R16  21828065.44514   -121460.72114     -4684.03014        24.80014
C29  21424769.04114    -85052.35014     -1121.38614        24.10014
C36  23696032.97814    -27898.22814     -3993.01914        24.20014
R09  19066828.20913    -48264.64513     -1260.03613        22.00013
> 2025 05 03 08 01 46.0000000  0 10                      
G29  20668492.80014   -189979.98114     -2427.89914        26.00014
G25  21868066.45314   -312193.59314     -3970.60114        24.30014
G28  21375723.59413   -227185.85713     -2911.05713        23.20013
G31  21193330.46313    -92166.95113     -1206.03713        22.00013
G18  22036719.79613    120307.15113      1574.76313        20.30013
R10  20886426.02814    143403.60914      1777.75114        25.20014
R16  21828733.08314   -126293.50614     -4687.05414        25.00014
C29  21424740.56114    -86166.01214     -1117.57614        24.00014
C36  23696562.41114    -31893.06114     -4004.69814        24.00014
R09  19066773.94713    -49240.31513     -1260.88113        21.90013
> 2025 05 03 08 01 47.0000000  0 10                      
G31  21193349.05015    -93366.40615     -1204.49315        33.50015
G29  20668738.33014   -192401.65514     -2427.73414        26.30014
G25  21868596.18614   -316152.34314     -3962.30014        25.10014
G28  21376052.76713   -230093.39713     -2915.77213        23.20013
G18  22036197.25813    121887.19913      1573.28913        20.20013
R10  20885863.91714    145233.42814      1781.71414        25.20014
R16  21829418.40814   -131122.43314     -4692.81214        25.00014
C29  21424733.96514    -87276.85814     -1119.37214        24.00014
C36  23697119.72514    -35897.58314     -4015.22714        23.80014
R09  19066866.28313    -50901.31013     -1273.26313        21.80013
> 2025 05 03 08 01 48.0000000  0 10                      
G31  21193347.85115    -94567.85215     -1208.28615        32.90015
G29  20668960.47614   -194825.01314     -2430.04214        26.30014
G25  21869113.02814   -320106.95714     -3958.38814        25.40014
G28  21376358.25513   -233000.18413     -2912.25213        23.20013
G18  22035660.03013    123465.81813      1572.05813        20.20013
R16  21830029.38514   -135652.54314     -4689.67914        25.00014
R10  20885313.19914    146904.56714      1772.88314        25.20014
C29  21424714.77914    -88389.92614     -1119.69414        23.90014
C36  23697653.35614    -39906.93814     -4017.56014        23.50014
R09  19066869.58113    -52185.66213     -1284.06313        21.70013
> 2025 05 03 08 01 49.0000000  0 9                      
G29  20669188.61814   -197248.25114     -2429.04014        26.30014
G25  21869633.46814   -324061.58614     -3960.49614        25.40014
G28  21376678.43313   -235908.33013     -2914.68813        23.10013
G18  22035127.59913    125043.58113      1571.47013        20.00013
R16  21830661.34814   -140294.24614     -4676.17414        25.70014
R10  20884765.77814    148558.92514      1770.88214        25.10014
C29  21424685.99914    -89501.94614     -1117.43314        23.90014
C36  23698188.48513    -43919.87213     -4020.53113        23.30013
R09  19066876.17613    -53486.06013     -1293.15713        21.60013
> 2025 05 03 08 01 50.0000000  0 9                      
G29  20669419.15914   -199673.63414     -2432.31714        26.20014
G25  21870151.20914   -328015.42414     -3959.30314        25.30014
G28  21376988.11913   -238822.26513     -2922.68913        23.00013
G18  22034594.56813    126623.38413      1574.95813        19.90013
R16  21831308.00014   -145015.43914     -4678.96814        25.80014
R10  20884206.96414    150275.06414      1768.55714        25.10014
C29  21424659.91714    -90613.71714     -1116.99114        24.00014
C36  23698711.02413    -47928.16313     -4011.77513        23.00013
R09  19066903.15813    -54895.71713     -1304.70213        21.50013
> 2025 05 03 08 01 51.0000000  0 9                      
G29  20669654.49614   -202099.97114     -2432.73014        26.10014
G25  21870677.64514   -331968.66314     -3958.85514        25.20014
G28  21377330.48213   -241738.73113     -2923.64813        22.90013
G18  22034071.13013    128211.20513      1585.91213        19.70013
R16  21831968.14314   -149710.60614     -4667.50414        25.90014
R10  20883666.13914    151992.00114      1764.42514        25.00014
C29  21424655.42014    -91724.69014     -1117.19114        24.00014
C36  23699259.94413    -51922.49413     -3993.21313        22.80013
R09  19066909.45313    -56098.27613     -1305.01413        21.40013
> 2025 05 03 08 01 52.0000000  0 9                      
G29  20669879.04114   -204528.69214     -2435.75614        26.00014
G25  21871205.57914   -335921.77714     -3958.89414        25.10014
G28  21377654.85713   -244659.59213     -2928.90213        22.70013
G18  22033527.90613    129808.27113      1595.84213        19.60013
R16  21832599.80614   -154350.78114     -4662.53714        25.90014
R10  20883063.55614    153940.00414      1760.12914        24.80014
C29  21424643.42814    -92836.25114     -1115.65814        23.90014
C36  23699790.57613    -55903.03413     -3979.43313        22.70013
R09  19066881.27313    -57213.76913     -1313.98613        21.30013
> 2025 05 03 08 01 53.0000001  0 9                      
G29  20670132.06514   -206959.80814     -2438.17514        26.00014
G25  21871743.70714   -339868.45914     -3949.32614        25.00014
G28  21378010.41113   -247583.43613     -2931.19613        22.60013
G18  22033026.65313    131414.11113      1604.36213        19.70013
R16  21833267.74314   -159026.11514     -4668.40114        25.80014
R10  20882541.91714    155617.24114      1749.95214        24.60014
C29  21424650.02314    -93946.24414     -1117.88414        23.80014
C36  23700337.39813    -59873.06913     -3970.59113        22.50013
R09  19066947.22713    -58671.55613     -1309.88713        21.10013
> 2025 05 03 08 01 53.9999998  0 9                      
G29  20670267.27214   -209387.38214     -2431.66414        26.40014
G25  21872165.81514   -343815.12214     -3952.51314        24.90014
G28  21378243.05013   -250509.27913     -2932.70313        22.40013
G18  22032388.99413    133025.97613      1609.01313        19.80013
R16  21833785.78514   -163539.41214     -4673.34414        25.70014
R10  20881933.33814    157116.77114      1741.41014        24.40014
C29  21424538.50114    -95055.58814     -1115.93814        23.70014
C36  23700767.60013    -63836.00313     -3965.19013        22.30013
R09  19066908.25413    -60208.80013     -1290.66613        21.00013
> 2025 05 03 08 01 54.9999999  0 9                      
G29  20670522.09514   -211814.11514     -2432.17414        26.80014
G25  21872709.63814   -347761.07314     -3951.45614        24.80014
G31  21193320.27013     -6040.55313     -1210.21713        23.40013
G28  21378585.71313   -253438.84613     -2937.29213        22.20013
G18  22031861.66013    134639.65513      1608.72213        19.90013
R16  21834450.42514   -168195.63914     -4668.24614        25.70014
R10  20881347.84414    159134.94614      1753.82514        24.20014
C29  21424529.20714    -96164.92614     -1116.18614        23.70014
C36  23701328.51213    -67802.19113     -3973.62213        22.20013
> 2025 05 03 08 01 55.9999998  0 9                      
G29  20670729.55214   -214243.30614     -2436.33714        27.10014
G25  21873206.09514   -351704.41514     -3947.95314        24.70014
G31  21193299.58413     -7245.08513     -1210.43113        23.00013
G28  21378891.50113   -256375.21713     -2945.68813        22.00013
G18  22031304.94513    136254.34613      1609.27613        19.90013
R16  21835107.27014   -173034.50014     -4671.70714        25.60014
R10  20880770.44314    160886.20814      1755.86814        24.00014
C29  21424499.82714    -97278.01814     -1120.23814        23.60014
C36  23701838.45913    -71773.88313     -3980.30513        22.20013
> 2025 05 03 08 01 56.9999999  0 9                      
G29  20670986.47414   -216671.93114     -2434.18414        27.50014
G25  21873743.32314   -355646.56914     -3947.40114        24.60014
G31  21193324.76713     -8452.04713     -1214.02213        22.70013
G28  21379240.16013   -259314.54113     -2946.64413        21.80013
G18  22030784.50513    137872.31513      1613.76313        19.90013
R16  21835742.53014   -177533.27614     -4678.68914        25.40014
C29  21424511.51914    -98392.21614     -1120.82714        23.50014
C36  23702395.47313    -75748.11313     -3981.28813        22.50013
R10  20880237.41214    162623.70614      1757.09214        23.80014
> 2025 05 03 08 01 57.9999999  0 9                      
