     4.01           OBSERVATION DATA    M                   RINEX VERSION / TYPE
GnssLogger          samsung 13          20250503 092025 UTC PGM / RUN BY / DATE
Google GnssLogger                                           MARKER NAME
Unknown                                                     MARKER NUMBER
Unknown             Unknown                                 OBSERVER / AGENCY
Unknown             GnssLogger          v3.1.0.4            REC # / TYPE / VERS
Unknown             Unknown                                 ANT # / TYPE
        0.0000        0.0000        0.0000                  ANTENNA: DELTA H/E/N
G    4 C1C L1C D1C S1C                                      SYS / # / OBS TYPES
R    4 C1C L1C D1C S1C                                      SYS / # / OBS TYPES
C    4 C2C L2C D2C S2C                                      SYS / # / OBS TYPES
  2025    05    03    09    20   25.0000000     GPS         TIME OF FIRST OBS
 3 R09 -2 R10 -7 R19  3                                     GLONASS SLOT / FRQ #
samsung SM-A515F (Android 13) HW Year: 2016 HW Model:       COMMENT
S.LSI,K102                                                  COMMENT
                                                            END OF HEADER
> 2025 05 03 09 20 25.9999999  0 18                      
G16  21533099.34627     54374.19027      1251.73927        41.60027
G26  20485521.66826    -23070.75426      -553.45726        41.10026
G29  22410376.31926   -161574.10826     -3769.44626        39.20026
G18  20624852.01226    -45318.51426     -1072.09426        38.40026
G23  23731686.99526     85318.85826      1975.63026        36.00026
G05  23598428.94826    -98722.07226     -2315.16026        36.10026
G31  22507266.24415   -170850.27115     -3986.45015        31.70015
G28  23865323.08114    -28475.71014     -4760.71314        26.60014
G27  23582464.10013     80525.05513      1861.01213        19.60013
C26  22589236.69726    -23773.53826      -569.41526        38.60026
C13  38237379.81326    -22447.98926      -531.47126        35.50026
C29  22202596.46226   -124292.85826     -2901.04926        35.80026
R10  19338717.48425    -51235.70525     -1213.32825        33.60025
R09  20613053.08025   -197778.98325     -4611.69025        32.70025
C30  26511603.09915   -181630.49715     -4226.72015        30.20015
C35  22276910.81615     12375.88715       274.00815        32.00015
C08  38596336.91214    -34005.77314     -1039.23214        27.90014
R19  21764685.72214   -208509.02514     -4863.10314        25.80014
> 2025 05 03 09 20 26.9999999  0 18                      
G16  21532623.27527     55632.20727      1252.29027        42.10027
G26  20485387.66126    -23618.88926      -554.37226        40.80026
G29  22410858.68526   -165338.87026     -3771.17826        39.20026
G18  20624815.13826    -46385.75226     -1073.72626        38.60026
G23  23731078.71626     87298.82926      1973.32426        36.40026
G05  23598628.31026   -101031.75626     -2315.87826        35.80026
G28  23865993.71615    -33224.82215     -4752.88815        30.20015
G31  22507782.78615   -174831.38115     -3987.05615        31.40015
G27  23581861.21713     82396.14813      1867.36113        19.90013
C26  22589106.28726    -24337.09726      -569.45026        38.60026
C29  22202913.94326   -127188.65026     -2901.90826        35.70026
C13  38237244.30726    -22974.59326      -532.89526        35.50026
R10  19338703.69415    -52427.03315     -1213.87915        33.60015
R09  20613670.35325   -202341.88825     -4614.39625        32.80025
C30  26512171.50615   -185849.01315     -4222.44115        30.20015
C35  22276629.01115     12652.50715       268.57715        31.40015
C08  38596308.73114    -35038.28814     -1037.73414        27.60014
R19  21765352.16014   -213341.71014     -4858.73014        25.70014
> 2025 05 03 09 20 27.9999999  0 17                      
G16  21532146.90527     56888.97227      1250.27527        42.70027
G26  20485256.05226    -24168.62826      -556.40426        40.70026
G18  20624782.76016    -47452.11116     -1072.53316        38.60016
G23  23730458.44516     89276.66716      1970.15716        36.40016
G05  23598824.07416   -103343.28416     -2318.31216        35.70016
G31  22508293.33315   -178812.30515     -3986.69015        31.10015
G28  23866667.35015    -37975.90715     -4757.93115        30.20015
G27  23581280.51913     84270.83613      1870.62113        20.20013
C26  22588978.57616    -24902.67416      -572.39616        38.80016
C29  22203232.92226   -130085.37326     -2902.99626        36.40026
C13  38237112.39815    -23503.27415      -535.53015        35.40015
R10  19338694.40015    -53641.24515     -1216.74415        33.60015
R09  20614288.82525   -206909.37525     -4614.32225        33.10025
C30  26512745.30815   -190068.50415     -4225.78615        30.20015
C35  22276329.21815     12934.75115       279.24615        30.90015
C08  38596270.05814    -36073.76914     -1042.77214        27.80014
R19  21766031.79014   -218246.34114     -4853.01314        26.10014
> 2025 05 03 09 20 29.0000000  0 15                      
G16  21531702.31327     58145.88727      1251.12527        42.70027
G26  20485149.32626    -24717.75026      -554.67726        40.60026
G23  23729875.94916     91257.19716      1976.26116        36.40016
G05  23599056.71316   -105654.16916     -2316.42616        35.50016
G18  20624777.06416    -48519.70016     -1073.81616        38.50016
G28  23867370.96315    -42731.24015     -4763.31715        30.00015
G27  23580725.30413     86147.29313      1871.47713        20.20013
C29  22203587.27626   -132981.13726     -2901.09326        36.40026
R10  19338719.58325    -54878.33625     -1214.41025        33.60025
R09  20614941.17325   -211499.78525     -4612.11725        33.20025
C35  22276071.09715     13216.09915       275.08915        30.50015
C26  22588879.94416    -25468.07116      -571.11616        38.50016
C08  38596257.46714    -37106.78614     -1037.59414        27.80014
C13  38237016.46415    -24031.26415      -533.45315        34.80015
R19  21766727.30814   -223074.43314     -4852.74814        26.10014
> 2025 05 03 09 20 30.0000000  0 13                      
G16  21531207.35527     59402.26427      1250.29827        42.70027
G26  20484997.93126    -25267.07126      -555.22926        40.60026
G05  23599236.88825   -107965.67125     -2317.61725        35.40025
G23  23729254.17916     93241.91216      1980.99716        35.50016
G28  23868026.30914    -47486.71114     -4761.34414        29.30014
G27  23580123.92013     88026.59913      1874.92013        20.10013
R10  19338700.69625    -56139.87325     -1216.88625        33.50025
R09  20615540.75815   -216064.25315     -4610.93915        33.20015
C26  22588736.64316    -26034.81216      -573.16816        37.30016
C35  22275759.31315     13496.99615       274.91615        30.20015
C08  38596191.81214    -38141.10614     -1040.72714        27.70014
C13  38236871.06515    -24557.38415      -530.94115        33.20015
R19  21767341.58314   -227725.75614     -4849.95514        26.00014
> 2025 05 03 09 20 31.0000001  0 14                      
G16  21530758.26627     60658.32027      1250.01327        42.60027
G26  20484897.80026    -25817.17826      -556.38026        40.50026
G05  23599474.02425   -110277.85425     -2318.40325        35.20025
G18  20624724.00115    -50650.45515     -1073.92115        34.90015
G23  23728669.58415     95220.64515      1969.85915        33.60015
G28  23868729.62214    -52238.95514     -4756.50814        28.60014
G27  23579551.61613     89909.46213      1878.75913        20.00013
R10  19338718.98325    -57341.11825     -1217.56625        33.50025
C26  22588634.11416    -26600.66216      -571.23316        36.10016
C35  22275490.99815     13776.09115       272.36515        30.00015
C29  22204242.02315   -138773.11015     -2901.24415        35.30015
C08  38596186.71614    -39175.96814     -1040.96014        27.70014
C13  38236770.03515    -25080.80015      -527.89115        31.70015
R19  21768054.48914   -232647.99314     -4851.28914        25.80014
> 2025 05 03 09 20 31.9999998  0 14                      
G16  21530194.95627     61914.16527      1249.87427        42.60027
G26  20484676.55426    -26367.68026      -556.56326        40.40026
G05  23599578.35225   -112590.61725     -2318.91525        35.10025
G18  20624602.58515    -51722.13615     -1080.02915        33.00015
G23  23727958.17615     97195.17815      1966.56815        32.00015
G28  23869311.51914    -56989.73814     -4755.91314        27.80014
G27  23578878.28213     91794.60513      1880.41713        19.90013
R10  19338613.75625    -58523.29625     -1218.24425        33.40025
C26  22588420.66225    -27166.90625      -572.24925        35.30025
C29  22204468.06715   -141670.49315     -2904.03215        33.70015
C35  22275113.26015     14055.14215       273.21815        29.80015
C08  38596066.49914    -40210.78614     -1040.60514        27.50014
C13  38236544.89115    -25609.46615      -537.10115        30.60015
R19  21768690.04914   -237796.02314     -4855.39014        25.60014
> 2025 05 03 09 20 32.9999999  0 16                      
G16  21529747.36627     63169.67527      1249.48027        42.60027
G26  20484571.32626    -26918.57126      -556.94826        40.30026
G05  23599809.19225   -114904.02425     -2319.59025        34.90025
G18  20624591.49215    -52792.08015     -1074.93815        31.80015
G23  23727375.68015     99170.72115      1970.18315        30.80015
G27  23578307.47713     93680.89313      1880.99813        19.70013
G31  22510866.75113   -198697.12913     -3969.61913        22.30013
R10  19338625.44825    -59690.21825     -1218.78025        33.30025
C26  22588319.93225    -27733.71925      -572.90925        34.70025
C29  22204817.02515   -144567.14715     -2902.09715        32.80015
C35  22274848.54315     14333.16815       271.70415        29.70015
C08  38596063.80114    -41243.70314     -1037.77614        27.40014
C13  38236421.67615    -26139.49215      -536.51615        29.60015
R19  21769326.50914   -242311.06914     -4854.36514        25.40014
R09  20617430.95014   -230116.65614     -4611.17114        26.90014
C30  26515636.80713   -211219.20713     -4248.36413        19.90013
> 2025 05 03 09 20 33.9999999  0 16                      
G16  21529272.79527     64424.76927      1249.02227        42.60027
G26  20484444.21426    -27470.22726      -557.90126        40.20026
G05  23600015.14925   -117218.09025     -2320.25725        34.80025
G18  20624554.31815    -53864.51715     -1079.54615        30.90015
G23  23726764.10315    101151.78515      1977.95915        29.80015
G27  23577715.38713     95567.05013      1880.22513        19.50013
G31  22511391.08813   -202656.15613     -3960.90713        21.40013
C26  22588186.82425    -28301.06625      -573.42325        34.30025
R10  19338617.35425    -60910.53025     -1220.03025        33.10025
C29  22205139.30215   -147463.32315     -2901.74315        32.10015
C35  22274559.84315     14613.58315       275.79915        29.60015
C13  38236295.76314    -26669.88614      -536.38714        28.90014
C08  38596015.53414    -42276.95114     -1039.22414        27.20014
R19  21770034.61914   -247366.48514     -4857.79814        25.20014
R09  20618030.23514   -234582.52514     -4612.88314        25.70014
C30  26516229.49613   -215467.07213     -4257.46813        19.00013
> 2025 05 03 09 20 34.9999999  0 16                      
G16  21528796.42427     65679.57327      1248.79427        42.70027
G26  20484314.40426    -28022.30126      -558.14626        40.10026
G05  23600217.50925   -119532.72725     -2320.78425        34.60025
G18  20624527.03715    -54936.04915     -1076.94215        30.20015
G23  23726151.32714    103135.68714      1979.45614        29.00014
G31  22511918.42313   -206611.21813     -3958.93913        20.70013
G27  23577120.29913     97451.08713      1877.11213        19.30013
C26  22588055.51525    -28868.87525      -573.84925        33.90025
R10  19338620.05225    -62188.81025     -1220.85425        33.00025
C29  22205457.98115   -150360.58815     -2903.61815        31.60015
C35  22274266.34615     14896.37715       278.17415        29.50015
C13  38236159.35814    -27196.74514      -530.90114        28.40014
C08  38595980.75914    -43316.15814     -1047.99514        27.00014
R19  21770690.86414   -252144.83114     -4862.91414        25.00014
R09  20618644.50914   -239129.38514     -4614.88714        24.90014
C30  26516807.49613   -219723.91313     -4267.13513        18.40013
> 2025 05 03 09 20 35.9999999  0 16                      
G16  21528320.95427     66934.03727      1248.42927        42.70027
G26  20484182.19626    -28574.83926      -558.63326        40.00026
G05  23600415.37225   -121848.04325     -2321.51625        34.50025
G18  20624491.06215    -56006.99715     -1076.51815        29.70015
G23  23725542.44914    105121.60114      1981.05614        28.40014
G31  22512423.57313   -210568.18013     -3963.77213        20.20013
G27  23576515.31813     99336.21813      1879.81313        19.10013
C26  22587937.09725    -29437.26525      -574.49025        33.70025
R10  19338592.47115    -63306.15615     -1221.28215        32.90015
C29  22205765.86815   -153254.33315     -2897.79415        31.20015
C35  22273982.74314     15175.20714       271.03814        29.30014
C13  38236019.05514    -27724.17314      -533.52214        28.00014
C08  38595938.48814    -44356.29214     -1046.40714        26.90014
R19  21771378.58814   -257092.32414     -4864.58814        24.90014
R09  20619263.88114   -243702.98814     -4625.73614        24.20014
C30  26517395.68913   -223989.78313     -4276.19113        17.90013
> 2025 05 03 09 20 37.0000000  0 16                      
G16  21527875.46227     68188.14327      1248.06427        42.70027
G26  20484079.96726    -29128.04726      -559.40626        39.90026
G05  23600657.30525   -124164.02325     -2322.17425        34.30025
G18  20624493.46014    -57077.68714     -1076.42414        29.40014
G23  23724950.05914    107108.12814      1980.96914        27.90014
G31  22512968.29613   -214529.18113     -3968.88113        19.80013
G27  23575939.11713    101226.06813      1886.34413        18.90013
C26  22587837.26625    -30006.07325      -574.82825        33.50025
R10  19338617.65425    -64544.01025     -1222.20025        32.70025
C29  22206115.12615   -156150.44315     -2903.10115        30.80015
C35  22273711.13114     15452.77814       271.13214        29.20014
C13  38235918.02514    -28250.09014      -530.97114        27.70014
C08  38595934.59014    -45391.73814     -1038.91114        26.70014
R19  21772095.39214   -262034.46014     -4855.70014        24.80014
R09  20619908.73414   -248252.14114     -4636.98214        23.60014
C30  26518003.96813   -228260.50713     -4278.96013        17.60013
> 2025 05 03 09 20 38.0000000  0 15                      
G16  21527401.19027     69441.74027      1247.47727        42.70027
G26  20483947.15826    -29681.90426      -560.04526        39.80026
G05  23600855.76825   -126480.82725     -2323.07725        34.20025
G18  20624455.68614    -58149.82714     -1078.72714        29.10014
G23  23724341.78014    109088.82714      1971.91914        27.50014
G31  22513483.04013   -218492.57313     -3970.44713        19.60013
G27  23575325.14213    103123.00713      1894.61913        18.70013
C26  22587709.85425    -30575.67525      -575.80725        33.40025
R10  19338596.36825    -65693.39025     -1223.42725        32.60025
C29  22206434.10615   -159049.85115     -2906.86415        30.50015
C35  22273426.32814     15730.81114       272.45314        29.10014
C13  38235789.71414    -28776.91714      -533.09214        27.40014
C08  38595896.51714    -46425.38914     -1038.56314        26.50014
R19  21772754.93514   -266831.17314     -4859.77814        24.60014
R09  20620564.08113   -253016.75713     -4641.53613        23.00013
> 2025 05 03 09 20 39.0000000  0 15                      
G16  21526926.61927     70695.07527      1247.34027        42.70027
G26  20483812.55226    -30236.24126      -560.44026        39.70026
G05  23601057.52825   -128798.06625     -2323.31825        34.10025
G18  20624428.70514    -59221.72114     -1077.63314        28.90014
G23  23723728.40514    111064.93114      1967.94314        27.20014
G31  22514005.57813   -222460.54413     -3976.12113        19.30013
G27  23574727.95513    105028.17513      1903.41913        18.50013
C26  22587580.94325    -31145.56225      -575.84025        33.40025
R10  19338608.06025    -67019.72125     -1224.12625        32.40025
C29  22206755.18315   -161950.72615     -2907.41515        30.20015
C35  22273139.12714     16008.80214       272.16014        29.00014
C13  38235655.40714    -29303.92214      -532.90314        27.20014
C08  38595851.24814    -47456.48514     -1035.62814        26.30014
R19  21773388.69714   -271489.34814     -4858.64114        24.40014
R09  20621257.20113   -257983.84313     -4633.14513        22.50013
> 2025 05 03 09 20 40.0000001  0 15                      
G16  21526480.52827     71947.89527      1246.69827        42.70027
G26  20483712.42126    -30791.28226      -561.25526        39.60026
G05  23601298.56125   -131116.49025     -2324.87925        34.00025
G18  20624428.10614    -60295.89914     -1081.18314        28.70014
G23  23723149.80514    113040.61614      1969.61014        26.90014
G31  22514554.49813   -226436.64613     -3986.02813        19.10013
G27  23574156.85113    106939.89913      1909.13713        18.30013
C26  22587482.01225    -31716.32325      -577.00725        33.40025
R10  19338641.03715    -68300.28815     -1224.98815        32.30015
C29  22207097.54615   -164849.04715     -2902.85315        30.00015
C35  22272879.80614     16288.38714       274.57214        28.90014
C13  38235548.38114    -29830.14714      -531.64514        27.00014
C08  38595848.25014    -48489.93414     -1040.43314        26.20014
R19  21774065.32814   -276216.40814     -4858.55214        24.20014
R09  20621857.68513   -262296.89913     -4620.61413        22.10013
> 2025 05 03 09 20 40.9999998  0 16                      
G16  21525913.92027     73200.30227      1246.33727        42.80027
G26  20483492.67326    -31346.85726      -561.70526        39.50026
G05  23601412.18215   -133435.26815     -2324.81515        33.70015
G18  20624306.69014    -61369.98414     -1079.90114        28.60014
G29  22417534.16424                     -3772.79424        25.90024
G23  23722443.19414    115017.44914      1971.54214        26.60014
G31  22514983.20113   -230417.69513     -3989.38213        19.00013
G27  23573464.03013    108855.46513      1911.62313        18.10013
C26  22587265.56125    -32287.49725      -577.18925        33.30025
R10  19338522.32015    -69409.24415     -1224.17115        32.10015
C35  22272497.87114     16564.78914       269.00014        28.80014
C29  22207331.68415   -167747.22015     -2903.90615        29.70015
C13  38235317.24114    -30357.30414      -533.43214        26.80014
C08  38595713.64314    -49523.83114     -1039.93214        26.00014
R19  21774670.90914   -281205.23514     -4863.64714        23.90014
R09  20622392.51513   -266899.53413     -4619.51513        21.70013
> 2025 05 03 09 20 41.9999998  0 16                      
G16  21525439.34827     74452.18227      1245.75227        42.80027
G26  20483357.46726    -31903.21526      -562.61226        39.40026
G05  23601618.44015   -135755.19215     -2326.35815        33.20015
G29  22418016.23014     -3768.04314     -3773.90314        27.80014
G18  20624265.01814    -62446.81314     -1084.06314        28.40014
G23  23721842.41014    116995.55814      1972.88314        26.40014
G31  22515501.54313   -234407.40313     -3999.89713        18.90013
G27  23572856.35113    110773.94413      1914.06913        17.90013
C26  22587145.64425    -32859.51925      -578.25625        33.30025
R10  19338517.52315    -70647.86215     -1225.69715        32.00015
C35  22272212.16814     16838.90314       267.16014        28.80014
C29  22207647.96514   -170647.90314     -2907.74614        29.40014
C13  38235176.63814    -30885.48514      -534.50314        26.70014
C08  38595681.56614    -50557.15614     -1038.84814        25.70014
R19  21775328.65414   -285991.23114     -4859.37214        23.60014
R09  20622999.89413   -271408.19013     -4618.83513        21.40013
> 2025 05 03 09 20 42.9999999  0 15                      
G16  21524994.15727     75703.83127      1245.66927        42.90027
G26  20483259.43526    -32460.08026      -562.98126        39.40026
G05  23601861.57115   -138075.63715     -2326.56815        32.60015
G18  20624255.12514    -63522.89414     -1081.57014        28.40014
G29  22418530.07514     -7537.89514     -3776.61614        28.00014
G23  23721255.41714    118975.18914      1974.52714        26.20014
G31  22516057.05813   -238408.14413     -4012.11913        18.80013
C26  22587041.31725    -33431.80125      -578.22225        33.30025
R10  19338550.20015    -71926.14115     -1229.59915        31.90015
C35  22271944.15414     17115.39114       271.86414        28.80014
C29  22208003.81914   -173548.21814     -2905.93914        29.20014
C13  38235075.30814    -31416.04014      -537.55114        26.60014
C08  38595662.07914    -51593.08214     -1043.03514        25.50014
R19  21776042.75913   -290918.82413     -4860.33913        23.40013
R09  20623648.04613   -275974.91313     -4619.63013        21.20013
> 2025 05 03 09 20 43.9999999  0 15                      
G16  21524518.38627     76954.94527      1244.98227        42.90027
G26  20483127.52626    -33017.49926      -563.56026        39.30026
G05  23602067.82815   -140398.04915     -2329.25715        32.40015
G29  22419008.84314    -11305.84114     -3772.85314        28.10014
G18  20624223.94714    -64594.56214     -1075.32314        28.30014
G23  23720637.24514    120955.52514      1974.82414        26.00014
G31  22516590.38913   -242418.80913     -4021.48513        18.70013
C26  22586918.40225    -34004.78625      -579.14525        33.30025
R10  19338531.91315    -73092.30015     -1229.70315        31.80015
C35  22271656.05314     17388.55314       265.68914        28.80014
C29  22208323.99714   -176447.47314     -2904.53314        28.90014
C13  38234945.19814    -31950.20714      -541.78214        26.50014
C08  38595624.30514    -52631.49514     -1045.46614        25.30014
R19  21776697.50613   -295690.27813     -4857.70913        23.10013
R09  20624287.80313   -280657.00813     -4609.20413        21.00013
> 2025 05 03 09 20 45.0000000  0 14                      
G16  21524059.70427     78205.54527      1244.53427        42.90027
G26  20483010.00726    -33575.76826      -564.50226        39.20026
G05  23602286.07715   -142718.74915     -2325.65015        32.20015
G18  20624212.85514    -65670.71114     -1084.19714        28.20014
G29  22419483.41514    -15074.99314     -3775.56014        28.10014
G23  23720034.36214    122938.66014      1978.72414        25.90014
G31  22517120.42213   -246434.98713     -4024.74013        18.60013
C26  22586799.98425    -34578.53225      -579.88325        33.40025
R10  19338542.40615    -74350.02315     -1229.59115        31.70015
C35  22271381.14414     17666.40214       274.43614        28.80014
C13  38234823.18314    -32484.38614      -539.94014        26.50014
C08  38595606.61814    -53668.59914     -1042.20514        25.20014
R19  21777343.25913   -300350.02213     -4862.01913        22.90013
R09  20624937.45313   -285329.97413     -4610.44313        20.80013
> 2025 05 03 09 20 46.0000000  0 14                      
G16  21523582.43427     79456.05727      1244.58427        42.90027
G26  20482879.59826    -34134.29726      -564.54026        39.10026
G05  23602485.14015   -145039.51415     -2326.67715        32.20015
G18  20624175.68014    -66748.20314     -1084.04514        28.10014
G29  22419965.78114    -18841.35314     -3770.84314        28.00014
G23  23719408.69514    124923.37314      1979.61814        25.70014
G31  22517651.95413   -250457.74413     -4031.92413        18.60013
C26  22586674.97025    -35152.51725      -579.93125        33.60025
R10  19338531.31315    -75553.55415     -1228.34015        31.60015
C35  22271084.94914     17945.34114       273.65614        28.80014
C13  38234690.07514    -33016.30614      -536.61814        26.50014
C08  38595570.34314    -54702.05914     -1037.46514        25.00014
R19  21778044.47413   -305369.46613     -4863.65513        22.60013
R09  20625595.79713   -290112.16413     -4622.51813        20.60013
> 2025 05 03 09 20 47.0000000  0 15                      
G16  21523106.06427     80706.12627      1243.98427        42.90027
G26  20482747.98926    -34693.41426      -565.27326        39.10026
G05  23602689.59815   -147361.61815     -2328.63615        32.00015
G18  20624139.70514    -67821.37814     -1076.87914        28.10014
G29  22420441.55114    -22607.13714     -3771.35714        27.80014
G23  23718793.22114    126904.66514      1973.71714        25.60014
G31  22518180.18813   -254483.61513     -4033.28813        18.50013
C26  22586546.95925    -35727.24725      -580.91325        33.60025
R10  19338511.82715    -76715.90215     -1229.95715        31.50015
C35  22270798.04714     18219.73114       266.30514        28.80014
C13  38234544.97514    -33542.76114      -529.53214        26.40014
C29  22209305.21814     -2898.45214     -2907.07614        25.50014
C08  38595533.46814    -55735.42514     -1039.12914        24.80014
R19  21778750.78513   -310416.46313     -4864.18213        22.40013
R09  20626246.94613   -294855.38613     -4634.65013        20.50013
> 2025 05 03 09 20 48.0000001  0 15                      
G16  21522659.37327     81955.86227      1243.70627        42.90027
G26  20482644.86026    -35253.12026      -565.86426        39.00026
G05  23602924.33515   -149685.87015     -2331.18715        32.00015
G18  20624148.99914    -68897.74814     -1083.83114        28.00014
G29  22420963.79014    -26372.63114     -3771.20814        27.60014
G23  23718208.62614    128881.58814      1968.87414        25.50014
G31  22518741.40013   -258504.80213     -4024.70613        18.40013
C26  22586449.52625    -36302.41725      -581.20025        33.60025
R10  19338557.09615    -78061.29915     -1230.50415        31.40015
C35  22270537.22814     18493.02114       266.93114        28.70014
C13  38234452.04014    -34072.38714      -537.02214        26.40014
C08  38595523.87514    -56769.33314     -1039.98814        24.70014
C29  22209643.08414     -5800.57814     -2907.93414        25.40014
R19  21779465.79013   -315350.18213     -4867.22813        22.10013
R09  20626892.69913   -299409.88513     -4627.43113        20.40013
> 2025 05 03 09 20 48.9999998  0 15                      
G16  21522091.26627     83204.95627      1242.90827        42.80027
G26  20482425.11226    -35813.55726      -566.66526        39.00026
G05  23603042.45415   -152010.04915     -2330.00315        32.10015
G18  20624021.58714    -69978.17014     -1088.31014        27.90014
G29  22421350.22214    -30138.51414     -3771.93814        27.30014
G23  23717521.20214    130858.12114      1970.47314        25.40014
G31  22519181.49513   -262516.94713     -4013.48413        18.20013
C26  22586228.57925    -36878.17725      -581.86425        33.50025
R10  19338463.56015    -79306.01915     -1232.02015        31.40015
C35  22270166.38514     18766.90214       268.36514        28.70014
C13  38234225.99614    -34603.54914      -537.73914        26.40014
C08  38595388.66814    -57802.06514     -1037.95214        24.60014
C29  22209856.83614     -8704.05214     -2909.95514        25.00014
R19  21780075.86713   -320361.97213     -4873.88813        21.80013
R09  20627423.03213   -303988.83313     -4623.35113        20.30013
> 2025 05 03 09 20 49.9999999  0 15                      
G16  21521647.57327     84453.82427      1242.89127        42.80027
G26  20482325.88126    -36374.52326      -567.09426        38.90026
G05  23603269.69615   -154335.09715     -2331.34515        32.20015
G18  20624022.18714    -71062.98614     -1092.87614        27.80014
G29  22421855.37314    -33906.86414     -3775.44414        27.10014
G23  23716938.10514    132835.12614      1971.37614        25.30014
G31  22519719.62313   -266515.15013     -3997.09313        18.10013
C26  22586139.54125    -37454.61225      -582.58225        33.40025
R10  19338480.94815    -80501.92515     -1234.78515        31.30015
C35  22269909.46214     19038.89214       265.23514        28.70014
C13  38234111.47514    -35135.95114      -538.83314        26.50014
C08  38595389.86814    -58837.12814     -1042.03814        24.40014
C29  22210218.68614    -11611.68614     -2915.52214        24.50014
R19  21780787.27513   -325275.02713     -4885.84313        21.60013
R09  20628077.77913   -308590.70213     -4614.37613        20.30013
> 2025 05 03 09 20 50.9999999  0 15                      
G16  21521176.00027     85702.23227      1242.31427        42.80027
G26  20482195.47126    -36936.00726      -567.60626        38.90026
G05  23603478.05225   -156660.96625     -2332.14025        32.40025
G18  20623987.71014    -72146.21214     -1088.29314        27.70014
G29  22422336.24014    -37673.99514     -3772.38214        27.00014
G23  23716327.12814    134813.85714      1973.73014        25.20014
G31  22520233.76713   -270499.01613     -3982.55613        18.30013
C26  22586006.73325    -38031.45825      -582.86225        33.40025
R10  19338476.15215    -81740.54215     -1233.13315        31.30015
C35  22269612.36814     19315.16614       272.60514        28.70014
C13  38233981.06614    -35668.19614      -537.97514        26.60014
C08  38595361.38714    -59878.49514     -1050.32814        24.20014
C29  22210543.06114    -14519.81414     -2914.18314        24.00014
R19  21781461.50813   -330151.34813     -4907.20913        21.30013
R09  20628706.44413   -313213.20213     -4614.87713        20.20013
> 2025 05 03 09 20 51.9999999  0 15                      
G16  21520698.73027     86950.02227      1241.61527        42.70027
G26  20482063.26326    -37498.42126      -568.74226        38.90026
G05  23603683.11025   -158987.80625     -2333.18725        32.40025
G18  20623962.82814    -73228.11814     -1087.10814        27.60014
G29  22422823.10314    -41439.41114     -3770.41814        26.80014
G23  23715721.54814    136792.41014      1972.59814        25.10014
G31  22520759.60313   -274480.19913     -3985.70113        19.00013
C26  22585886.51625    -38609.36725      -584.25025        33.30025
R10  19338462.36115    -82930.34515     -1233.63315        31.30015
C35  22269323.36814     19589.89614       268.14814        28.80014
C13  38233848.25814    -36202.34514      -540.91214        26.70014
C08  38595313.72014    -60922.26114     -1050.77614        24.10014
C29  22210858.44314    -17428.40214     -2914.62614        23.70014
R09  20629343.80213   -317883.07313     -4612.06713        20.10013
R19  21782146.53413   -335083.53813     -4917.74213        21.00013
> 2025 05 03 09 20 52.9999999  0 14                      
G16  21520228.35627     88197.43027      1241.35427        42.70027
G26  20481937.94926    -38061.38326      -569.09826        38.90026
G05  23603890.26725   -161315.27425     -2333.64425        32.40025
G18  20623928.95114    -74310.70014     -1088.78314        27.50014
G29  22423307.26714    -45204.43214     -3770.68514        26.70014
G23  23715097.97914    138770.65014      1972.21814        24.90014
G31  22521291.73413   -278462.39613     -3988.56513        19.30013
C26  22585758.80525    -39187.65825      -584.29125        33.20025
R10  19338460.56215    -84184.21815     -1237.87715        31.20015
C35  22269035.56714     19860.47314       262.69014        28.80014
C13  38233707.65514    -36737.62014      -541.64714        26.70014
C08  38595268.15214    -61964.80314     -1047.73914        24.00014
C29  22211177.12213    -20333.32613     -2908.90013        23.40013
R09  20629952.68113   -322400.13413     -4610.61713        20.10013
> 2025 05 03 09 20 54.0000000  0 14                      
G16  21519784.96327     89444.28327      1240.71127        42.70027
G26  20481838.41826    -38625.04826      -569.87926        38.80026
G05  23604124.40525   -163643.51725     -2334.49225        32.40025
G18  20623925.35414    -75388.77914     -1081.69014        27.40014
G29  22423815.71514    -48970.98714     -3773.18214        26.60014
G23  23714517.88114    140750.69214      1975.07814        24.70014
G31  22521846.65013   -282449.78013     -3995.83813        19.60013
C26  22585665.26925    -39766.52425      -584.96325        33.20025
R10  19338483.94615    -85412.92215     -1239.55015        31.20015
C35  22268775.94714     20131.70014       265.74214        28.80014
C13  38233604.22714    -37269.07514      -535.35514        26.70014
C08  38595260.65714    -63003.23714     -1042.18914        23.90014
C29  22211533.57513    -23235.43313     -2906.50613        23.20013
R09  20630655.39413   -327258.72813     -4618.32213        20.00013
> 2025 05 03 09 20 55.0000000  0 14                      
G16  21519310.09227     90690.86127      1240.57627        42.60027
G26  20481709.20826    -39189.24126      -570.32026        38.80026
G05  23604329.76325   -165972.99125     -2335.20125        32.50025
G18  20623897.17314    -76470.03814     -1088.71214        27.30014
G29  22424289.98714    -52738.91214     -3774.47014        26.50014
G23  23713901.20814    142730.52414      1973.86314        24.50014
G31  22522382.37913   -286441.46513     -3999.69713        20.00013
C26  22585533.96025    -40346.08625      -585.71925        33.10025
R10  19338467.45815    -86588.99715     -1240.26615        31.20015
C35  22268491.74414     20403.68114       266.54814        28.90014
C13  38233469.62014    -37802.63414      -540.42114        26.70014
C08  38595229.77814    -64039.60114     -1041.13814        23.80014
C29  22211865.44613    -26135.67313     -2905.11513        23.00013
R09  20631314.93813   -332045.49913     -4619.21413        19.90013
> 2025 05 03 09 20 56.0000000  0 14                      
G16  21518837.61927     91937.01327      1240.07527        42.60027
G26  20481580.89726    -39754.01326      -570.92526        38.80026
G05  23604540.51725   -168302.51625     -2335.66125        32.50025
G18  20623876.18814    -77555.07614     -1092.79114        27.10014
G29  22424763.95914    -56506.54014     -3773.34014        26.40014
G23  23713284.83514    144712.57714      1977.29814        24.30014
G31  22522911.21313   -290437.33813     -4003.82613        20.10013
C26  22585413.14425    -40926.21225      -586.21825        33.10025
R10  19338461.16215    -87818.46115     -1237.82415        31.20015
C35  22268200.04614     20676.48014       267.39714        28.90014
C13  38233340.10914    -38338.64814      -543.05014        26.60014
C08  38595208.49314    -65078.83614     -1046.48014        23.70014
C29  22212167.63613    -29034.77513     -2904.34013        22.70013
R09  20631933.11013   -336613.75313     -4616.40313        19.80013
> 2025 05 03 09 20 56.9999999  0 14                      
G16  21518314.78127     93182.73627      1239.69927        42.50027
G26  20481404.01926    -40319.43826      -571.55826        38.80026
G05  23604698.50725   -170632.85325     -2336.55025        32.50025
G18  20623794.34414    -78639.61514     -1090.09614        27.00014
G29  22425202.25614    -60276.97214     -3777.63914        26.30014
G23  23712617.19714    146696.36114      1978.84014        24.10014
G31  22523383.98613   -294437.92313     -4008.74813        20.40013
C26  22585238.36525    -41506.84925      -586.64925        33.00025
R10  19338412.29615    -89078.47415     -1242.90715        31.10015
C35  22267863.07914     20945.86014       261.91614        29.00014
C13  38233158.43514    -38874.36814      -541.32914        26.60014
C08  38595123.95214    -66120.11114     -1048.05014        23.70014
C29  22212434.75113    -31929.62613     -2898.47913        22.50013
R09  20632473.63613   -341023.11913     -4625.64313        19.60013
> 2025 05 03 09 20 57.9999999  0 14                      
G16  21517841.10927     94428.18927      1239.43527        42.50027
G26  20481267.91326    -40885.32226      -571.99626        38.70026
G05  23604901.76725   -172963.74825     -2337.05425        32.50025
G18  20623769.76114    -79725.41114     -1092.30614        26.80014
G29  22425688.21914    -64049.38514     -3779.28214        26.10014
G23  23711992.12914    148679.84614      1977.45114        23.80014
G31  22523904.12613   -298437.41713     -4004.82613        20.60013
C26  22585111.85225    -42087.92325      -587.12025        33.00025
R10  19338417.09215    -90368.19215     -1239.55315        31.10015
C35  22267575.57814     21214.71214       262.75814        29.00014
C13  38233021.73014    -39409.62714      -540.85614        26.60014
C08  38595084.67914    -67157.58114     -1041.39514        23.70014
C29  22212754.33013    -34824.51313     -2900.72913        22.30013
R09  20633079.51613   -345524.13513     -4621.38413        19.40013
> 2025 05 03 09 20 58.9999999  0 14                      
G16  21517369.23527     95673.20327      1238.93127        42.50027
G26  20481139.90226    -41451.81726      -572.66326        38.70026
G05  23605109.22325   -175295.39125     -2337.87925        32.60025
G18  20623742.18014    -80817.29914     -1100.79514        26.60014
G29  22426171.48514    -67820.45814     -3776.26414        26.00014
G23  23711384.75014    150658.39014      1970.21014        23.60014
G31  22524433.55913   -302436.94813     -4005.41013        20.80013
C26  22584992.53525    -42669.74025      -587.99825        33.10025
R10  19338408.39815    -91586.21615     -1242.11815        31.10015
C35  22267287.77714     21485.56914       266.04914        29.00014
C13  38232888.62214    -39941.53514      -536.04114        26.50014
C08  38595039.41014    -68197.15014     -1046.42814        23.70014
C29  22213072.41013    -37723.07113     -2906.20213        22.10013
R09  20633672.80613   -349957.91113     -4611.57113        19.20013
> 2025 05 03 09 20 59.9999999  0 14                      
G16  21516895.26327     96918.05827      1238.91227        42.40027
G26  20481013.68926    -42018.65026      -572.86626        38.70026
G05  23605315.78025   -177627.51025     -2338.21725        32.60025
G18  20623717.59714    -81911.11314     -1100.64114        26.50014
G29  22426654.75014    -71592.34414     -3778.15214        25.80014
G23  23710759.38313    152633.00613      1966.78713        23.40013
G31  22524944.10613   -306433.50413     -4000.92913        21.00013
C26  22584868.12125    -43251.63125      -587.73725        33.10025
R10  19338401.50315    -92813.39315     -1243.32815        31.10015
C35  22266992.48214     21757.03414       265.95914        29.00014
C13  38232748.91914    -40474.64414      -539.51914        26.50014
C08  38594993.24214    -69237.44214     -1046.46314        23.70014
C29  22213368.00513    -40620.30013     -2902.37213        21.90013
R09  20634322.45613   -354693.48813     -4591.33613        19.00013
> 2025 05 03 09 21 01.0000000  0 14                      
G16  21516448.87227     98162.37127      1238.17827        42.40027
G26  20480913.85826    -42586.18426      -573.74726        38.70026
G05  23605549.91825   -179960.33325     -2339.03825        32.60025
G18  20623700.20914    -83001.44614     -1094.45414        26.30014
G29  22427164.09714    -75363.79314     -3777.09214        25.60014
G23  23710177.78513    154604.23413      1963.66813        23.20013
G31  22525493.32513   -310427.03913     -3997.88513        21.20013
C26  22584766.49225    -43834.48125      -589.13925        33.10025
R10  19338423.98815    -94037.52015     -1241.62515        31.00015
C35  22266731.36314     22028.19514       265.19914        29.00014
C13  38232640.69414    -41011.11614      -543.96314        26.40014
C08  38594988.44514    -70275.92914     -1043.39314        23.70014
C29  22213719.96213    -43517.73313     -2903.34513        21.60013
R09  20634933.43313   -359063.08413     -4570.37713        18.70013
> 2025 05 03 09 21 02.0000000  0 13                      
G16  21515974.00127     99406.38027      1237.99227        42.30027
G26  20480786.14726    -43154.40626      -574.42926        38.70026
G05  23605759.17325   -182293.91125     -2339.81725        32.60025
G18  20623666.93214    -84089.94114     -1093.43914        26.20014
G29  22427650.96014    -79134.58514     -3776.32314        25.40014
G23  23709567.40813    156571.01013      1958.68613        23.10013
G31  22526003.87213   -314418.75313     -3996.66413        21.30013
C26  22584645.07625    -44417.77125      -589.32025        33.10025
R10  19338414.99415    -95254.02015     -1244.85815        31.00015
C35  22266444.16114     22297.05014       261.89114        29.00014
C13  38232506.98614    -41543.38814      -535.98314        26.30014
C08  38594956.06814    -71317.49714     -1048.91814        23.80014
C29  22214042.23913    -46411.96713     -2898.44113        21.40013
> 2025 05 03 09 21 03.0000000  0 13                      
G16  21515499.43027    100649.88927      1237.39527        42.30027
G26  20480659.93426    -43723.17026      -574.89726        38.70026
G05  23605963.93125   -184628.29825     -2340.65225        32.70025
G18  20623624.96214    -85178.45314     -1094.38214        26.00014
G29  22428130.02914    -82904.94414     -3776.00214        25.20014
G23  23708959.72913    158536.56513      1959.08013        23.00013
G31  22526538.10213   -318412.93813     -4001.28013        21.40013
C26  22584520.36225    -45001.72325      -590.09325        33.20025
R10  19338409.29815    -96487.29615     -1243.90415        30.90015
C35  22266160.25814     22567.79714       265.88314        29.00014
C13  38232372.08014    -42075.04314      -537.15514        26.20014
C08  38594918.89414    -72361.15814     -1050.51614        24.00014
C29  22214360.01913    -49304.95013     -2898.16513        21.10013
> 2025 05 03 09 21 04.0000000  0 13                      
G16  21515024.85827    101893.16327      1237.29227        42.30027
G26  20480527.72626    -44292.34326      -575.24226        38.70026
G05  23606172.28725   -186963.10425     -2340.87825        32.80025
G18  20623588.98614    -86266.64414     -1093.89314        25.90014
G29  22428609.99614    -86674.28514     -3774.69214        25.10014
G23  23708355.04713    160503.11113      1961.17613        22.90013
G31  22527060.64013   -322409.63613     -4003.81313        21.40013
C26  22584392.65025    -45586.11025      -590.41325        33.20025
R10  19338401.50315    -97709.89815     -1246.38415        30.90015
C35  22265879.05314     22835.79214       260.80914        29.00014
C13  38232235.97414    -42607.29814      -538.36514        26.20014
C08  38594891.61314    -73407.03014     -1052.78814        24.00014
C29  22214675.40013    -52198.74613     -2900.00913        20.90013
> 2025 05 03 09 21 05.0000001  0 13                      
G16  21514581.76527    103136.01227      1236.77127        42.20027
G26  20480429.69426    -44862.15526      -575.99426        38.70026
G05  23606414.81925   -189298.72625     -2341.89025        32.80025
G18  20623581.49214    -87359.09314     -1100.44114        25.70014
G29  22429125.63914    -90441.98314     -3772.73714        25.00014
G23  23707769.25313    162474.15013      1967.42213        22.80013
G31  22527620.35313   -326411.89713     -4010.90513        21.50013
C26  22584300.01425    -46170.95925      -590.89125        33.20025
R10  19338434.18115    -98986.65215     -1247.69415        30.80015
C35  22265612.83714     23100.96414       257.95014        29.00014
C13  38232127.74914    -43140.51314      -539.50414        26.10014
C08  38594876.92314    -74449.01814     -1045.85514        24.00014
C29  22215027.35713    -55094.26013     -2902.18213        20.70013
> 2025 05 03 09 21 05.9999998  0 13                      
G16  21514017.85527    104378.54027      1236.50427        42.20027
G26  20480213.24326    -45432.52226      -576.50726        38.60026
G05  23606529.04025   -191634.83825     -2342.21825        32.80025
G18  20623463.37314    -88453.96714     -1101.94914        25.60014
G29  22429515.37014    -94208.35414     -3771.56714        24.80014
G23  23707069.23713    164448.57713      1970.25513        22.80013
G31  22528061.34813   -330413.69713     -4007.42713        21.70013
C26  22584085.66325    -46756.44025      -591.60525        33.30025
R10  19338341.84515   -100238.23415     -1248.07215        30.80015
C35  22265233.30014     23363.81114       255.87414        29.00014
C13  38231916.09514    -43677.48714      -544.66314        26.00014
C08  38594755.20714    -75492.25014     -1049.66214        23.90014
C29  22215252.20113    -57989.16113     -2900.40213        20.50013
> 2025 05 03 09 21 06.9999999  0 13                      
G16  21513575.66127    105620.77127      1236.21827        42.10027
G26  20480112.21326    -46003.30226      -576.85026        38.60026
G05  23606758.08125   -193971.72525     -2343.13725        32.70025
G18  20623469.96914    -89545.01914     -1095.00314        25.40014
G29  22430040.90614    -97978.56014     -3777.98514        24.70014
G23  23706476.24813    166426.87513      1974.36913        23.10013
G31  22528612.06613   -334415.41113     -4007.53213        21.70013
C26  22583987.63125    -47342.23425      -591.76125        33.30025
R10  19338366.42815   -101473.04015     -1248.56615        30.70015
C35  22264971.28114     23628.33314       259.55114        29.00014
C13  38231805.77214    -44214.73014      -543.18814        25.80014
C08  38594739.31814    -76539.00614     -1054.32814        23.80014
C29  22215597.86213    -60886.57513     -2904.47813        20.40013
> 2025 05 03 09 21 07.9999999  0 13                      
G16  21513102.88927    106862.56827      1235.71727        42.10027
G26  20479985.40126    -46574.74126      -577.63126        38.50026
G05  23606968.23625   -196309.24025     -2343.68925        32.70025
G18  20623435.49314    -90634.41014     -1094.42314        25.20014
G29  22430525.67014   -101751.28214     -3779.83914        24.60014
G23  23705869.46813    168406.51113      1974.44013        23.10013
G31  22529133.10613   -338418.93013     -4010.28113        22.00013
C26  22583866.81425    -47928.85425      -592.84125        33.30025
R10  19338363.43015   -102721.57115     -1250.58515        30.60015
C35  22264685.87914     23894.22414       260.76414        28.90014
C13  38231667.26714    -44751.32514      -542.08114        25.70014
C08  38594710.23814    -77583.84814     -1049.69514        23.70014
C29  22215926.73413    -63787.09913     -2907.88713        20.20013
> 2025 05 03 09 21 09.0000000  0 12                      
G16  21512642.10827    108104.12427      1235.62527        42.10027
G26  20479866.08426    -47146.58126      -577.84926        38.50026
G05  23607188.28425   -198647.38325     -2344.26425        32.60025
G18  20623434.59314    -91724.05014     -1095.57314        25.00014
G23  23705266.88513    170387.78313      1976.27913        23.00013
G31  22529667.03613   -342421.45413     -4007.83213        22.00013
C26  22583756.79125    -48515.60725      -592.57525        33.40025
R10  19338372.12415   -103967.85515     -1249.67215        30.50015
C35  22264410.96914     24157.50714       256.22514        28.90014
C13  38231537.75714    -45287.56114      -541.81114        25.50014
C08  38594686.85414    -78625.95414     -1046.49214        23.60014
C29  22216271.49513    -66689.47313     -2909.05313        20.10013
> 2025 05 03 09 21 10.0000000  0 12                      
G16  21512169.33527    109345.24427      1235.02027        42.00027
G26  20479741.07026    -47719.18126      -578.86026        38.40026
G05  23607392.14225   -200986.01125     -2344.75125        32.60025
G18  20623412.10914    -92818.91614     -1103.35914        24.90014
G23  23704667.30013    172370.39313      1977.39613        22.90013
G31  22530187.77613   -346419.78613     -4002.11413        22.20013
C26  22583629.67925    -49103.10725      -593.70125        33.50025
R10  19338375.12115   -105248.42115     -1250.37215        30.40015
C35  22264118.97114     24423.19014       261.05414        28.80014
C13  38231408.84614    -45828.42214      -549.00214        25.30014
C08  38594649.08014    -79669.64514     -1050.31214        23.50014
C29  22216612.35913    -69597.19613     -2916.22313        19.90013
> 2025 05 03 09 21 11.0000000  0 12                      
G16  21511696.86227    110586.06027      1234.80027        42.00027
G26  20479611.86026    -48292.23526      -579.14526        38.30026
G05  23607609.19225   -203325.45525     -2345.71325        32.60025
G18  20623392.62214    -93913.49714     -1100.30114        24.90014
G31  22530704.01813   -350417.33213     -4003.01413        22.20013
G23  23704040.13413    174354.94513      1979.65913        22.70013
C26  22583503.46625    -49691.19025      -594.18425        33.80025
R10  19338365.52815   -106461.10715     -1251.95515        30.30015
C35  22263831.17014     24692.18514       264.84114        28.70014
C13  38231265.24614    -46376.32714      -557.23614        25.10014
C08  38594614.30413    -80713.04813     -1049.06813        23.40013
C29  22216951.12513    -72507.56213     -2917.49513        20.50013
> 2025 05 03 09 21 12.0000001  0 12                      
G16  21511252.87027    111826.44927      1234.31127        42.00027
G26  20479510.23026    -48865.78726      -579.66326        38.30026
G05  23607842.43125   -205665.70125     -2346.50925        32.60025
G18  20623384.82814    -95007.26514     -1099.22414        24.80014
G31  22531273.92413   -354415.49513     -4004.33213        22.40013
G23  23703454.04013    176336.69713      1974.48713        22.50013
C26  22583411.13025    -50279.77325      -594.64325        33.90025
R10  19338397.30615   -107734.04615     -1252.98015        30.20015
C35  22263572.15014     24960.84914       262.68814        28.60014
C13  38231162.41714    -46927.77414      -559.02914        24.90014
C08  38594605.31113    -81753.56613     -1044.88513        23.30013
C29  22217314.47313    -75420.18013     -2919.55213        21.00013
> 2025 05 03 09 21 13.0000001  0 12                      
G16  21510779.49727    113066.54227      1234.08027        42.00027
G26  20479383.71826    -49439.93826      -580.31426        38.20026
G05  23608058.58125   -208006.36125     -2346.72825        32.50025
G18  20623368.33914    -96100.40414     -1098.68614        24.80014
G31  22531797.96113   -358414.52513     -4005.32313        22.40013
G23  23702833.77013    178315.05113      1970.79013        22.30013
C26  22583283.41825    -50868.66325      -594.85225        33.90025
R10  19338379.91815   -108905.54515     -1250.35115        30.20015
C35  22263294.54214     25225.78814       257.26614        28.50014
C13  38231038.30314    -47476.85114      -553.70014        24.70014
C08  38594573.53313    -82795.51713     -1048.47613        23.20013
C29  22217640.04813    -78332.84313     -2918.49313        21.40013
> 2025 05 03 09 21 13.9999998  0 12                      
G16  21510217.98627    114306.34727      1233.79727        42.00027
G26  20479166.06826    -50014.52026      -580.66026        38.10026
G05  23608177.29925   -210347.72525     -2347.57725        32.50025
G18  20623252.61914    -97193.32914     -1098.68114        24.70014
G31  22532229.96213   -362416.28313     -4008.98113        22.50013
G23  23702130.15713    180289.23013      1966.22713        22.10013
C26  22583073.56325    -51458.31025      -595.83625        33.90025
R10  19338280.38715   -110117.47015     -1259.82915        30.10015
C35  22262906.61014     25488.88814       256.37114        28.30014
C13  38230826.94914    -48026.21814      -555.32114        24.50014
C08  38594432.93013    -83837.94913     -1048.48213        23.10013
C29  22217884.67813    -81242.56413     -2914.05813        21.70013
> 2025 05 03 09 21 14.9999999  0 12                      
G16  21509772.79427    115545.74827      1233.33527        42.00027
G26  20479072.83326    -50589.69826      -581.33926        38.00026
G05  23608414.73525   -212689.69325     -2348.13325        32.40025
G18  20623255.61714    -98285.76614     -1098.05514        24.70014
G31  22532783.07913   -366419.13213     -4009.25613        22.50013
G23  23701560.25113    182262.78913      1967.38313        22.00013
C26  22582980.02825    -52048.34325      -596.03525        33.90025
R10  19338316.66215   -111416.34315     -1261.04115        30.10015
C35  22262648.78914     25752.80914       258.52114        28.20014
C13  38230733.11414    -48569.88114      -546.62114        24.40014
C08  38594437.42713    -84879.45813     -1046.85613        23.00013
C29  22218234.53613    -84150.65513     -2913.08413        22.20013
> 2025 05 03 09 21 15.9999999  0 12                      
G16  21509303.01927    116784.76827      1232.96627        42.00027
G26  20478944.22226    -51165.55226      -582.05426        38.00026
G05  23608616.19515   -215031.92315     -2348.97215        32.30015
G18  20623228.63614    -99378.72414     -1099.08014        24.60014
G31  22533303.21913   -370422.75913     -4009.87413        22.50013
G23  23700947.47513    184235.08413      1965.79813        21.80013
C26  22582855.91425    -52639.05525      -596.86225        33.90025
R10  19338306.46915   -112625.21215     -1258.12315        30.00015
C35  22262364.88514     26016.11014       257.18114        28.10014
C13  38230598.50714    -49105.19814      -536.95514        24.30014
C08  38594393.65713    -85920.02113     -1045.90013        22.90013
C29  22218551.11713    -87059.89813     -2915.62613        22.40013
> 2025 05 03 09 21 16.9999999  0 12                      
G16  21508829.64727    118023.42427      1232.61027        42.00027
G26  20478818.00926    -51741.74626      -582.22826        37.90026
G05  23608822.45215   -217373.92015     -2347.49215        32.20015
G18  20623198.65714   -100475.31714     -1104.27314        24.80014
G31  22533830.55413   -374425.99213     -4008.89613        22.40013
G23  23700335.89913    186204.72313      1962.44713        21.60013
C26  22582731.80025    -53230.22425      -597.20625        34.00025
R10  19338316.66215   -113944.67515     -1251.20915        29.90015
C35  22262072.88814     26279.66614       257.87414        28.00014
C13  38230453.10814    -49638.00514      -537.36114        24.10014
C08  38594355.88313    -86965.22613     -1053.33513        22.90013
C29  22218864.10013    -89970.69413     -2917.38213        22.50013
> 2025 05 03 09 21 18.0000000  0 12                      
G16  21508387.15327    119261.73227      1232.26927        42.00027
G26  20478723.57526    -52318.67326      -583.15626        37.80026
G05  23609060.18815   -219718.04215     -2351.04615        32.10015
G18  20623203.75314   -101571.56014     -1101.93014        24.90014
G31  22534389.06713   -378431.70413     -4012.81313        22.40013
G23  23699751.30413    188170.88813      1958.56413        21.40013
C26  22582640.36325    -53821.93825      -597.79725        34.00025
R10  19338338.84715   -115165.75515     -1258.08115        29.80015
C35  22261812.96814     26544.61914       259.84014        27.80014
C13  38230347.88114    -50172.47614      -541.11314        24.00014
C29  22219204.36513    -92881.69513     -2916.91013        22.70013
C08  38594348.68813    -88011.73413     -1052.96913        22.80013
> 2025 05 03 09 21 19.0000000  0 12                      
G16  21507912.28227    120499.66027      1231.87527        42.00027
G26  20478593.16526    -52896.18026      -583.66026        37.70026
G05  23609264.94615   -222063.55015     -2352.06215        32.00015
G18  20623168.97714   -102671.29414     -1107.34214        25.00014
G31  22534904.41013   -382440.66813     -4016.44913        22.30013
G23  23699155.01613    190135.51413      1957.99113        21.20013
C26  22582519.54725    -54414.07225      -598.15325        34.00025
R10  19338327.75415   -116370.81315     -1262.23815        29.70015
C35  22261522.46914     26810.23314       260.13414        27.70014
C13  38230217.17114    -50711.86614      -547.65814        23.90014
C29  22219523.34413    -95794.46313     -2919.46013        23.00013
C08  38594306.11813    -89059.14713     -1053.67413        22.80013
> 2025 05 03 09 21 20.0000000  0 12                      
G16  21507441.60827    121737.26627      1231.58127        42.00027
G26  20478465.75326    -53474.04826      -583.91126        37.60026
G05  23609476.30015   -224409.94515     -2352.69915        31.90015
G18  20623135.40014   -103771.91914     -1106.93414        25.00014
G31  22535433.84413   -386449.15813     -4014.11413        22.20013
G23  23698542.24113    192100.48713      1959.28113        21.10013
C26  22582388.23825    -55006.78425      -598.81125        34.00025
R10  19338348.44015   -117744.42915     -1259.41215        29.60015
C35  22261237.96614     27072.21114       254.35014        27.50014
C13  38230080.16614    -51255.24314      -551.18014        23.80014
C29  22219848.01913    -98707.06413     -2918.32513        23.10013
C08  38594268.34413    -90106.52813     -1053.17513        22.70013
> 2025 05 03 09 21 20.9999998  0 12                      
G16  21506892.38827    122974.48127      1231.20827        42.00027
G26  20478263.39326    -54052.58826      -584.68426        37.60026
G05  23609612.10615   -226758.82715     -2355.93215        31.80015
G18  20623033.47114   -104874.95114     -1110.04214        25.00014
G31  22535873.63913   -390458.36713     -4015.37313        22.00013
G23  23697869.20713    194065.56213      1959.31613        21.00013
C26  22582189.77525    -55600.16325      -599.46825        33.90025
R10  19338281.88615   -119070.03415     -1258.17815        29.50015
C35  22260865.02414     27333.11614       254.61414        27.40014
C13  38229869.71214    -51800.85114      -552.47914        23.70014
C29  22220092.05013   -101618.56813     -2916.70713        23.10013
C08  38594152.02513    -91155.31013     -1055.23613        22.60013
> 2025 05 03 09 21 21.9999999  0 13                      
G16  21506448.99527    124211.37927      1230.85827        42.00027
G26  20478158.76626    -54631.63626      -585.18426        37.50026
G05  23609850.14115   -229104.17815     -2349.46515        31.70015
G18  20623042.16514   -105980.24614     -1112.30814        25.00014
G31  22536431.25313   -394470.60513     -4019.63213        21.90013
G23  23697287.90913    196031.92113      1961.11913        20.90013
C26  22582098.93825    -56193.95025      -599.81825        33.90025
R10  19338286.98314   -120201.86914     -1259.45414        29.40014
C35  22260608.10214     27600.62014       264.97514        27.30014
C13  38229762.98614    -52343.95214      -547.67514        23.60014
C29  22220450.30213   -104526.52513     -2912.01113        23.10013
C08  38594155.92213    -92205.75813     -1057.11013        22.50013
R19  21802190.95713     -9496.25713     -4868.39513        19.60013
> 2025 05 03 09 21 22.9999999  0 13                      
G16  21505975.32327    125447.88827      1230.45027        42.00027
G26  20478031.65426    -55211.32226      -585.86926        37.50026
G05  23610062.39415   -231448.26915     -2349.32315        31.70015
G18  20622992.99914   -107080.96614     -1104.29514        25.00014
G31  22536948.39513   -398484.03213     -4019.88113        21.80013
G23  23696667.93813    198001.29113      1965.01113        20.80013
C26  22581972.72625    -56788.34125      -600.50325        33.80025
R10  19338305.27014   -121562.52214     -1262.39114        29.40014
C35  22260314.60514     27872.27314       267.91714        27.10014
C13  38229623.58214    -52884.17614      -544.59614        23.50014
C29  22220775.87713   -107430.33413     -2907.54213        23.20013
C08  38594132.23813    -93250.84913     -1048.22013        22.40013
R19  21802913.75713    -14631.27313     -4867.06713        20.00013
> 2025 05 03 09 21 23.9999999  0 14                      
