NMEA,$PSAMCLK,2364,55202600,17,9750851,2723369,552026000*71,1746264007000
NMEA,$GPGGA,092008.000,4503.2232,N,00741.2439,E,1,17,0.8,212.2,M,48.2,M,,*51,1746264007000
NMEA,$PSAMSA,092008.000,4503.2232,N,00741.2439,E,1,M,,*66,1746264007000
NMEA,$GPGLL,4503.2232,N,00741.2439,E,092008.000,A,A*57,1746264007000
NMEA,$GPVTG,0.0,T,,M,0.0,N,0.0,K,A*0D,1746264007000
NMEA,$GPGSV,3,1,09,05,20,049,37,16,42,306,42,18,76,116,38,23,19,140,37*73,1746264007000
NMEA,$GPGSV,3,2,09,26,70,285,42,27,17,270,20,28,20,201,27,29,35,069,39*79,1746264007000
NMEA,$GPGSV,3,3,09,31,36,224,33*43,1746264007000
NMEA,$GLGSV,1,1,04,71,09,341,36,73,42,162,33,74,79,265,34,83,29,038,26*6E,1746264007000
NMEA,$BDGSV,2,1,06,208,31,049,30,213,37,068,36,226,54,282,39,229,57,054,36*6E,1746264007000
NMEA,$BDGSV,2,2,06,230,05,060,30,235,57,249,34*61,1746264007000
NMEA,$GPGSA,A,3,18,26,16,31,29,05,28,23,,,,,1.4,0.8,1.0*33,1746264007000
NMEA,$GNGSA,A,3,73,74,83,,,,,,,,,,1.4,0.8,1.0*2C,1746264007000
NMEA,$BDGSA,A,3,208,213,226,229,230,235,,,,,,,1.4,0.8,1.0*2F,1746264007000
NMEA,$GPRMC,092008.000,A,4503.2232,N,00741.2439,E,0.0,0.0,030525,,,A*61,1746264007000
NMEA,$PSAMCLK,2364,55202600,17,9750851,2723369,552026000*71,1746264007000
NMEA,$PSAMCLK,2364,55202700,17,9750874,2785264,552027000*76,1746264008000
NMEA,$GPGGA,092009.000,4503.2232,N,00741.2439,E,1,17,0.8,212.2,M,48.2,M,,*50,1746264008000
NMEA,$PSAMSA,092009.000,4503.2232,N,00741.2439,E,0,M,,*66,1746264008000
NMEA,$GPGLL,4503.2232,N,00741.2439,E,092009.000,A,A*56,1746264008000
NMEA,$GPVTG,0.0,T,,M,0.0,N,0.0,K,A*0D,1746264008000
NMEA,$GPGSV,3,1,09,05,20,049,37,16,42,306,42,18,76,116,39,23,19,140,37*72,1746264008000
NMEA,$GPGSV,3,2,09,26,70,285,42,27,17,270,20,28,20,201,30,29,35,069,39*7F,1746264008000
NMEA,$GPGSV,3,3,09,31,36,224,33*43,1746264008000
NMEA,$GLGSV,1,1,04,71,09,341,36,73,42,162,33,74,79,265,34,83,29,038,26*6E,1746264008000
NMEA,$BDGSV,2,1,06,208,31,049,29,213,37,068,36,226,54,282,39,229,57,054,36*66,1746264008000
NMEA,$BDGSV,2,2,06,230,05,060,30,235,57,249,34*61,1746264008000
NMEA,$GPGSA,A,3,18,26,16,31,29,05,28,23,,,,,1.4,0.8,1.0*33,1746264008000
NMEA,$GNGSA,A,3,73,74,83,,,,,,,,,,1.4,0.8,1.0*2C,1746264008000
NMEA,$BDGSA,A,3,208,213,226,229,230,235,,,,,,,1.4,0.8,1.0*2F,1746264008000
NMEA,$GPRMC,092009.000,A,4503.2232,N,00741.2439,E,0.0,0.0,030525,,,A*60,1746264008000
NMEA,$PSAMCLK,2364,55202700,17,9750874,2785264,552027000*76,1746264008000
NMEA,$PSAMCLK,2364,55202800,16,9751036,2847155,552028000*78,1746264009000
NMEA,$GPGGA,092010.000,4503.2232,N,00741.2439,E,1,16,0.8,212.2,M,48.2,M,,*59,1746264009000
NMEA,$PSAMSA,092010.000,4503.2232,N,00741.2439,E,0,M,,*6E,1746264009000
NMEA,$GPGLL,4503.2232,N,00741.2439,E,092010.000,A,A*5E,1746264009000
NMEA,$GPVTG,0.0,T,,M,0.0,N,0.0,K,A*0D,1746264009000
NMEA,$GPGSV,3,1,09,05,20,049,37,16,42,306,43,18,76,116,39,23,19,140,37*73,1746264009000
NMEA,$GPGSV,3,2,09,26,70,285,42,27,17,270,20,28,20,201,30,29,35,069,38*7E,1746264009000
NMEA,$GPGSV,3,3,09,31,36,224,33*43,1746264009000
NMEA,$GLGSV,1,1,04,71,09,341,36,73,42,162,33,74,79,265,34,83,29,038,26*6E,1746264009000
NMEA,$BDGSV,2,1,06,208,31,049,29,213,37,068,36,226,54,282,39,229,57,054,36*66,1746264009000
NMEA,$BDGSV,2,2,06,230,05,060,30,235,57,249,33*66,1746264009000
NMEA,$GPGSA,A,3,18,26,16,31,05,28,23,,,,,,1.4,0.8,1.0*38,1746264009000
NMEA,$GNGSA,A,3,73,74,83,,,,,,,,,,1.4,0.8,1.0*2C,1746264009000
NMEA,$BDGSA,A,3,208,213,226,229,230,235,,,,,,,1.4,0.8,1.0*2F,1746264009000
NMEA,$GPRMC,092010.000,A,4503.2232,N,00741.2439,E,0.0,0.0,030525,,,A*68,1746264009000
NMEA,$PSAMCLK,2364,55202800,16,9751036,2847155,552028000*78,1746264009000
NMEA,$PSAMCLK,2364,55202900,15,9750870,2909046,552029000*78,1746264010000
NMEA,$GPGGA,092011.000,4503.2232,N,00741.2439,E,1,15,0.8,212.2,M,48.2,M,,*5B,1746264010000
NMEA,$PSAMSA,092011.000,4503.2232,N,00741.2439,E,0,M,,*6F,1746264010000
NMEA,$GPGLL,4503.2232,N,00741.2439,E,092011.000,A,A*5F,1746264010000
NMEA,$GPVTG,0.0,T,,M,0.0,N,0.0,K,A*0D,1746264010000
NMEA,$GPGSV,3,1,09,05,20,049,36,16,42,306,43,18,76,116,39,23,19,140,37*72,1746264010000
NMEA,$GPGSV,3,2,09,26,70,285,42,27,17,270,20,28,20,201,30,29,35,069,36*70,1746264010000
NMEA,$GPGSV,3,3,09,31,36,224,32*42,1746264010000
NMEA,$GLGSV,1,1,04,71,09,341,35,73,42,162,33,74,79,265,34,83,29,038,26*6D,1746264010000
NMEA,$BDGSV,2,1,06,208,31,049,29,213,37,068,35,226,54,282,39,229,57,054,36*65,1746264010000
NMEA,$BDGSV,2,2,06,230,05,060,30,235,57,249,33*66,1746264010000
NMEA,$GPGSA,A,3,18,26,16,31,05,28,23,,,,,,1.4,0.8,1.2*3A,1746264010000
NMEA,$GNGSA,A,3,73,74,83,,,,,,,,,,1.4,0.8,1.2*2E,1746264010000
NMEA,$BDGSA,A,3,208,213,226,229,235,,,,,,,,1.4,0.8,1.2*1C,1746264010000
NMEA,$GPRMC,092011.000,A,4503.2232,N,00741.2439,E,0.0,0.0,030525,,,A*69,1746264010000
NMEA,$PSAMCLK,2364,55202900,15,9750870,2909046,552029000*78,1746264010000
NMEA,$PSAMCLK,2364,55203000,13,9750829,2970936,552030000*72,1746264011000
NMEA,$GPGGA,092012.000,4503.2232,N,00741.2439,E,1,13,0.8,212.2,M,48.2,M,,*5E,1746264011000
NMEA,$PSAMSA,092012.000,4503.2232,N,00741.2439,E,0,M,,*6C,1746264011000
NMEA,$GPGLL,4503.2232,N,00741.2439,E,092012.000,A,A*5C,1746264011000
NMEA,$GPVTG,0.0,T,,M,0.0,N,0.0,K,A*0D,1746264011000
NMEA,$GPGSV,3,1,09,05,20,049,36,16,42,306,43,18,76,116,38,23,19,140,36*72,1746264011000
NMEA,$GPGSV,3,2,09,26,70,285,42,27,17,270,20,28,20,201,30,29,35,069,35*73,1746264011000
NMEA,$GPGSV,3,3,09,31,36,224,31*41,1746264011000
NMEA,$GLGSV,1,1,04,71,09,341,35,73,42,162,33,74,79,265,34,83,29,038,26*6D,1746264011000
NMEA,$BDGSV,2,1,06,208,31,049,29,213,37,068,34,226,54,282,38,229,57,054,36*65,1746264011000
NMEA,$BDGSV,2,2,06,230,05,060,28,235,57,249,33*6F,1746264011000
NMEA,$GPGSA,A,3,18,26,16,31,05,23,,,,,,,1.8,0.8,1.4*3A,1746264011000
NMEA,$GNGSA,A,3,73,74,,,,,,,,,,,1.8,0.8,1.4*2F,1746264011000
NMEA,$BDGSA,A,3,208,213,226,229,235,,,,,,,,1.8,0.8,1.4*16,1746264011000
NMEA,$GPRMC,092012.000,A,4503.2232,N,00741.2439,E,0.0,0.0,030525,,,A*6A,1746264011000
NMEA,$PSAMCLK,2364,55203000,13,9750829,2970936,552030000*72,1746264011000
NMEA,$PSAMCLK,2364,55203100,13,9750832,3032829,552031000*79,1746264012000
NMEA,$GPGGA,092013.000,4503.2232,N,00741.2439,E,1,13,0.8,212.2,M,48.2,M,,*5F,1746264012000
NMEA,$PSAMSA,092013.000,4503.2232,N,00741.2439,E,1,M,,*6C,1746264012000
NMEA,$GPGLL,4503.2232,N,00741.2439,E,092013.000,A,A*5D,1746264012000
NMEA,$GPVTG,0.0,T,,M,0.0,N,0.0,K,A*0D,1746264012000
NMEA,$GPGSV,3,1,09,05,20,049,36,16,42,306,43,18,76,116,37,23,19,140,35*7E,1746264012000
NMEA,$GPGSV,3,2,09,26,70,285,42,27,17,270,20,28,20,201,29,29,35,069,34*7A,1746264012000
NMEA,$GPGSV,3,3,09,31,36,224,30*40,1746264012000
NMEA,$GLGSV,1,1,04,71,09,341,34,73,42,162,32,74,79,265,34,83,29,038,26*6D,1746264012000
NMEA,$BDGSV,2,1,06,208,31,049,29,213,37,068,34,226,54,282,38,229,57,054,36*65,1746264012000
NMEA,$BDGSV,2,2,06,230,05,060,27,235,57,249,32*61,1746264012000
NMEA,$GPGSA,A,3,18,26,16,31,05,23,,,,,,,1.6,0.8,1.2*32,1746264012000
NMEA,$GNGSA,A,3,74,,,,,,,,,,,,1.6,0.8,1.2*23,1746264012000
NMEA,$BDGSA,A,3,208,213,226,229,230,235,,,,,,,1.6,0.8,1.2*2F,1746264012000
NMEA,$GPRMC,092013.000,A,4503.2232,N,00741.2439,E,0.0,0.0,030525,,,A*6B,1746264012000
NMEA,$PSAMCLK,2364,55203100,13,9750832,3032829,552031000*79,1746264012000
NMEA,$PSAMCLK,2364,55203200,16,9750827,3094723,552032000*71,1746264013000
NMEA,$GPGGA,092014.000,4503.2232,N,00741.2439,E,1,16,0.8,212.2,M,48.2,M,,*5D,1746264013000
NMEA,$PSAMSA,092014.000,4503.2232,N,00741.2439,E,1,M,,*6B,1746264013000
NMEA,$GPGLL,4503.2232,N,00741.2439,E,092014.000,A,A*5A,1746264013000
NMEA,$GPVTG,0.0,T,,M,0.0,N,0.0,K,A*0D,1746264013000
NMEA,$GPGSV,3,1,09,05,20,049,36,16,42,306,43,18,76,116,36,23,19,140,35*7F,1746264013000
NMEA,$GPGSV,3,2,09,26,70,285,41,27,17,270,20,28,20,201,29,29,35,069,32*7F,1746264013000
NMEA,$GPGSV,3,3,09,31,36,224,29*48,1746264013000
NMEA,$GLGSV,1,1,04,71,09,341,34,73,42,162,31,74,79,265,34,83,29,038,26*6E,1746264013000
NMEA,$BDGSV,2,1,06,208,31,049,29,213,37,068,33,226,54,282,37,229,57,054,35*6E,1746264013000
NMEA,$BDGSV,2,2,06,230,05,060,26,235,57,249,32*60,1746264013000
NMEA,$GPGSA,A,3,18,26,16,31,05,28,23,,,,,,1.4,0.8,1.0*38,1746264013000
NMEA,$GNGSA,A,3,73,74,83,,,,,,,,,,1.4,0.8,1.0*2C,1746264013000
NMEA,$BDGSA,A,3,208,213,226,229,230,235,,,,,,,1.4,0.8,1.0*2F,1746264013000
NMEA,$GPRMC,092014.000,A,4503.2232,N,00741.2439,E,0.0,0.0,030525,,,A*6C,1746264013000
NMEA,$PSAMCLK,2364,55203200,16,9750827,3094723,552032000*71,1746264013000
NMEA,$PSAMCLK,2364,55203300,15,9750824,3156616,552033000*79,1746264014000
NMEA,$GPGGA,092015.000,4503.2232,N,00741.2439,E,1,15,0.8,212.2,M,48.2,M,,*5F,1746264014000
NMEA,$PSAMSA,092015.000,4503.2232,N,00741.2439,E,1,M,,*6A,1746264014000
NMEA,$GPGLL,4503.2232,N,00741.2439,E,092015.000,A,A*5B,1746264014000
NMEA,$GPVTG,0.0,T,,M,0.0,N,0.0,K,A*0D,1746264014000
NMEA,$GPGSV,3,1,09,05,20,049,36,16,42,306,43,18,76,116,35,23,19,140,34*7D,1746264014000
NMEA,$GPGSV,3,2,09,26,70,285,41,27,17,270,20,28,20,201,28,29,35,069,31*7D,1746264014000
NMEA,$GPGSV,3,3,09,31,36,224,28*49,1746264014000
NMEA,$GLGSV,1,1,04,71,09,341,33,73,42,162,30,74,79,265,34,83,29,038,26*68,1746264014000
NMEA,$BDGSV,2,1,06,208,31,049,29,213,37,068,33,226,54,282,37,229,57,054,35*6E,1746264014000
NMEA,$BDGSV,2,2,06,230,05,060,25,235,57,249,32*63,1746264014000
NMEA,$GPGSA,A,3,18,26,16,31,05,23,,,,,,,1.4,0.8,1.2*30,1746264014000
NMEA,$GNGSA,A,3,73,74,83,,,,,,,,,,1.4,0.8,1.2*2E,1746264014000
NMEA,$BDGSA,A,3,208,213,226,229,230,235,,,,,,,1.4,0.8,1.2*2D,1746264014000
NMEA,$GPRMC,092015.000,A,4503.2232,N,00741.2439,E,0.0,0.0,030525,,,A*6D,1746264014000
NMEA,$PSAMCLK,2364,55203300,15,9750824,3156616,552033000*79,1746264014000
NMEA,$PSAMCLK,2364,55203400,15,9750831,3218510,552034000*71,1746264015000
NMEA,$GPGGA,092016.000,4503.2232,N,00741.2439,E,1,15,0.8,212.2,M,48.2,M,,*5C,1746264015000
NMEA,$PSAMSA,092016.000,4503.2232,N,00741.2439,E,1,M,,*69,1746264015000
NMEA,$GPGLL,4503.2232,N,00741.2439,E,092016.000,A,A*58,1746264015000
NMEA,$GPVTG,0.0,T,,M,0.0,N,0.0,K,A*0D,1746264015000
NMEA,$GPGSV,3,1,09,05,20,049,36,16,42,306,43,18,76,116,35,23,19,140,33*7A,1746264015000
NMEA,$GPGSV,3,2,09,26,70,285,41,27,17,270,20,28,20,201,26,29,35,069,29*7A,1746264015000
NMEA,$GPGSV,3,3,09,31,36,224,27*46,1746264015000
NMEA,$GLGSV,1,1,04,71,09,341,32,73,42,162,30,74,79,265,34,83,29,038,26*69,1746264015000
NMEA,$BDGSV,2,1,06,208,31,049,28,213,37,068,32,226,54,282,37,229,57,054,34*6F,1746264015000
NMEA,$BDGSV,2,2,06,230,05,060,25,235,57,249,32*63,1746264015000
NMEA,$GPGSA,A,3,18,26,16,31,05,23,,,,,,,1.4,0.8,1.2*30,1746264015000
NMEA,$GNGSA,A,3,73,74,83,,,,,,,,,,1.4,0.8,1.2*2E,1746264015000
NMEA,$BDGSA,A,3,208,213,226,229,230,235,,,,,,,1.4,0.8,1.2*2D,1746264015000
NMEA,$GPRMC,092016.000,A,4503.2232,N,00741.2439,E,0.0,0.0,030525,,,A*6E,1746264015000
NMEA,$PSAMCLK,2364,55203400,15,9750831,3218510,552034000*71,1746264015000
NMEA,$PSAMCLK,2364,55203500,15,9750820,3280403,552035000*73,1746264016000
NMEA,$GPGGA,092017.000,4503.2232,N,00741.2439,E,1,15,0.8,212.2,M,48.2,M,,*5D,1746264016000
NMEA,$PSAMSA,092017.000,4503.2232,N,00741.2439,E,1,M,,*68,1746264016000
NMEA,$GPGLL,4503.2232,N,00741.2439,E,092017.000,A,A*59,1746264016000
NMEA,$GPVTG,0.0,T,,M,0.0,N,0.0,K,A*0D,1746264016000
NMEA,$GPGSV,3,1,09,05,20,049,36,16,42,306,43,18,76,116,34,23,19,140,33*7B,1746264016000
NMEA,$GPGSV,3,2,09,26,70,285,41,27,17,270,20,28,20,201,25,29,35,069,28*78,1746264016000
NMEA,$GPGSV,3,3,09,31,36,224,26*47,1746264016000
NMEA,$GLGSV,1,1,04,71,09,341,32,73,42,162,29,74,79,265,34,83,29,038,26*61,1746264016000
NMEA,$BDGSV,2,1,06,208,31,049,28,213,37,068,32,226,54,282,36,229,57,054,34*6E,1746264016000
NMEA,$BDGSV,2,2,06,230,05,060,24,235,57,249,31*61,1746264016000
NMEA,$GPGSA,A,3,18,26,16,31,05,23,,,,,,,1.4,0.8,1.2*30,1746264016000
NMEA,$GNGSA,A,3,73,74,83,,,,,,,,,,1.4,0.8,1.2*2E,1746264016000
NMEA,$BDGSA,A,3,208,213,226,229,230,235,,,,,,,1.4,0.8,1.2*2D,1746264016000
NMEA,$GPRMC,092017.000,A,4503.2232,N,00741.2439,E,0.0,0.0,030525,,,A*6F,1746264016000
NMEA,$PSAMCLK,2364,55203500,15,9750820,3280403,552035000*73,1746264016000
NMEA,$PSAMCLK,2364,55203600,14,9750821,3342297,552036000*77,1746264017000
NMEA,$GPGGA,092018.000,4503.2232,N,00741.2439,E,1,14,0.8,212.2,M,48.2,M,,*53,1746264017000
NMEA,$PSAMSA,092018.000,4503.2232,N,00741.2439,E,1,M,,*67,1746264017000
NMEA,$GPGLL,4503.2232,N,00741.2439,E,092018.000,A,A*56,1746264017000
NMEA,$GPVTG,0.0,T,,M,0.0,N,0.0,K,A*0D,1746264017000
NMEA,$GPGSV,3,1,09,05,20,049,35,16,42,306,43,18,76,116,34,23,19,140,32*79,1746264017000
NMEA,$GPGSV,3,2,09,26,70,285,41,27,17,270,20,28,20,201,23,29,35,069,26*70,1746264017000
NMEA,$GPGSV,3,3,09,31,36,224,26*47,1746264017000
NMEA,$GLGSV,1,1,04,71,09,341,31,73,42,162,28,74,79,265,33,83,29,038,26*64,1746264017000
NMEA,$BDGSV,2,1,06,208,31,049,28,213,37,068,31,226,54,282,36,229,57,054,34*6D,1746264017000
NMEA,$BDGSV,2,2,06,230,05,060,23,235,57,249,31*66,1746264017000
NMEA,$GPGSA,A,3,18,26,16,31,05,23,,,,,,,1.6,0.8,1.2*32,1746264017000
NMEA,$GNGSA,A,3,73,74,,,,,,,,,,,1.6,0.8,1.2*27,1746264017000
NMEA,$BDGSA,A,3,208,213,226,229,230,235,,,,,,,1.6,0.8,1.2*2F,1746264017000
NMEA,$GPRMC,092018.000,A,4503.2232,N,00741.2439,E,0.0,0.0,030525,,,A*60,1746264017000
NMEA,$PSAMCLK,2364,55203600,14,9750821,3342297,552036000*77,1746264017000
NMEA,$PSAMCLK,2364,55203700,15,9750819,3404190,552037000*7C,1746264018000
NMEA,$GPGGA,092019.000,4503.2232,N,00741.2439,E,1,15,0.8,212.2,M,48.2,M,,*53,1746264018000
NMEA,$PSAMSA,092019.000,4503.2232,N,00741.2439,E,1,M,,*66,1746264018000
NMEA,$GPGLL,4503.2232,N,00741.2439,E,092019.000,A,A*57,1746264018000
NMEA,$GPVTG,0.0,T,,M,0.0,N,0.0,K,A*0D,1746264018000
NMEA,$GPGSV,3,1,09,05,20,049,35,16,42,306,43,18,76,116,33,23,19,140,32*7E,1746264018000
NMEA,$GPGSV,3,2,09,26,70,285,41,27,17,270,20,28,20,201,22,29,35,069,25*72,1746264018000
NMEA,$GPGSV,3,3,09,31,36,224,25*44,1746264018000
NMEA,$GLGSV,1,1,04,71,09,341,29,73,42,162,28,74,79,265,33,83,29,038,25*6E,1746264018000
NMEA,$BDGSV,2,1,06,208,31,049,28,213,37,068,31,226,54,282,36,229,57,054,33*6A,1746264018000
NMEA,$BDGSV,2,2,06,230,05,060,23,235,57,249,31*66,1746264018000
NMEA,$GPGSA,A,3,18,26,16,31,05,23,,,,,,,1.4,0.8,1.2*30,1746264018000
NMEA,$GNGSA,A,3,73,74,83,,,,,,,,,,1.4,0.8,1.2*2E,1746264018000
NMEA,$BDGSA,A,3,208,213,226,229,230,235,,,,,,,1.4,0.8,1.2*2D,1746264018000
NMEA,$GPRMC,092019.000,A,4503.2232,N,00741.2439,E,0.0,0.0,030525,,,A*61,1746264018000
NMEA,$PSAMCLK,2364,55203700,15,9750819,3404190,552037000*7C,1746264018000
NMEA,$PSAMCLK,2364,55203800,14,9750837,3466084,552038000*71,1746264019000
NMEA,$GPGGA,092020.000,4503.2232,N,00741.2439,E,1,14,0.8,212.2,M,48.2,M,,*58,1746264019000
NMEA,$PSAMSA,092020.000,4503.2232,N,00741.2439,E,1,M,,*6C,1746264019000
NMEA,$GPGLL,4503.2232,N,00741.2439,E,092020.000,A,A*5D,1746264019000
NMEA,$GPVTG,0.0,T,,M,0.0,N,0.0,K,A*0D,1746264019000
NMEA,$GPGSV,3,1,09,05,20,049,35,16,42,306,43,18,76,116,33,23,19,140,31*7D,1746264019000
NMEA,$GPGSV,3,2,09,26,70,285,41,27,17,270,19,28,20,201,20,29,35,069,23*7C,1746264019000
NMEA,$GPGSV,3,3,09,31,36,224,25*44,1746264019000
NMEA,$GLGSV,1,1,04,71,09,341,28,73,42,162,27,74,79,265,33,83,29,038,25*60,1746264019000
NMEA,$BDGSV,2,1,06,208,31,049,28,213,37,068,31,226,54,282,36,229,57,054,33*6A,1746264019000
NMEA,$BDGSV,2,2,06,230,05,060,21,235,57,249,31*64,1746264019000
NMEA,$GPGSA,A,3,18,26,16,31,05,23,,,,,,,1.6,0.8,1.4*34,1746264019000
NMEA,$GNGSA,A,3,73,74,83,,,,,,,,,,1.6,0.8,1.4*2A,1746264019000
NMEA,$BDGSA,A,3,208,213,226,229,235,,,,,,,,1.6,0.8,1.4*18,1746264019000
NMEA,$GPRMC,092020.000,A,4503.2232,N,00741.2439,E,0.0,0.0,030525,,,A*6B,1746264019000
NMEA,$PSAMCLK,2364,55203800,14,9750837,3466084,552038000*71,1746264019000
NMEA,$PSAMCLK,2364,55203900,13,9750819,3527977,552039000*7B,1746264020000
NMEA,$GPGGA,092021.000,4503.2232,N,00741.2439,E,1,13,0.8,212.2,M,48.2,M,,*5E,1746264020000
NMEA,$PSAMSA,092021.000,4503.2232,N,00741.2439,E,1,M,,*6D,1746264020000
NMEA,$GPGLL,4503.2232,N,00741.2439,E,092021.000,A,A*5C,1746264020000
NMEA,$GPVTG,0.0,T,,M,0.0,N,0.0,K,A*0D,1746264020000
NMEA,$GPGSV,3,1,09,05,20,049,35,16,42,306,43,18,76,116,32,23,19,140,31*7C,1746264020000
NMEA,$GPGSV,3,2,09,26,70,285,41,27,17,270,19,28,20,201,19,29,35,069,22*77,1746264020000
NMEA,$GPGSV,3,3,09,31,36,224,24*45,1746264020000
NMEA,$GLGSV,1,1,04,71,10,341,27,73,42,162,27,74,79,264,33,83,29,038,25*66,1746264020000
NMEA,$BDGSV,2,1,06,208,31,049,28,213,37,068,30,226,54,282,35,229,57,054,33*68,1746264020000
NMEA,$BDGSV,2,2,06,230,05,060,20,235,57,249,31*65,1746264020000
NMEA,$GPGSA,A,3,18,26,16,31,05,23,,,,,,,1.8,0.8,1.4*3A,1746264020000
NMEA,$GNGSA,A,3,73,74,,,,,,,,,,,1.8,0.8,1.4*2F,1746264020000
NMEA,$BDGSA,A,3,208,213,226,229,235,,,,,,,,1.8,0.8,1.4*16,1746264020000
NMEA,$GPRMC,092021.000,A,4503.2232,N,00741.2439,E,0.0,0.0,030525,,,A*6A,1746264020000
NMEA,$PSAMCLK,2364,55203900,13,9750819,3527977,552039000*7B,1746264020000
NMEA,$PSAMCLK,2364,55204000,13,9750843,3589871,552040000*77,1746264021000
NMEA,$GPGGA,092022.000,4503.2232,N,00741.2439,E,1,13,0.8,212.2,M,48.2,M,,*5D,1746264021000
NMEA,$PSAMSA,092022.000,4503.2232,N,00741.2439,E,0,M,,*6F,1746264021000
NMEA,$GPGLL,4503.2232,N,00741.2439,E,092022.000,A,A*5F,1746264021000
NMEA,$GPVTG,0.0,T,,M,0.0,N,0.0,K,A*0D,1746264021000
NMEA,$GPGSV,3,1,09,05,20,049,35,16,42,306,43,18,76,116,32,23,19,140,30*7D,1746264021000
NMEA,$GPGSV,3,2,09,26,70,285,41,27,17,270,19,28,20,201,17,29,35,069,20*7B,1746264021000
NMEA,$GPGSV,3,3,09,31,36,224,24*45,1746264021000
NMEA,$GLGSV,1,1,04,71,10,341,26,73,42,162,26,74,79,264,33,83,29,038,25*66,1746264021000
NMEA,$BDGSV,2,1,06,208,31,049,27,213,37,068,30,226,54,282,35,229,57,054,32*66,1746264021000
NMEA,$BDGSV,2,2,06,230,05,060,18,235,57,249,30*6F,1746264021000
NMEA,$GPGSA,A,3,18,26,16,31,05,23,,,,,,,1.8,0.8,1.4*3A,1746264021000
NMEA,$GNGSA,A,3,73,74,,,,,,,,,,,1.8,0.8,1.4*2F,1746264021000
NMEA,$BDGSA,A,3,208,213,226,229,235,,,,,,,,1.8,0.8,1.4*16,1746264021000
NMEA,$GPRMC,092022.000,A,4503.2232,N,00741.2439,E,0.0,0.0,030525,,,A*69,1746264021000
NMEA,$PSAMCLK,2364,55204000,13,9750843,3589871,552040000*77,1746264021000
NMEA,$PSAMCLK,2364,55204100,15,9750833,3651765,552041000*7A,1746264022000
NMEA,$GPGGA,092023.000,4503.2232,N,00741.2439,E,1,15,0.8,212.2,M,48.2,M,,*5A,1746264022000
NMEA,$PSAMSA,092023.000,4503.2232,N,00741.2439,E,0,M,,*6E,1746264022000
NMEA,$GPGLL,4503.2232,N,00741.2439,E,092023.000,A,A*5E,1746264022000
NMEA,$GPVTG,0.0,T,,M,0.0,N,0.0,K,A*0D,1746264022000
NMEA,$GPGSV,3,1,09,05,20,049,35,16,42,306,43,18,76,116,32,23,19,140,30*7D,1746264022000
NMEA,$GPGSV,3,2,09,26,70,285,40,27,17,270,19,28,20,201,16,29,35,069,26*7D,1746264022000
NMEA,$GPGSV,3,3,09,31,36,224,23*42,1746264022000
NMEA,$GLGSV,1,1,04,71,10,341,26,73,42,162,26,74,79,264,33,83,29,038,25*66,1746264022000
NMEA,$BDGSV,2,1,06,208,31,049,27,213,37,068,30,226,54,282,35,229,57,054,32*66,1746264022000
NMEA,$BDGSV,2,2,06,230,05,060,17,235,57,249,30*60,1746264022000
NMEA,$GPGSA,A,3,18,26,16,31,29,05,23,,,,,,1.6,0.8,1.4*3F,1746264022000
NMEA,$GNGSA,A,3,73,74,83,,,,,,,,,,1.6,0.8,1.4*2A,1746264022000
NMEA,$BDGSA,A,3,208,213,226,229,235,,,,,,,,1.6,0.8,1.4*18,1746264022000
NMEA,$GPRMC,092023.000,A,4503.2232,N,00741.2439,E,0.0,0.0,030525,,,A*68,1746264022000
NMEA,$PSAMCLK,2364,55204100,15,9750833,3651765,552041000*7A,1746264022000
NMEA,$PSAMCLK,2364,55204200,14,9750841,3713658,552042000*76,1746264023000
NMEA,$GPGGA,092024.000,4503.2232,N,00741.2439,E,1,14,1.0,212.2,M,48.2,M,,*55,1746264023000
NMEA,$PSAMSA,092024.000,4503.2232,N,00741.2439,E,1,M,,*68,1746264023000
NMEA,$GPGLL,4503.2232,N,00741.2439,E,092024.000,A,A*59,1746264023000
NMEA,$GPVTG,0.0,T,,M,0.0,N,0.0,K,A*0D,1746264023000
NMEA,$GPGSV,3,1,09,05,20,049,34,16,42,306,43,18,76,116,31,23,19,140,30*7F,1746264023000
NMEA,$GPGSV,3,2,09,26,70,285,40,27,17,270,19,28,20,201,14,29,35,069,28*71,1746264023000
NMEA,$GPGSV,3,3,09,31,36,224,23*42,1746264023000
NMEA,$GLGSV,1,1,04,71,10,341,25,73,42,162,25,74,79,264,33,83,29,038,25*66,1746264023000
NMEA,$BDGSV,2,1,06,208,31,049,27,213,37,068,29,226,54,282,35,229,57,054,32*6E,1746264023000
NMEA,$BDGSV,2,2,06,230,05,060,15,235,57,249,30*62,1746264023000
NMEA,$GPGSA,A,3,18,26,16,31,29,05,,,,,,,1.8,1.0,1.6*3B,1746264023000
NMEA,$GNGSA,A,3,73,74,83,,,,,,,,,,1.8,1.0,1.6*2F,1746264023000
NMEA,$BDGSA,A,3,208,213,226,229,235,,,,,,,,1.8,1.0,1.6*1D,1746264023000
NMEA,$GPRMC,092024.000,A,4503.2232,N,00741.2439,E,0.0,0.0,030525,,,A*6F,1746264023000
NMEA,$PSAMCLK,2364,55204200,14,9750841,3713658,552042000*76,1746264023000
NMEA,$PSAMCLK,2364,55204300,14,9750846,3775552,552043000*78,1746264024000
NMEA,$GPGGA,092025.000,4503.2232,N,00741.2439,E,1,14,0.8,212.2,M,48.2,M,,*5D,1746264024000
NMEA,$PSAMSA,092025.000,4503.2232,N,00741.2439,E,1,M,,*69,1746264024000
NMEA,$GPGLL,4503.2232,N,00741.2439,E,092025.000,A,A*58,1746264024000
NMEA,$GPVTG,0.0,T,,M,0.0,N,0.0,K,A*0D,1746264024000
NMEA,$GPGSV,3,1,09,05,20,049,34,16,42,306,43,18,76,116,31,23,19,140,29*77,1746264024000
NMEA,$GPGSV,3,2,09,26,70,285,40,27,17,270,17,28,20,201,13,29,35,069,28*78,1746264024000
NMEA,$GPGSV,3,3,09,31,36,224,23*42,1746264024000
NMEA,$GLGSV,1,1,04,71,10,341,24,73,42,162,25,74,79,264,33,83,29,038,24*66,1746264024000
NMEA,$BDGSV,2,1,06,208,31,049,27,213,37,068,29,226,54,282,35,229,57,054,31*6D,1746264024000
NMEA,$BDGSV,2,2,06,230,05,060,14,235,57,249,30*63,1746264024000
NMEA,$GPGSA,A,3,18,26,16,31,29,05,23,,,,,,1.6,0.8,1.4*3F,1746264024000
NMEA,$GNGSA,A,3,73,74,,,,,,,,,,,1.6,0.8,1.4*21,1746264024000
NMEA,$BDGSA,A,3,208,213,226,229,235,,,,,,,,1.6,0.8,1.4*18,1746264024000
NMEA,$GPRMC,092025.000,A,4503.2232,N,00741.2439,E,0.0,0.0,030525,,,A*6E,1746264024000
NMEA,$PSAMCLK,2364,55204300,14,9750846,3775552,552043000*78,1746264024000
NMEA,$PSAMCLK,2364,55204400,14,9750857,3837445,552044000*76,1746264025000
NMEA,$GPGGA,092026.000,4503.2232,N,00741.2439,E,1,14,0.8,212.2,M,48.2,M,,*5E,1746264025000
NMEA,$PSAMSA,092026.000,4503.2232,N,00741.2439,E,1,M,,*6A,1746264025000
NMEA,$GPGLL,4503.2232,N,00741.2439,E,092026.000,A,A*5B,1746264025000
NMEA,$GPVTG,0.0,T,,M,0.0,N,0.0,K,A*0D,1746264025000
NMEA,$GPGSV,3,1,09,05,20,049,34,16,42,306,43,18,76,116,31,23,19,140,29*77,1746264025000
NMEA,$GPGSV,3,2,09,26,70,285,40,27,17,270,16,28,20,201,13,29,35,069,28*79,1746264025000
NMEA,$GPGSV,3,3,09,31,36,224,22*43,1746264025000
NMEA,$GLGSV,1,1,04,71,10,341,24,73,42,162,25,74,79,264,33,83,29,038,24*66,1746264025000
NMEA,$BDGSV,2,1,06,208,31,049,27,213,37,068,29,226,54,282,35,229,57,054,31*6D,1746264025000
NMEA,$BDGSV,2,2,06,230,05,060,13,235,57,249,30*64,1746264025000
NMEA,$GPGSA,A,3,18,26,16,31,29,05,23,,,,,,1.6,0.8,1.4*3F,1746264025000
NMEA,$GNGSA,A,3,73,74,,,,,,,,,,,1.6,0.8,1.4*21,1746264025000
NMEA,$BDGSA,A,3,208,213,226,229,235,,,,,,,,1.6,0.8,1.4*18,1746264025000
NMEA,$GPRMC,092026.000,A,4503.2232,N,00741.2439,E,0.0,0.0,030525,,,A*6D,1746264025000
NMEA,$PSAMCLK,2364,55204400,14,9750857,3837445,552044000*76,1746264025000
NMEA,$PSAMCLK,2364,55204500,13,9750878,3899339,552045000*74,1746264026000
NMEA,$GPGGA,092027.000,4503.2232,N,00741.2439,E,1,13,0.8,212.2,M,48.2,M,,*58,1746264026000
NMEA,$PSAMSA,092027.000,4503.2232,N,00741.2439,E,1,M,,*6B,1746264026000
NMEA,$GPGLL,4503.2232,N,00741.2439,E,092027.000,A,A*5A,1746264026000
NMEA,$GPVTG,0.0,T,,M,0.0,N,0.0,K,A*0D,1746264026000
NMEA,$GPGSV,3,1,09,05,20,049,34,16,42,306,43,18,76,116,31,23,19,140,29*77,1746264026000
NMEA,$GPGSV,3,2,09,26,70,285,40,27,17,270,14,28,19,201,12,29,35,069,28*70,1746264026000
NMEA,$GPGSV,3,3,09,31,36,224,22*43,1746264026000
NMEA,$GLGSV,1,1,04,71,10,341,23,73,42,162,24,74,79,264,33,83,29,038,24*60,1746264026000
NMEA,$BDGSV,2,1,06,208,31,049,26,213,37,068,29,226,54,282,35,229,57,054,30*6D,1746264026000
NMEA,$BDGSV,2,2,06,230,05,060,12,235,57,249,30*65,1746264026000
NMEA,$GPGSA,A,3,18,26,16,31,29,05,23,,,,,,1.8,0.8,1.6*33,1746264026000
NMEA,$GNGSA,A,3,73,74,83,,,,,,,,,,1.8,0.8,1.6*26,1746264026000
NMEA,$BDGSA,A,3,213,226,235,,,,,,,,,,1.8,0.8,1.6*17,1746264026000
NMEA,$GPRMC,092027.000,A,4503.2232,N,00741.2439,E,0.0,0.0,030525,,,A*6C,1746264026000
NMEA,$PSAMCLK,2364,55204500,13,9750878,3899339,552045000*74,1746264026000
NMEA,$PSAMCLK,2364,55204600,14,9750855,3961233,552046000*71,1746264027000
NMEA,$GPGGA,092028.000,4503.2232,N,00741.2439,E,1,14,0.8,212.2,M,48.2,M,,*50,1746264027000
NMEA,$PSAMSA,092028.000,4503.2232,N,00741.2439,E,1,M,,*64,1746264027000
NMEA,$GPGLL,4503.2232,N,00741.2439,E,092028.000,A,A*55,1746264027000
NMEA,$GPVTG,0.0,T,,M,0.0,N,0.0,K,A*0D,1746264027000
NMEA,$GPGSV,2,1,08,05,20,049,34,16,42,306,43,18,76,116,30,23,19,140,28*77,1746264027000
NMEA,$GPGSV,2,2,08,26,70,285,40,27,17,270,14,29,35,069,28,31,35,224,22*72,1746264027000
NMEA,$GLGSV,1,1,04,71,10,341,23,73,42,162,24,74,79,264,32,83,29,038,24*61,1746264027000
NMEA,$BDGSV,2,1,05,208,31,049,26,213,37,068,29,226,54,282,34,229,57,054,29*67,1746264027000
NMEA,$BDGSV,2,2,05,235,57,249,30*67,1746264027000
NMEA,$GPGSA,A,3,18,26,16,31,29,05,23,,,,,,1.8,0.8,1.6*33,1746264027000
NMEA,$GNGSA,A,3,73,74,83,,,,,,,,,,1.8,0.8,1.6*26,1746264027000
NMEA,$BDGSA,A,3,208,213,226,235,,,,,,,,,1.8,0.8,1.6*2D,1746264027000
NMEA,$GPRMC,092028.000,A,4503.2232,N,00741.2439,E,0.0,0.0,030525,,,A*63,1746264027000
NMEA,$PSAMCLK,2364,55204600,14,9750855,3961233,552046000*71,1746264027000
NMEA,$PSAMCLK,2364,55204700,15,9750855,4023127,552047000*7E,1746264028000
NMEA,$GPGGA,092029.000,4503.2232,N,00741.2439,E,1,15,0.8,212.2,M,48.2,M,,*50,1746264028000
NMEA,$PSAMSA,092029.000,4503.2232,N,00741.2439,E,1,M,,*65,1746264028000
NMEA,$GPGLL,4503.2232,N,00741.2439,E,092029.000,A,A*54,1746264028000
NMEA,$GPVTG,0.0,T,,M,0.0,N,0.0,K,A*0D,1746264028000
NMEA,$GPGSV,2,1,08,05,20,049,33,16,42,306,43,18,76,116,30,23,19,140,28*70,1746264028000
NMEA,$GPGSV,2,2,08,26,70,285,40,27,17,270,13,29,35,069,28,31,35,224,21*76,1746264028000
NMEA,$GLGSV,1,1,04,71,10,341,22,73,42,162,24,74,79,264,32,83,29,038,24*60,1746264028000
NMEA,$BDGSV,2,1,05,208,31,049,26,213,37,068,28,226,54,282,34,229,57,054,29*66,1746264028000
NMEA,$BDGSV,2,2,05,235,57,249,30*67,1746264028000
NMEA,$GPGSA,A,3,18,26,16,31,29,05,23,,,,,,1.6,0.8,1.4*3F,1746264028000
NMEA,$GNGSA,A,3,73,74,83,,,,,,,,,,1.6,0.8,1.4*2A,1746264028000
NMEA,$BDGSA,A,3,208,213,226,229,235,,,,,,,,1.6,0.8,1.4*18,1746264028000
NMEA,$GPRMC,092029.000,A,4503.2232,N,00741.2439,E,0.0,0.0,030525,,,A*62,1746264028000
NMEA,$PSAMCLK,2364,55204700,15,9750855,4023127,552047000*7E,1746264028000
NMEA,$PSAMCLK,2364,55204800,14,9750868,4085020,552048000*7B,1746264029000
NMEA,$GPGGA,092030.000,4503.2232,N,00741.2439,E,1,14,0.8,212.2,M,48.2,M,,*59,1746264029000
NMEA,$PSAMSA,092030.000,4503.2232,N,00741.2439,E,1,M,,*6D,1746264029000
NMEA,$GPGLL,4503.2232,N,00741.2439,E,092030.000,A,A*5C,1746264029000
NMEA,$GPVTG,0.0,T,,M,0.0,N,0.0,K,A*0D,1746264029000
NMEA,$GPGSV,2,1,08,05,20,049,33,16,42,306,43,18,76,116,30,23,19,140,28*70,1746264029000
NMEA,$GPGSV,2,2,08,26,70,285,40,27,17,270,12,29,35,069,28,31,35,224,21*77,1746264029000
NMEA,$GLGSV,1,1,04,71,10,341,22,73,42,162,23,74,79,264,32,83,29,038,23*60,1746264029000
NMEA,$BDGSV,2,1,05,208,31,049,26,213,37,068,28,226,54,282,34,229,57,054,28*67,1746264029000
NMEA,$BDGSV,2,2,05,235,57,249,30*67,1746264029000
NMEA,$GPGSA,A,3,18,26,16,31,29,05,23,,,,,,1.6,0.8,1.4*3F,1746264029000
NMEA,$GNGSA,A,3,73,74,,,,,,,,,,,1.6,0.8,1.4*21,1746264029000
NMEA,$BDGSA,A,3,208,213,226,229,235,,,,,,,,1.6,0.8,1.4*18,1746264029000
NMEA,$GPRMC,092030.000,A,4503.2232,N,00741.2439,E,0.0,0.0,030525,,,A*6A,1746264029000
NMEA,$PSAMCLK,2364,55204800,14,9750868,4085020,552048000*7B,1746264029000
NMEA,$PSAMCLK,2364,55204900,12,9750865,4146913,552049000*77,1746264030000
NMEA,$GPGGA,092031.000,4503.2232,N,00741.2439,E,1,12,1.0,212.2,M,48.2,M,,*57,1746264030000
NMEA,$PSAMSA,092031.000,4503.2232,N,00741.2439,E,1,M,,*6C,1746264030000
NMEA,$GPGLL,4503.2232,N,00741.2439,E,092031.000,A,A*5D,1746264030000
NMEA,$GPVTG,0.0,T,,M,0.0,N,0.0,K,A*0D,1746264030000
NMEA,$GPGSV,2,1,07,05,20,049,33,16,42,306,43,18,76,116,30,23,19,140,28*7F,1746264030000
NMEA,$GPGSV,2,2,07,26,70,285,40,29,35,069,28,31,35,224,21*4D,1746264030000
NMEA,$GLGSV,1,1,04,71,10,341,22,73,42,162,23,74,79,264,32,83,29,038,23*60,1746264030000
NMEA,$BDGSV,2,1,05,208,31,049,26,213,37,068,28,226,54,282,34,229,57,054,28*67,1746264030000
NMEA,$BDGSV,2,2,05,235,57,249,30*67,1746264030000
NMEA,$GPGSA,A,3,18,26,16,31,29,05,,,,,,,2.0,1.0,1.8*3E,1746264030000
NMEA,$GNGSA,A,3,73,74,83,,,,,,,,,,2.0,1.0,1.8*2A,1746264030000
NMEA,$BDGSA,A,3,213,226,235,,,,,,,,,,2.0,1.0,1.8*1B,1746264030000
NMEA,$GPRMC,092031.000,A,4503.2232,N,00741.2439,E,0.0,0.0,030525,,,A*6B,1746264030000
NMEA,$PSAMCLK,2364,55204900,12,9750865,4146913,552049000*77,1746264030000
NMEA,$PSAMCLK,2364,55205000,14,9750886,4208807,552050000*71,1746264031000
NMEA,$GPGGA,092032.000,4503.2232,N,00741.2439,E,1,14,0.8,212.2,M,48.2,M,,*5B,1746264031000
NMEA,$PSAMSA,092032.000,4503.2232,N,00741.2439,E,1,M,,*6F,1746264031000
NMEA,$GPGLL,4503.2232,N,00741.2439,E,092032.000,A,A*5E,1746264031000
NMEA,$GPVTG,0.0,T,,M,0.0,N,0.0,K,A*0D,1746264031000
NMEA,$GPGSV,2,1,07,05,20,049,33,16,42,306,43,18,76,115,30,23,19,140,28*7C,1746264031000
NMEA,$GPGSV,2,2,07,26,70,285,40,29,35,070,28,31,35,224,21*45,1746264031000
NMEA,$GLGSV,1,1,04,71,10,341,21,73,42,162,23,74,79,264,32,83,29,038,23*63,1746264031000
NMEA,$BDGSV,2,1,05,208,31,049,26,213,37,068,28,226,54,282,34,229,57,054,28*67,1746264031000
NMEA,$BDGSV,2,2,05,235,57,249,30*67,1746264031000
NMEA,$GPGSA,A,3,18,26,16,31,29,05,23,,,,,,1.8,0.8,1.6*33,1746264031000
NMEA,$GNGSA,A,3,73,74,83,,,,,,,,,,1.8,0.8,1.6*26,1746264031000
NMEA,$BDGSA,A,3,208,213,226,235,,,,,,,,,1.8,0.8,1.6*2D,1746264031000
NMEA,$GPRMC,092032.000,A,4503.2232,N,00741.2439,E,0.0,0.0,030525,,,A*68,1746264031000
NMEA,$PSAMCLK,2364,55205000,14,9750886,4208807,552050000*71,1746264031000
NMEA,$PSAMCLK,2364,55205100,14,9750886,4270701,552051000*77,1746264032000
NMEA,$GPGGA,092033.000,4503.2232,N,00741.2439,E,1,14,1.0,212.2,M,48.2,M,,*53,1746264032000
NMEA,$PSAMSA,092033.000,4503.2232,N,00741.2439,E,1,M,,*6E,1746264032000
NMEA,$GPGLL,4503.2232,N,00741.2439,E,092033.000,A,A*5F,1746264032000
NMEA,$GPVTG,0.0,T,,M,0.0,N,0.0,K,A*0D,1746264032000
NMEA,$GPGSV,2,1,07,05,20,049,33,16,42,306,43,18,76,115,30,23,19,140,27*73,1746264032000
NMEA,$GPGSV,2,2,07,26,70,285,40,29,35,070,28,31,35,224,20*44,1746264032000
NMEA,$GLGSV,1,1,04,71,10,341,21,73,42,162,23,74,79,264,32,83,29,038,23*63,1746264032000
NMEA,$BDGSV,2,1,05,208,31,049,26,213,37,068,28,226,54,282,34,229,57,054,27*68,1746264032000
NMEA,$BDGSV,2,2,05,235,57,249,29*6F,1746264032000
NMEA,$GPGSA,A,3,18,26,16,31,29,05,,,,,,,1.8,1.0,1.6*3B,1746264032000
NMEA,$GNGSA,A,3,73,74,83,,,,,,,,,,1.8,1.0,1.6*2F,1746264032000
NMEA,$BDGSA,A,3,208,213,226,229,235,,,,,,,,1.8,1.0,1.6*1D,1746264032000
NMEA,$GPRMC,092033.000,A,4503.2232,N,00741.2439,E,0.0,0.0,030525,,,A*69,1746264032000
NMEA,$PSAMCLK,2364,55205100,14,9750886,4270701,552051000*77,1746264032000
NMEA,$PSAMCLK,2364,55205200,15,9750895,4332594,552052000*7D,1746264033000
NMEA,$GPGGA,092034.000,4503.2232,N,00741.2439,E,1,15,0.8,212.2,M,48.2,M,,*5C,1746264033000
NMEA,$PSAMSA,092034.000,4503.2232,N,00741.2439,E,1,M,,*69,1746264033000
NMEA,$GPGLL,4503.2232,N,00741.2439,E,092034.000,A,A*58,1746264033000
NMEA,$GPVTG,0.0,T,,M,0.0,N,0.0,K,A*0D,1746264033000
NMEA,$GPGSV,2,1,07,05,20,049,33,16,42,306,43,18,76,115,29,23,19,140,27*7B,1746264033000
NMEA,$GPGSV,2,2,07,26,70,285,40,29,35,070,27,31,35,224,20*4B,1746264033000
NMEA,$GLGSV,1,1,04,71,10,341,21,73,42,162,22,74,79,264,32,83,29,038,23*62,1746264033000
NMEA,$BDGSV,2,1,05,208,31,049,25,213,37,068,28,226,54,282,34,229,57,054,27*6B,1746264033000
NMEA,$BDGSV,2,2,05,235,57,249,29*6F,1746264033000
NMEA,$GPGSA,A,3,18,26,16,31,29,05,23,,,,,,1.6,0.8,1.4*3F,1746264033000
NMEA,$GNGSA,A,3,73,74,83,,,,,,,,,,1.6,0.8,1.4*2A,1746264033000
NMEA,$BDGSA,A,3,208,213,226,229,235,,,,,,,,1.6,0.8,1.4*18,1746264033000
NMEA,$GPRMC,092034.000,A,4503.2232,N,00741.2439,E,0.0,0.0,030525,,,A*6E,1746264033000
NMEA,$PSAMCLK,2364,55205200,15,9750895,4332594,552052000*7D,1746264033000
NMEA,$PSAMCLK,2364,55205300,14,9750905,4394489,552053000*75,1746264034000
NMEA,$GPGGA,092035.000,4503.2232,N,00741.2439,E,1,14,0.8,212.2,M,48.2,M,,*5C,1746264034000
NMEA,$PSAMSA,092035.000,4503.2232,N,00741.2439,E,1,M,,*68,1746264034000
NMEA,$GPGLL,4503.2232,N,00741.2439,E,092035.000,A,A*59,1746264034000
NMEA,$GPVTG,0.0,T,,M,0.0,N,0.0,K,A*0D,1746264034000
NMEA,$GPGSV,2,1,07,05,20,049,33,16,42,306,43,18,76,115,29,23,19,140,27*7B,1746264034000
NMEA,$GPGSV,2,2,07,26,70,285,39,29,35,070,27,31,35,224,20*45,1746264034000
NMEA,$GLGSV,1,1,04,71,10,341,20,73,42,162,22,74,79,264,32,83,29,038,21*61,1746264034000
NMEA,$BDGSV,2,1,05,208,31,049,25,213,37,068,28,226,54,282,34,229,57,054,26*6A,1746264034000
NMEA,$BDGSV,2,2,05,235,57,249,29*6F,1746264034000
NMEA,$GPGSA,A,3,18,26,16,31,29,05,23,,,,,,1.6,0.8,1.4*3F,1746264034000
NMEA,$GNGSA,A,3,73,74,,,,,,,,,,,1.6,0.8,1.4*21,1746264034000
NMEA,$BDGSA,A,3,208,213,226,229,235,,,,,,,,1.6,0.8,1.4*18,1746264034000
NMEA,$GPRMC,092035.000,A,4503.2232,N,00741.2439,E,0.0,0.0,030525,,,A*6F,1746264034000
NMEA,$PSAMCLK,2364,55205300,14,9750905,4394489,552053000*75,1746264034000
NMEA,$PSAMCLK,2364,55205400,13,9750915,4456383,552054000*77,1746264035000
NMEA,$GPGGA,092036.000,4503.2232,N,00741.2439,E,1,13,1.0,212.2,M,48.2,M,,*51,1746264035000
NMEA,$PSAMSA,092036.000,4503.2232,N,00741.2439,E,1,M,,*6B,1746264035000
NMEA,$GPGLL,4503.2232,N,00741.2439,E,092036.000,A,A*5A,1746264035000
NMEA,$GPVTG,0.0,T,,M,0.0,N,0.0,K,A*0D,1746264035000
NMEA,$GPGSV,2,1,07,05,20,049,33,16,42,306,43,18,76,115,29,23,19,140,27*7B,1746264035000
NMEA,$GPGSV,2,2,07,26,70,285,39,29,35,070,27,31,35,224,20*45,1746264035000
NMEA,$GLGSV,1,1,04,71,10,341,20,73,42,162,22,74,79,264,32,83,29,038,20*60,1746264035000
NMEA,$BDGSV,2,1,05,208,31,049,25,213,37,068,28,226,54,282,34,229,57,054,26*6A,1746264035000
NMEA,$BDGSV,2,2,05,235,57,249,29*6F,1746264035000
NMEA,$GPGSA,A,3,18,26,16,31,29,05,,,,,,,2.0,1.0,1.6*30,1746264035000
NMEA,$GNGSA,A,3,73,74,,,,,,,,,,,2.0,1.0,1.6*2F,1746264035000
NMEA,$BDGSA,A,3,208,213,226,229,235,,,,,,,,2.0,1.0,1.6*16,1746264035000
NMEA,$GPRMC,092036.000,A,4503.2232,N,00741.2439,E,0.0,0.0,030525,,,A*6C,1746264035000
NMEA,$PSAMCLK,2364,55205400,13,9750915,4456383,552054000*77,1746264035000
NMEA,$PSAMCLK,2364,55205500,14,9750919,4518277,552055000*7D,1746264036000
NMEA,$GPGGA,092037.000,4503.2232,N,00741.2439,E,1,14,0.8,212.2,M,48.2,M,,*5E,1746264036000
NMEA,$PSAMSA,092037.000,4503.2232,N,00741.2439,E,1,M,,*6A,1746264036000
NMEA,$GPGLL,4503.2232,N,00741.2439,E,092037.000,A,A*5B,1746264036000
NMEA,$GPVTG,0.0,T,,M,0.0,N,0.0,K,A*0D,1746264036000
NMEA,$GPGSV,2,1,07,05,20,049,33,16,42,306,43,18,76,115,29,23,19,140,26*7A,1746264036000
NMEA,$GPGSV,2,2,07,26,70,285,39,29,35,070,27,31,35,224,20*45,1746264036000
NMEA,$GLGSV,1,1,04,71,10,341,20,73,42,162,22,74,79,264,32,83,29,038,18*6B,1746264036000
NMEA,$BDGSV,2,1,05,208,31,049,25,213,37,068,27,226,54,282,34,229,57,054,26*65,1746264036000
NMEA,$BDGSV,2,2,05,235,57,249,29*6F,1746264036000
NMEA,$GPGSA,A,3,18,26,16,31,29,05,23,,,,,,1.6,0.8,1.4*3F,1746264036000
NMEA,$GNGSA,A,3,73,74,,,,,,,,,,,1.6,0.8,1.4*21,1746264036000
NMEA,$BDGSA,A,3,208,213,226,229,235,,,,,,,,1.6,0.8,1.4*18,1746264036000
NMEA,$GPRMC,092037.000,A,4503.2232,N,00741.2439,E,0.0,0.0,030525,,,A*6D,1746264036000
NMEA,$PSAMCLK,2364,55205500,14,9750919,4518277,552055000*7D,1746264036000
NMEA,$PSAMCLK,2364,55205600,13,9750926,4580172,552056000*71,1746264037000
NMEA,$GPGGA,092038.000,4503.2232,N,00741.2439,E,1,13,1.0,212.2,M,48.2,M,,*5F,1746264037000
NMEA,$PSAMSA,092038.000,4503.2232,N,00741.2439,E,1,M,,*65,1746264037000
NMEA,$GPGLL,4503.2232,N,00741.2439,E,092038.000,A,A*54,1746264037000
NMEA,$GPVTG,0.0,T,,M,0.0,N,0.0,K,A*0D,1746264037000
NMEA,$GPGSV,2,1,07,05,20,049,33,16,42,306,43,18,76,115,29,23,19,140,26*7A,1746264037000
NMEA,$GPGSV,2,2,07,26,70,285,39,29,35,070,27,31,35,224,20*45,1746264037000
NMEA,$GLGSV,1,1,04,71,10,341,20,73,42,162,22,74,79,264,32,83,29,038,17*64,1746264037000
NMEA,$BDGSV,2,1,05,208,31,049,25,213,37,068,27,226,54,282,34,229,57,054,25*66,1746264037000
NMEA,$BDGSV,2,2,05,235,57,249,29*6F,1746264037000
NMEA,$GPGSA,A,3,18,26,16,31,29,05,,,,,,,2.0,1.0,1.6*30,1746264037000
NMEA,$GNGSA,A,3,73,74,,,,,,,,,,,2.0,1.0,1.6*2F,1746264037000
NMEA,$BDGSA,A,3,208,213,226,229,235,,,,,,,,2.0,1.0,1.6*16,1746264037000
NMEA,$GPRMC,092038.000,A,4503.2232,N,00741.2439,E,0.0,0.0,030525,,,A*62,1746264037000
NMEA,$PSAMCLK,2364,55205600,13,9750926,4580172,552056000*71,1746264037000
NMEA,$PSAMCLK,2364,55205700,13,9750938,4642067,552057000*76,1746264038000
NMEA,$GPGGA,092039.000,4503.2232,N,00741.2439,E,1,13,1.0,212.2,M,48.2,M,,*5E,1746264038000
NMEA,$PSAMSA,092039.000,4503.2232,N,00741.2439,E,1,M,,*64,1746264038000
NMEA,$GPGLL,4503.2232,N,00741.2439,E,092039.000,A,A*55,1746264038000
NMEA,$GPVTG,0.0,T,,M,0.0,N,0.0,K,A*0D,1746264038000
NMEA,$GPGSV,2,1,07,05,20,049,33,16,42,306,43,18,76,115,28,23,19,140,26*7B,1746264038000
NMEA,$GPGSV,2,2,07,26,70,285,39,29,35,070,27,31,35,224,20*45,1746264038000
NMEA,$GLGSV,1,1,04,71,10,341,20,73,42,162,21,74,79,264,32,83,29,038,15*65,1746264038000
NMEA,$BDGSV,2,1,05,208,31,049,25,213,37,068,27,226,54,282,34,229,57,054,25*66,1746264038000
NMEA,$BDGSV,2,2,05,235,57,249,29*6F,1746264038000
NMEA,$GPGSA,A,3,18,26,16,31,29,05,,,,,,,2.0,1.0,1.6*30,1746264038000
NMEA,$GNGSA,A,3,73,74,,,,,,,,,,,2.0,1.0,1.6*2F,1746264038000
NMEA,$BDGSA,A,3,208,213,226,229,235,,,,,,,,2.0,1.0,1.6*16,1746264038000
NMEA,$GPRMC,092039.000,A,4503.2232,N,00741.2439,E,0.0,0.0,030525,,,A*63,1746264038000
NMEA,$PSAMCLK,2364,55205700,13,9750938,4642067,552057000*76,1746264038000
NMEA,$PSAMCLK,2364,55205800,14,9750930,4703961,552058000*72,1746264039000
NMEA,$GPGGA,092040.000,4503.2232,N,00741.2439,E,1,14,0.8,212.2,M,48.2,M,,*5E,1746264039000
NMEA,$PSAMSA,092040.000,4503.2232,N,00741.2439,E,1,M,,*6A,1746264039000
NMEA,$GPGLL,4503.2232,N,00741.2439,E,092040.000,A,A*5B,1746264039000
NMEA,$GPVTG,0.0,T,,M,0.0,N,0.0,K,A*0D,1746264039000
NMEA,$GPGSV,2,1,07,05,20,049,33,16,42,306,43,18,76,115,28,23,19,140,26*7B,1746264039000
NMEA,$GPGSV,2,2,07,26,70,285,39,29,35,070,27,31,35,224,21*44,1746264039000
NMEA,$GLGSV,1,1,04,71,10,341,19,73,42,162,21,74,79,264,32,83,29,038,14*6E,1746264039000
NMEA,$BDGSV,2,1,05,208,31,049,25,213,37,068,27,226,54,282,34,229,57,054,25*66,1746264039000
NMEA,$BDGSV,2,2,05,235,57,249,29*6F,1746264039000
NMEA,$GPGSA,A,3,18,26,16,31,29,05,23,,,,,,1.6,0.8,1.4*3F,1746264039000
NMEA,$GNGSA,A,3,73,74,,,,,,,,,,,1.6,0.8,1.4*21,1746264039000
NMEA,$BDGSA,A,3,208,213,226,229,235,,,,,,,,1.6,0.8,1.4*18,1746264039000
NMEA,$GPRMC,092040.000,A,4503.2232,N,00741.2439,E,0.0,0.0,030525,,,A*6D,1746264039000
NMEA,$PSAMCLK,2364,55205800,14,9750930,4703961,552058000*72,1746264039000
NMEA,$PSAMCLK,2364,55205900,13,9750930,4765855,552059000*73,1746264040000
NMEA,$GPGGA,092041.000,4503.2232,N,00741.2439,E,1,13,0.8,212.2,M,48.2,M,,*58,1746264040000
NMEA,$PSAMSA,092041.000,4503.2232,N,00741.2439,E,1,M,,*6B,1746264040000
NMEA,$GPGLL,4503.2232,N,00741.2439,E,092041.000,A,A*5A,1746264040000
NMEA,$GPVTG,0.0,T,,M,0.0,N,0.0,K,A*0D,1746264040000
NMEA,$GPGSV,2,1,07,05,20,049,33,16,42,306,43,18,76,115,28,23,19,140,25*78,1746264040000
NMEA,$GPGSV,2,2,07,26,70,285,39,29,35,070,27,31,35,224,21*44,1746264040000
NMEA,$GLGSV,1,1,04,71,10,341,19,73,42,162,21,74,79,264,32,83,29,038,13*69,1746264040000
NMEA,$BDGSV,2,1,05,208,31,049,25,213,37,068,27,226,54,282,34,229,57,054,25*66,1746264040000
NMEA,$BDGSV,2,2,05,235,57,249,29*6F,1746264040000
NMEA,$GPGSA,A,3,18,26,16,31,05,23,,,,,,,1.8,0.8,1.4*3A,1746264040000
NMEA,$GNGSA,A,3,73,74,,,,,,,,,,,1.8,0.8,1.4*2F,1746264040000
NMEA,$BDGSA,A,3,208,213,226,229,235,,,,,,,,1.8,0.8,1.4*16,1746264040000
NMEA,$GPRMC,092041.000,A,4503.2232,N,00741.2439,E,0.0,0.0,030525,,,A*6C,1746264040000
NMEA,$PSAMCLK,2364,55205900,13,9750930,4765855,552059000*73,1746264040000
NMEA,$PSAMCLK,2364,55206000,14,9750918,4827750,552060000*7D,1746264041000
NMEA,$GPGGA,092042.000,4503.2232,N,00741.2439,E,1,14,0.8,212.2,M,48.2,M,,*5C,1746264041000
NMEA,$PSAMSA,092042.000,4503.2232,N,00741.2439,E,1,M,,*68,1746264041000
NMEA,$GPGLL,4503.2232,N,00741.2439,E,092042.000,A,A*59,1746264041000
NMEA,$GPVTG,0.0,T,,M,0.0,N,0.0,K,A*0D,1746264041000
NMEA,$GPGSV,2,1,07,05,20,049,33,16,42,306,43,18,76,115,28,23,19,140,25*78,1746264041000
NMEA,$GPGSV,2,2,07,26,70,285,39,29,35,070,27,31,35,224,21*44,1746264041000
NMEA,$GLGSV,1,1,04,71,10,341,19,73,42,162,21,74,79,264,32,83,29,038,12*68,1746264041000
NMEA,$BDGSV,2,1,05,208,31,049,25,213,37,068,27,226,54,282,34,229,57,054,24*67,1746264041000
NMEA,$BDGSV,2,2,05,235,57,249,29*6F,1746264041000
NMEA,$GPGSA,A,3,18,26,16,31,29,05,23,,,,,,1.6,0.8,1.4*3F,1746264041000
NMEA,$GNGSA,A,3,73,74,,,,,,,,,,,1.6,0.8,1.4*21,1746264041000
NMEA,$BDGSA,A,3,208,213,226,229,235,,,,,,,,1.6,0.8,1.4*18,1746264041000
NMEA,$GPRMC,092042.000,A,4503.2232,N,00741.2439,E,0.0,0.0,030525,,,A*6F,1746264041000
NMEA,$PSAMCLK,2364,55206000,14,9750918,4827750,552060000*7D,1746264041000
NMEA,$PSAMCLK,2364,55206100,14,9750928,4889644,552061000*7E,1746264042000
NMEA,$GPGGA,092043.000,4503.2232,N,00741.2439,E,1,14,0.8,212.2,M,48.2,M,,*5D,1746264042000
NMEA,$PSAMSA,092043.000,4503.2232,N,00741.2439,E,1,M,,*69,1746264042000
NMEA,$GPGLL,4503.2232,N,00741.2439,E,092043.000,A,A*58,1746264042000
NMEA,$GPVTG,0.0,T,,M,0.0,N,0.0,K,A*0D,1746264042000
NMEA,$GPGSV,2,1,07,05,20,049,33,16,42,306,43,18,76,115,28,23,19,140,25*78,1746264042000
NMEA,$GPGSV,2,2,07,26,70,285,39,29,35,070,26,31,35,224,21*45,1746264042000
NMEA,$GLGSV,1,1,03,71,10,341,19,73,42,162,20,74,79,264,31*55,1746264042000
NMEA,$BDGSV,2,1,05,208,31,049,24,213,37,068,27,226,54,282,33,229,57,054,24*61,1746264042000
NMEA,$BDGSV,2,2,05,235,57,249,29*6F,1746264042000
NMEA,$GPGSA,A,3,18,26,16,31,29,05,23,,,,,,1.6,0.8,1.4*3F,1746264042000
NMEA,$GNGSA,A,3,73,74,,,,,,,,,,,1.6,0.8,1.4*21,1746264042000
NMEA,$BDGSA,A,3,208,213,226,229,235,,,,,,,,1.6,0.8,1.4*18,1746264042000
NMEA,$GPRMC,092043.000,A,4503.2232,N,00741.2439,E,0.0,0.0,030525,,,A*6E,1746264042000
NMEA,$PSAMCLK,2364,55206100,14,9750928,4889644,552061000*7E,1746264042000
NMEA,$PSAMCLK,2364,55206200,13,9750932,4951538,552062000*7E,1746264043000
NMEA,$GPGGA,092044.000,4503.2232,N,00741.2439,E,1,13,0.8,212.2,M,48.2,M,,*5D,1746264043000
NMEA,$PSAMSA,092044.000,4503.2232,N,00741.2439,E,1,M,,*6E,1746264043000
NMEA,$GPGLL,4503.2232,N,00741.2439,E,092044.000,A,A*5F,1746264043000
NMEA,$GPVTG,0.0,T,,M,0.0,N,0.0,K,A*0D,1746264043000
NMEA,$GPGSV,2,1,07,05,20,049,33,16,42,306,43,18,76,115,28,23,19,140,25*78,1746264043000
NMEA,$GPGSV,2,2,07,26,70,285,39,29,35,070,26,31,35,224,21*45,1746264043000
NMEA,$GLGSV,1,1,03,71,10,341,19,73,42,162,19,74,79,264,31*5F,1746264043000
NMEA,$BDGSV,2,1,05,208,31,049,24,213,37,068,27,226,54,282,33,229,57,054,24*61,1746264043000
NMEA,$BDGSV,2,2,05,235,57,249,29*6F,1746264043000
NMEA,$GPGSA,A,3,18,26,16,31,29,05,23,,,,,,1.8,0.8,1.4*31,1746264043000
NMEA,$GNGSA,A,3,74,,,,,,,,,,,,1.8,0.8,1.4*2B,1746264043000
NMEA,$BDGSA,A,3,208,213,226,229,235,,,,,,,,1.8,0.8,1.4*16,1746264043000
NMEA,$GPRMC,092044.000,A,4503.2232,N,00741.2439,E,0.0,0.0,030525,,,A*69,1746264043000
NMEA,$PSAMCLK,2364,55206200,13,9750932,4951538,552062000*7E,1746264043000
NMEA,$PSAMCLK,2364,55206300,13,9750927,5013432,552063000*7F,1746264044000
NMEA,$GPGGA,092045.000,4503.2232,N,00741.2439,E,1,13,0.8,212.2,M,48.2,M,,*5C,1746264044000
NMEA,$PSAMSA,092045.000,4503.2232,N,00741.2439,E,1,M,,*6F,1746264044000
NMEA,$GPGLL,4503.2232,N,00741.2439,E,092045.000,A,A*5E,1746264044000
NMEA,$GPVTG,0.0,T,,M,0.0,N,0.0,K,A*0D,1746264044000
NMEA,$GPGSV,2,1,07,05,20,049,33,16,42,306,43,18,76,115,27,23,19,140,25*77,1746264044000
NMEA,$GPGSV,2,2,07,26,70,285,39,29,35,070,26,31,35,224,21*45,1746264044000
NMEA,$GLGSV,1,1,03,71,10,341,19,73,42,162,17,74,79,264,31*51,1746264044000
NMEA,$BDGSV,2,1,05,208,31,049,24,213,37,068,27,226,54,282,33,229,57,054,23*66,1746264044000
NMEA,$BDGSV,2,2,05,235,57,249,29*6F,1746264044000
NMEA,$GPGSA,A,3,18,26,16,31,29,05,23,,,,,,1.8,0.8,1.4*31,1746264044000
NMEA,$GNGSA,A,3,74,,,,,,,,,,,,1.8,0.8,1.4*2B,1746264044000
NMEA,$BDGSA,A,3,208,213,226,229,235,,,,,,,,1.8,0.8,1.4*16,1746264044000
NMEA,$GPRMC,092045.000,A,4503.2232,N,00741.2439,E,0.0,0.0,030525,,,A*68,1746264044000
NMEA,$PSAMCLK,2364,55206300,13,9750927,5013432,552063000*7F,1746264044000
NMEA,$PSAMCLK,2364,55206400,12,9750926,5075326,552064000*7D,1746264045000
NMEA,$GPGGA,092046.000,4503.2232,N,00741.2439,E,1,12,1.2,212.2,M,48.2,M,,*55,1746264045000
NMEA,$PSAMSA,092046.000,4503.2232,N,00741.2439,E,1,M,,*6C,1746264045000
NMEA,$GPGLL,4503.2232,N,00741.2439,E,092046.000,A,A*5D,1746264045000
NMEA,$GPVTG,0.0,T,,M,0.0,N,0.0,K,A*0D,1746264045000
NMEA,$GPGSV,2,1,07,05,20,049,33,16,42,306,43,18,76,115,27,23,19,140,24*76,1746264045000
NMEA,$GPGSV,2,2,07,26,70,285,39,29,35,070,26,31,35,224,21*45,1746264045000
NMEA,$GLGSV,1,1,03,71,10,341,19,73,42,162,16,74,79,264,31*50,1746264045000
NMEA,$BDGSV,2,1,05,208,31,049,24,213,37,068,27,226,54,282,33,229,57,054,23*66,1746264045000
NMEA,$BDGSV,2,2,05,235,57,249,29*6F,1746264045000
NMEA,$GPGSA,A,3,18,26,16,31,29,05,,,,,,,2.2,1.2,1.6*30,1746264045000
NMEA,$GNGSA,A,3,74,,,,,,,,,,,,2.2,1.2,1.6*2B,1746264045000
NMEA,$BDGSA,A,3,208,213,226,229,235,,,,,,,,2.2,1.2,1.6*16,1746264045000
NMEA,$GPRMC,092046.000,A,4503.2232,N,00741.2439,E,0.0,0.0,030525,,,A*6B,1746264045000
NMEA,$PSAMCLK,2364,55206400,12,9750926,5075326,552064000*7D,1746264045000
NMEA,$PSAMCLK,2364,55206500,13,9750934,5137220,552065000*7F,1746264046000
NMEA,$GPGGA,092047.000,4503.2232,N,00741.2439,E,1,13,0.8,212.2,M,48.2,M,,*5E,1746264046000
NMEA,$PSAMSA,092047.000,4503.2232,N,00741.2439,E,1,M,,*6D,1746264046000
NMEA,$GPGLL,4503.2232,N,00741.2439,E,092047.000,A,A*5C,1746264046000
NMEA,$GPVTG,0.0,T,,M,0.0,N,0.0,K,A*0D,1746264046000
NMEA,$GPGSV,2,1,07,05,20,049,33,16,42,306,42,18,76,115,27,23,19,140,24*77,1746264046000
NMEA,$GPGSV,2,2,07,26,70,285,39,29,35,070,26,31,35,224,22*46,1746264046000
NMEA,$GLGSV,1,1,03,71,10,341,19,73,42,162,14,74,79,264,31*52,1746264046000
NMEA,$BDGSV,2,1,05,208,31,049,24,213,37,068,27,226,54,282,33,229,57,054,23*66,1746264046000
NMEA,$BDGSV,2,2,05,235,57,249,29*6F,1746264046000
NMEA,$GPGSA,A,3,18,26,16,31,29,05,23,,,,,,1.8,0.8,1.4*31,1746264046000
NMEA,$GNGSA,A,3,74,,,,,,,,,,,,1.8,0.8,1.4*2B,1746264046000
NMEA,$BDGSA,A,3,208,213,226,229,235,,,,,,,,1.8,0.8,1.4*16,1746264046000
NMEA,$GPRMC,092047.000,A,4503.2232,N,00741.2439,E,0.0,0.0,030525,,,A*6A,1746264046000
NMEA,$PSAMCLK,2364,55206500,13,9750934,5137220,552065000*7F,1746264046000
NMEA,$PSAMCLK,2364,55206600,12,9750935,5199114,552066000*7F,1746264047000
NMEA,$GPGGA,092048.000,4503.2232,N,00741.2439,E,1,12,1.0,212.2,M,48.2,M,,*59,1746264047000
NMEA,$PSAMSA,092048.000,4503.2232,N,00741.2439,E,1,M,,*62,1746264047000
NMEA,$GPGLL,4503.2232,N,00741.2439,E,092048.000,A,A*53,1746264047000
NMEA,$GPVTG,0.0,T,,M,0.0,N,0.0,K,A*0D,1746264047000
NMEA,$GPGSV,2,1,07,05,20,049,33,16,42,306,42,18,76,115,27,23,19,140,24*77,1746264047000
NMEA,$GPGSV,2,2,07,26,70,285,39,29,35,070,26,31,35,224,22*46,1746264047000
NMEA,$GLGSV,1,1,03,71,10,341,19,73,42,162,14,74,79,264,31*52,1746264047000
NMEA,$BDGSV,2,1,05,208,31,049,24,213,37,068,27,226,54,282,33,229,57,054,23*66,1746264047000
NMEA,$BDGSV,2,2,05,235,57,249,29*6F,1746264047000
NMEA,$GPGSA,A,3,18,26,16,31,29,05,23,,,,,,1.8,1.0,1.4*38,1746264047000
NMEA,$GNGSA,A,3,74,,,,,,,,,,,,1.8,1.0,1.4*22,1746264047000
NMEA,$BDGSA,A,3,213,226,229,235,,,,,,,,,1.8,1.0,1.4*25,1746264047000
NMEA,$GPRMC,092048.000,A,4503.2232,N,00741.2439,E,0.0,0.0,030525,,,A*65,1746264047000
NMEA,$PSAMCLK,2364,55206600,12,9750935,5199114,552066000*7F,1746264047000
NMEA,$PSAMCLK,2364,55206700,12,9750929,5261008,552067000*7A,1746264048000
NMEA,$GPGGA,092049.000,4503.2232,N,00741.2439,E,1,12,1.0,212.2,M,48.2,M,,*58,1746264048000
NMEA,$PSAMSA,092049.000,4503.2232,N,00741.2439,E,1,M,,*63,1746264048000
NMEA,$GPGLL,4503.2232,N,00741.2439,E,092049.000,A,A*52,1746264048000
NMEA,$GPVTG,0.0,T,,M,0.0,N,0.0,K,A*0D,1746264048000
NMEA,$GPGSV,2,1,07,05,20,049,33,16,42,306,42,18,76,115,27,23,19,140,24*77,1746264048000
NMEA,$GPGSV,2,2,07,26,70,285,39,29,35,070,26,31,35,224,22*46,1746264048000
NMEA,$GLGSV,1,1,03,71,10,341,19,73,42,162,13,74,79,264,31*55,1746264048000
NMEA,$BDGSV,2,1,05,208,31,049,24,213,37,068,27,226,54,282,33,229,57,054,22*67,1746264048000
NMEA,$BDGSV,2,2,05,235,57,249,29*6F,1746264048000
NMEA,$GPGSA,A,3,18,26,16,31,29,05,23,,,,,,1.8,1.0,1.4*38,1746264048000
NMEA,$GNGSA,A,3,74,,,,,,,,,,,,1.8,1.0,1.4*22,1746264048000
NMEA,$BDGSA,A,3,213,226,229,235,,,,,,,,,1.8,1.0,1.4*25,1746264048000
NMEA,$GPRMC,092049.000,A,4503.2232,N,00741.2439,E,0.0,0.0,030525,,,A*64,1746264048000
NMEA,$PSAMCLK,2364,55206700,12,9750929,5261008,552067000*7A,1746264048000
NMEA,$PSAMCLK,2364,55206800,12,9750945,5322902,552068000*75,1746264049000
NMEA,$GPGGA,092050.000,4503.2232,N,00741.2439,E,1,12,1.0,212.2,M,48.2,M,,*50,1746264049000
NMEA,$PSAMSA,092050.000,4503.2232,N,00741.2439,E,1,M,,*6B,1746264049000
NMEA,$GPGLL,4503.2232,N,00741.2439,E,092050.000,A,A*5A,1746264049000
NMEA,$GPVTG,0.0,T,,M,0.0,N,0.0,K,A*0D,1746264049000
NMEA,$GPGSV,2,1,07,05,20,049,33,16,42,306,42,18,76,115,27,23,19,140,24*77,1746264049000
NMEA,$GPGSV,2,2,07,26,70,285,39,29,35,070,26,31,35,224,22*46,1746264049000
NMEA,$GLGSV,1,1,03,71,10,341,19,73,42,162,12,74,79,264,31*54,1746264049000
NMEA,$BDGSV,2,1,05,208,31,049,24,213,37,068,26,226,54,282,33,229,57,054,22*66,1746264049000
NMEA,$BDGSV,2,2,05,235,57,249,29*6F,1746264049000
NMEA,$GPGSA,A,3,18,26,16,31,05,23,,,,,,,1.8,1.0,1.4*33,1746264049000
NMEA,$GNGSA,A,3,74,,,,,,,,,,,,1.8,1.0,1.4*22,1746264049000
NMEA,$BDGSA,A,3,208,213,226,229,235,,,,,,,,1.8,1.0,1.4*1F,1746264049000
NMEA,$GPRMC,092050.000,A,4503.2232,N,00741.2439,E,0.0,0.0,030525,,,A*6C,1746264049000
NMEA,$PSAMCLK,2364,55206800,12,9750945,5322902,552068000*75,1746264049000
NMEA,$PSAMCLK,2364,55206900,11,9750922,5384796,552069000*78,1746264050000
NMEA,$GPGGA,092051.000,4503.2232,N,00741.2439,E,1,11,1.2,212.2,M,48.2,M,,*50,1746264050000
NMEA,$PSAMSA,092051.000,4503.2232,N,00741.2439,E,1,M,,*6A,1746264050000
NMEA,$GPGLL,4503.2232,N,00741.2439,E,092051.000,A,A*5B,1746264050000
NMEA,$GPVTG,0.0,T,,M,0.0,N,0.0,K,A*0D,1746264050000
NMEA,$GPGSV,2,1,07,05,20,049,33,16,42,306,42,18,76,115,26,23,19,140,24*76,1746264050000
NMEA,$GPGSV,2,2,07,26,70,285,39,29,35,070,25,31,35,224,22*45,1746264050000
NMEA,$GLGSV,1,1,02,71,10,341,20,74,79,262,31*6D,1746264050000
NMEA,$BDGSV,2,1,05,208,31,049,24,213,37,068,26,226,54,282,33,229,57,054,22*66,1746264050000
NMEA,$BDGSV,2,2,05,235,57,249,29*6F,1746264050000
NMEA,$GPGSA,A,3,18,26,16,31,05,,,,,,,,2.2,1.2,1.6*3B,1746264050000
NMEA,$GNGSA,A,3,74,,,,,,,,,,,,2.2,1.2,1.6*2B,1746264050000
NMEA,$BDGSA,A,3,208,213,226,229,235,,,,,,,,2.2,1.2,1.6*16,1746264050000
NMEA,$GPRMC,092051.000,A,4503.2232,N,00741.2439,E,0.0,0.0,030525,,,A*6D,1746264050000
NMEA,$PSAMCLK,2364,55206900,11,9750922,5384796,552069000*78,1746264050000
NMEA,$PSAMCLK,2364,55207000,10,9750913,5446691,552070000*74,1746264051000
NMEA,$GPGGA,092052.000,4503.2232,N,00741.2439,E,1,10,1.2,212.2,M,48.2,M,,*52,1746264051000
NMEA,$PSAMSA,092052.000,4503.2232,N,00741.2439,E,0,M,,*68,1746264051000
NMEA,$GPGLL,4503.2232,N,00741.2439,E,092052.000,A,A*58,1746264051000
NMEA,$GPVTG,0.0,T,,M,0.0,N,0.0,K,A*0D,1746264051000
NMEA,$GPGSV,2,1,07,05,20,049,33,16,42,306,42,18,76,115,26,23,19,140,24*76,1746264051000
NMEA,$GPGSV,2,2,07,26,70,285,39,29,35,070,24,31,35,224,22*44,1746264051000
NMEA,$GLGSV,1,1,02,71,10,341,20,74,79,262,31*6D,1746264051000
NMEA,$BDGSV,2,1,05,208,31,049,24,213,37,068,26,226,54,282,34,229,57,054,22*61,1746264051000
NMEA,$BDGSV,2,2,05,235,57,249,29*6F,1746264051000
NMEA,$GPGSA,A,3,18,26,16,31,05,,,,,,,,2.2,1.2,1.6*3B,1746264051000
NMEA,$GNGSA,A,3,74,,,,,,,,,,,,2.2,1.2,1.6*2B,1746264051000
NMEA,$BDGSA,A,3,213,226,229,235,,,,,,,,,2.2,1.2,1.6*2C,1746264051000
NMEA,$GPRMC,092052.000,A,4503.2232,N,00741.2439,E,0.0,0.0,030525,,,A*6E,1746264051000
NMEA,$PSAMCLK,2364,55207000,10,9750913,5446691,552070000*74,1746264051000
NMEA,$PSAMCLK,2364,55207100,11,9750924,5508586,552071000*7F,1746264052000
NMEA,$GPGGA,092053.000,4503.2232,N,00741.2439,E,1,11,1.0,212.2,M,48.2,M,,*50,1746264052000
NMEA,$PSAMSA,092053.000,4503.2232,N,00741.2439,E,1,M,,*68,1746264052000
NMEA,$GPGLL,4503.2232,N,00741.2439,E,092053.000,A,A*59,1746264052000
NMEA,$GPVTG,0.0,T,,M,0.0,N,0.0,K,A*0D,1746264052000
NMEA,$GPGSV,2,1,07,05,20,049,33,16,42,306,42,18,76,115,26,23,19,140,24*76,1746264052000
NMEA,$GPGSV,2,2,07,26,70,285,39,29,35,070,22,31,35,224,22*42,1746264052000
NMEA,$GLGSV,1,1,02,71,10,341,20,74,79,262,31*6D,1746264052000
NMEA,$BDGSV,2,1,05,208,31,049,24,213,37,068,26,226,55,282,34,229,56,054,22*61,1746264052000
NMEA,$BDGSV,2,2,05,235,57,249,29*6F,1746264052000
NMEA,$GPGSA,A,3,18,26,16,31,05,23,,,,,,,1.8,1.0,1.4*33,1746264052000
NMEA,$GNGSA,A,3,74,,,,,,,,,,,,1.8,1.0,1.4*22,1746264052000
NMEA,$BDGSA,A,3,213,226,229,235,,,,,,,,,1.8,1.0,1.4*25,1746264052000
NMEA,$GPRMC,092053.000,A,4503.2232,N,00741.2439,E,0.0,0.0,030525,,,A*6F,1746264052000
NMEA,$PSAMCLK,2364,55207100,11,9750924,5508586,552071000*7F,1746264052000
NMEA,$PSAMCLK,2364,55207200,10,9750925,5570480,552072000*77,1746264053000
NMEA,$GPGGA,092054.000,4503.2232,N,00741.2439,E,1,10,1.0,212.2,M,48.2,M,,*56,1746264053000
NMEA,$PSAMSA,092054.000,4503.2232,N,00741.2439,E,1,M,,*6F,1746264053000
NMEA,$GPGLL,4503.2232,N,00741.2439,E,092054.000,A,A*5E,1746264053000
NMEA,$GPVTG,0.0,T,,M,0.0,N,0.0,K,A*0D,1746264053000
NMEA,$GPGSV,2,1,07,05,20,049,33,16,42,306,42,18,76,115,26,23,19,140,24*76,1746264053000
NMEA,$GPGSV,2,2,07,26,70,285,39,29,35,070,21,31,35,224,22*41,1746264053000
NMEA,$GLGSV,1,1,02,71,10,341,20,74,79,262,31*6D,1746264053000
NMEA,$BDGSV,2,1,05,208,31,049,24,213,37,068,26,226,55,282,34,229,56,054,22*61,1746264053000
NMEA,$BDGSV,2,2,05,235,57,249,29*6F,1746264053000
NMEA,$GPGSA,A,3,26,16,31,05,23,,,,,,,,2.0,1.0,1.8*3D,1746264053000
NMEA,$GNGSA,A,3,74,,,,,,,,,,,,2.0,1.0,1.8*25,1746264053000
NMEA,$BDGSA,A,3,213,226,229,235,,,,,,,,,2.0,1.0,1.8*22,1746264053000
NMEA,$GPRMC,092054.000,A,4503.2232,N,00741.2439,E,0.0,0.0,030525,,,A*68,1746264053000
NMEA,$PSAMCLK,2364,55207200,10,9750925,5570480,552072000*77,1746264053000
NMEA,$PSAMCLK,2364,55207300,11,9750908,5632373,552073000*77,1746264054000
NMEA,$GPGGA,092055.000,4503.2232,N,00741.2439,E,1,11,1.0,212.2,M,48.2,M,,*56,1746264054000
NMEA,$PSAMSA,092055.000,4503.2232,N,00741.2439,E,1,M,,*6E,1746264054000
NMEA,$GPGLL,4503.2232,N,00741.2439,E,092055.000,A,A*5F,1746264054000
NMEA,$GPVTG,0.0,T,,M,0.0,N,0.0,K,A*0D,1746264054000
NMEA,$GPGSV,2,1,07,05,20,049,33,16,42,306,42,18,76,115,26,23,19,140,23*71,1746264054000
NMEA,$GPGSV,2,2,07,26,70,285,39,29,35,070,19,31,35,224,22*4A,1746264054000
NMEA,$GLGSV,1,1,02,71,10,341,20,74,79,262,31*6D,1746264054000
NMEA,$BDGSV,2,1,05,208,31,049,24,213,37,068,26,226,55,282,34,229,56,054,22*61,1746264054000
NMEA,$BDGSV,2,2,05,235,57,249,29*6F,1746264054000
NMEA,$GPGSA,A,3,18,26,16,31,05,23,,,,,,,1.8,1.0,1.4*33,1746264054000
NMEA,$GNGSA,A,3,74,,,,,,,,,,,,1.8,1.0,1.4*22,1746264054000
NMEA,$BDGSA,A,3,213,226,229,235,,,,,,,,,1.8,1.0,1.4*25,1746264054000
NMEA,$GPRMC,092055.000,A,4503.2232,N,00741.2439,E,0.0,0.0,030525,,,A*69,1746264054000
NMEA,$PSAMCLK,2364,55207300,11,9750908,5632373,552073000*77,1746264054000
NMEA,$PSAMCLK,2364,55207400,12,9750910,5694267,552074000*75,1746264055000
NMEA,$GPGGA,092056.000,4503.2232,N,00741.2439,E,1,12,1.0,212.2,M,48.2,M,,*56,1746264055000
NMEA,$PSAMSA,092056.000,4503.2232,N,00741.2439,E,1,M,,*6D,1746264055000
NMEA,$GPGLL,4503.2232,N,00741.2439,E,092056.000,A,A*5C,1746264055000
NMEA,$GPVTG,0.0,T,,M,0.0,N,0.0,K,A*0D,1746264055000
NMEA,$GPGSV,2,1,07,05,20,049,33,16,42,306,42,18,76,115,26,23,19,140,23*71,1746264055000
NMEA,$GPGSV,2,2,07,26,70,284,39,29,35,070,18,31,35,224,23*4B,1746264055000
NMEA,$GLGSV,1,1,02,71,10,341,20,74,79,262,31*6D,1746264055000
NMEA,$BDGSV,2,1,05,208,31,049,24,213,37,068,26,226,55,282,34,229,56,054,22*61,1746264055000
NMEA,$BDGSV,2,2,05,235,57,249,29*6F,1746264055000
NMEA,$GPGSA,A,3,18,26,16,31,05,23,,,,,,,1.8,1.0,1.4*33,1746264055000
NMEA,$GNGSA,A,3,74,,,,,,,,,,,,1.8,1.0,1.4*22,1746264055000
NMEA,$BDGSA,A,3,208,213,226,229,235,,,,,,,,1.8,1.0,1.4*1F,1746264055000
NMEA,$GPRMC,092056.000,A,4503.2232,N,00741.2439,E,0.0,0.0,030525,,,A*6A,1746264055000
NMEA,$PSAMCLK,2364,55207400,12,9750910,5694267,552074000*75,1746264055000
NMEA,$PSAMCLK,2364,55207500,11,9750908,5756162,552075000*76,1746264056000
NMEA,$GPGGA,092057.000,4503.2232,N,00741.2439,E,1,11,1.0,212.2,M,48.2,M,,*54,1746264056000
NMEA,$PSAMSA,092057.000,4503.2232,N,00741.2439,E,1,M,,*6C,1746264056000
NMEA,$GPGLL,4503.2232,N,00741.2439,E,092057.000,A,A*5D,1746264056000
NMEA,$GPVTG,0.0,T,,M,0.0,N,0.0,K,A*0D,1746264056000
NMEA,$GPGSV,2,1,07,05,20,049,33,16,42,306,42,18,76,115,26,23,19,140,23*71,1746264056000
NMEA,$GPGSV,2,2,07,26,70,284,38,29,35,070,16,31,35,224,23*44,1746264056000
NMEA,$GLGSV,1,1,02,71,10,341,20,74,79,262,31*6D,1746264056000
NMEA,$BDGSV,2,1,05,208,31,049,24,213,37,068,25,226,55,282,34,229,56,054,22*62,1746264056000
NMEA,$BDGSV,2,2,05,235,57,249,29*6F,1746264056000
NMEA,$GPGSA,A,3,18,26,16,31,05,23,,,,,,,1.8,1.0,1.4*33,1746264056000
NMEA,$GNGSA,A,3,74,,,,,,,,,,,,1.8,1.0,1.4*22,1746264056000
NMEA,$BDGSA,A,3,208,226,229,235,,,,,,,,,1.8,1.0,1.4*2F,1746264056000
NMEA,$GPRMC,092057.000,A,4503.2232,N,00741.2439,E,0.0,0.0,030525,,,A*6B,1746264056000
NMEA,$PSAMCLK,2364,55207500,11,9750908,5756162,552075000*76,1746264056000
NMEA,$PSAMCLK,2364,55207600,11,9750930,5818056,552076000*7E,1746264057000
NMEA,$GPGGA,092058.000,4503.2232,N,00741.2439,E,1,11,1.0,212.2,M,48.2,M,,*5B,1746264057000
NMEA,$PSAMSA,092058.000,4503.2232,N,00741.2439,E,1,M,,*63,1746264057000
NMEA,$GPGLL,4503.2232,N,00741.2439,E,092058.000,A,A*52,1746264057000
NMEA,$GPVTG,0.0,T,,M,0.0,N,0.0,K,A*0D,1746264057000
NMEA,$GPGSV,2,1,07,05,20,049,33,16,42,306,42,18,76,115,26,23,19,140,23*71,1746264057000
NMEA,$GPGSV,2,2,07,26,70,284,38,29,35,070,15,31,35,224,23*47,1746264057000
NMEA,$GLGSV,1,1,02,71,10,341,18,74,79,262,31*66,1746264057000
NMEA,$BDGSV,2,1,05,208,31,049,24,213,37,068,25,226,55,282,34,229,56,054,22*62,1746264057000
NMEA,$BDGSV,2,2,05,235,57,249,29*6F,1746264057000
NMEA,$GPGSA,A,3,18,26,16,31,05,23,,,,,,,1.8,1.0,1.4*33,1746264057000
NMEA,$GNGSA,A,3,74,,,,,,,,,,,,1.8,1.0,1.4*22,1746264057000
NMEA,$BDGSA,A,3,213,226,229,235,,,,,,,,,1.8,1.0,1.4*25,1746264057000
NMEA,$GPRMC,092058.000,A,4503.2232,N,00741.2439,E,0.0,0.0,030525,,,A*64,1746264057000
NMEA,$PSAMCLK,2364,55207600,11,9750930,5818056,552076000*7E,1746264057000
NMEA,$PSAMCLK,2364,55207700,12,9750935,5879950,552077000*70,1746264058000
NMEA,$GPGGA,092059.000,4503.2232,N,00741.2439,E,1,12,1.0,212.2,M,48.2,M,,*59,1746264058000
NMEA,$PSAMSA,092059.000,4503.2232,N,00741.2439,E,1,M,,*62,1746264058000
NMEA,$GPGLL,4503.2232,N,00741.2439,E,092059.000,A,A*53,1746264058000
NMEA,$GPVTG,0.0,T,,M,0.0,N,0.0,K,A*0D,1746264058000
NMEA,$GPGSV,2,1,07,05,20,049,33,16,42,306,42,18,76,115,26,23,19,140,23*71,1746264058000
NMEA,$GPGSV,2,2,07,26,70,284,38,29,35,070,14,31,35,224,23*46,1746264058000
NMEA,$GLGSV,1,1,03,71,10,341,17,73,42,162,18,74,79,262,30*57,1746264058000
NMEA,$BDGSV,2,1,05,208,31,049,23,213,37,068,25,226,55,282,34,229,56,054,23*64,1746264058000
NMEA,$BDGSV,2,2,05,235,57,249,28*6E,1746264058000
NMEA,$GPGSA,A,3,18,26,16,31,05,23,,,,,,,1.8,1.0,1.4*33,1746264058000
NMEA,$GNGSA,A,3,74,,,,,,,,,,,,1.8,1.0,1.4*22,1746264058000
NMEA,$BDGSA,A,3,208,213,226,229,235,,,,,,,,1.8,1.0,1.4*1F,1746264058000
NMEA,$GPRMC,092059.000,A,4503.2232,N,00741.2439,E,0.0,0.0,030525,,,A*65,1746264058000
NMEA,$PSAMCLK,2364,55207700,12,9750935,5879950,552077000*70,1746264058000
NMEA,$PSAMCLK,2364,55207800,11,9750938,5941845,552078000*71,1746264059000
NMEA,$GPGGA,092100.000,4503.2232,N,00741.2439,E,1,11,1.0,212.2,M,48.2,M,,*57,1746264059000
NMEA,$PSAMSA,092100.000,4503.2232,N,00741.2439,E,1,M,,*6F,1746264059000
NMEA,$GPGLL,4503.2232,N,00741.2439,E,092100.000,A,A*5E,1746264059000
NMEA,$GPVTG,0.0,T,,M,0.0,N,0.0,K,A*0D,1746264059000
NMEA,$GPGSV,2,1,07,05,20,049,32,16,42,306,42,18,76,115,25,23,19,140,23*73,1746264059000
NMEA,$GPGSV,2,2,07,26,70,284,38,29,35,070,13,31,35,224,22*40,1746264059000
NMEA,$GLGSV,1,1,03,71,10,341,15,73,42,162,18,74,79,262,30*55,1746264059000
NMEA,$BDGSV,2,1,05,208,31,049,23,213,37,068,25,226,55,282,34,229,56,054,23*64,1746264059000
NMEA,$BDGSV,2,2,05,235,57,249,28*6E,1746264059000
NMEA,$GPGSA,A,3,18,26,16,05,23,,,,,,,,2.0,1.0,1.6*38,1746264059000
