     4.01           OBSERVATION DATA    M                   RINEX VERSION / TYPE
GnssLogger          Xiaomi 12           20250503 082255 UTC PGM / RUN BY / DATE
Google GnssLogger                                           MARKER NAME
Unknown                                                     MARKER NUMBER
Unknown             Unknown                                 OBSERVER / AGENCY
Unknown             GnssLogger          v3.1.0.4            REC # / TYPE / VERS
Unknown             Unknown                                 ANT # / TYPE
        0.0000        0.0000        0.0000                  ANTENNA: DELTA H/E/N
G    6 C1C D1C S1C C5Q D5Q S5Q                              SYS / # / OBS TYPES
R    3 C1C D1C S1C                                          SYS / # / OBS TYPES
C    9 C2I D2I S2I C5P D5P S5P C1P D1P S1P                  SYS / # / OBS TYPES
E    6 C1C D1C S1C C5Q D5Q S5Q                              SYS / # / OBS TYPES
  2025    05    03    08    22   55.0000000     GPS         TIME OF FIRST OBS
 6 R09 -2 R10 -7 R16 -1 R18 -3 R19  3 R20  2                GLONASS SLOT / FRQ #
Xiaomi 2107113SG (Android 12) HW Year: 2018 HW Model:       COMMENT
qcom;MPSS.HI.4.3.c2-00084-LC_ALL_PACK-1.4500.49.6980.77;    COMMENT
                                                            END OF HEADER
> 2025 05 03 08 22 55.4104890  0 35                      
G04  25015498.59226      -453.69326        36.70026  25013141.62326      -338.64126        40.90026
G05  23662332.26924      1210.10024        28.90024                                                
G16  23490434.87126      3308.65626        36.10026                                                
G18  21428162.25326      2206.93726        39.20026  21425810.68127      1647.91827        41.70027
G20  24443595.61225     -1182.76225        32.70025                                                
G25  22576004.61824     -3104.20024        24.70024  22573617.37124     -2317.53424        24.20024
G26  21506713.57326      2282.28426        41.40026  21504359.30326      1703.91326        39.20026
G28  21867782.41027     -2378.57727        46.50027  21865430.83825     -1776.11825        33.30025
G29  21014964.00425     -1654.48325        33.70025                                                
G31  21289799.64027      -826.33427        42.30027                                                
R10  20225617.05825      2486.41225        29.50025
R18  22894242.70725     -4072.74125        32.60025
R09  19186820.60226      -972.64126        41.40026
R16  22707444.42423     -3905.75023        19.00023
R20  20360677.75726      2816.89826        37.10026
R19  19833851.87123     -2156.55023        20.90023
C45  21890967.75927      -972.73027        43.40027  21889079.96626      -733.12126        41.10026  21891000.73727      -981.92327        45.10027
C38  39319390.91324       479.45024        26.40024  39317485.13325       360.05025        32.70025  39319410.10024       482.91524        27.10024
C36  24416493.47425     -3104.19325        33.50025                                                  24416524.35325     -3133.10425        35.10025
C35  23650839.12627      2588.51927        44.00027  23648958.52825      1950.68525        32.80025  23650870.60427      2611.97927        44.50027
C30  24554354.83525     -2833.36725        31.80025  24552453.25124     -2138.01624        25.70024  24554372.22324     -2859.45024        27.80024
C29  21469887.36727      -464.30127        41.70027  21468003.17225      -349.85125        35.20025  21469914.04927      -468.78627        42.10027
C26  23586462.59326      2218.82526        36.30026  23584599.38326      1671.75226        36.50026  23586513.25827      2238.68927        45.70027
C13  38946026.38824      1413.70024        26.00024                                                                                                
C08  39002193.70424      1017.45024        24.70024                                                                                                
E03  28179716.54925      -176.07125        31.20025  28177804.47326      -130.26226        37.90026
E05  26322683.64625     -2072.60625        33.20025  26320778.46526     -1547.78726        40.10026
E12  25440235.85226      2615.12026        38.20026  25438322.87726      1952.76926        36.40026
E16  26212762.34325      2353.77125        35.00025  26210850.56726      1757.49526        36.80026
E24  24669072.21826      1597.13026        37.30026  24667157.44326      1192.49226        39.70026
E25  28458482.46426      2588.16526        36.70026  28456567.38927      1932.72027        42.20027
E26  26912228.21324     -2513.93424        25.50024  26910318.83526     -1876.88626        36.60026
E31  23598646.75826      -808.66126        37.20026  23596724.48925      -603.91525        33.90025
E33  23964401.35124      -211.75124        28.40024  23962495.87025      -158.02525        32.90025
E23                                                  27042482.94024     -1811.09324        25.90024
> 2025 05 03 08 22 56.4104890  0 32                      
G04  25015576.15024      -453.28024        29.00024  25013228.17526      -338.38126        36.50026
G05  23662128.92224      1210.75024        23.60024                                                
G16  23489814.21325      3308.99425        34.20025                                                
G18  21427742.45526      2206.67926        37.00026  21425390.88326      1647.91126        40.80026
G20  24443823.66625     -1181.57425        31.20025                                                
G26  21506259.29925      2281.93925        30.90025  21503923.91626      1704.31126        38.60026
G28  21868233.80927     -2378.94727        42.80027  21865882.53726     -1776.43226        37.60026
G29  21015273.60125     -1653.95025        33.40025                                                
G31  21289972.23226      -826.76726        36.90026                                                
R10  20225203.55624      2489.15024        28.20024
R18  22895014.28424     -4070.85024        28.70024
R09  19187013.28026      -973.10026        40.40026
R20  20360122.45325      2815.79725        29.90025
C45  21891151.74427      -972.84727        45.90027  21889267.84826      -733.02226        39.10026  21891189.21828      -981.55928        48.90028
C38  39319300.28725       478.71625        31.50025  39317393.60724       360.80024        25.10024  39319333.86425       483.30625        30.60025
C36  24417108.86023     -3106.65023        22.90023                                                  24417123.85024     -3132.05024        25.10024
C35  23650339.58327      2588.31227        44.40027                                                  23650374.65927      2612.28327        46.40027
C30  24554880.88224     -2838.10024        28.00024  24553001.48324     -2136.44124        23.60024  24554922.85324     -2861.24424        28.70024
C29  21469973.91927      -464.09627        42.40027  21468094.52024      -349.82024        28.90024  21470006.59627      -468.14827        43.10027
C26  23586046.99225      2219.06425        35.00025  23584169.09226      1672.27126        35.80026  23586080.56926      2239.40926        40.70026
C13  38945762.48225      1411.77925        31.30025                                                                                                
E03  28179760.23124      -173.87824        28.40024  28177835.56325      -129.83725        32.00025
E05  26323081.98224     -2072.21524        28.80024  26321173.20426     -1547.47326        40.40026
E10  26951300.67523      3188.35023        17.80023                                                
E12  25439749.20125      2615.12725        33.50025  25437825.13325      1952.85425        34.60025
E16  26212311.06725      2354.30125        32.10025  26210401.98925      1757.94125        34.20025
E23  27044850.31224     -2423.30024        28.80024  27042946.93024     -1809.95324        29.10024
E24  24668772.63725      1597.31625        32.70025  24666851.86626      1192.93426        38.90026
E25  28457967.03225      2588.58425        31.70025  28456075.94126      1933.25426        40.20026
E26  26912712.58923     -2513.15023        22.30023  26910797.21525     -1876.07425        33.00025
E31  23598792.96826      -808.32326        36.90026  23596877.89425      -603.61025        32.20025
E33  23964443.23425      -211.28325        32.00025  23962536.25425      -157.74325        34.00025
> 2025 05 03 08 22 57.4104890  0 34                      
G04  25015666.55225      -455.87325        32.30025  25013314.08126      -340.35026        37.60026
G16  23489177.31925      3307.01725        33.90025                                                
G18  21427318.71426      2203.79526        39.40026  21424971.63827      1645.77527        42.60027
G20  24444057.96825     -1184.14425        31.90025                                                
G25  22577185.57723     -3097.45023        19.80023                                                
G26  21505836.45725      2279.59825        34.10025  21503489.08226      1702.45326        40.10026
G28  21868686.96127     -2381.62327        43.90027  21866335.38926     -1778.42626        39.60026
G29  21015579.55526     -1656.32626        37.40026                                                
G31  21290121.99326      -829.77226        36.70026                                                
R10  20224712.36124      2482.30024        26.50024
R18  22895786.71424     -4073.20024        26.40024
R09  19187195.11927      -975.98127        41.90027
R16  22708926.37524     -3904.75024        25.80024
R20  20359602.47825      2813.59225        32.60025
R19  19834729.74023     -2159.05023        21.70023
C45  21891339.57927      -975.41727        45.80027  21889453.88426      -735.04726        37.10026  21891376.75328      -984.23928        49.20028
C38  39319220.10825       476.66125        31.10025  39317302.03624       359.07824        26.60024  39319263.87825       480.92325        29.50025
C36  24417685.22625     -3106.26525        31.10025                                                  24417714.90525     -3135.35025        33.10025
C35  23649841.49327      2586.00627        44.00027  23647960.59524      1949.00324        26.00024  23649876.86927      2609.81227        47.00027
C30  24555419.17525     -2837.69725        29.70025  24553546.37124     -2138.39424        24.90024  24555468.64025     -2863.55025        30.40025
C29  21470063.72227      -466.61327        42.40027  21468185.52224      -351.73224        26.00024  21470093.70127      -470.79527        43.30027
C26  23585622.95126      2216.46226        39.80026  23583742.95226      1670.41326        35.90026  23585654.72927      2236.91627        43.20027
C13  38945508.42324      1410.60024        29.00024                                                                                                
E03  28179791.87425      -176.65125        32.50025  28177868.70525      -131.80925        32.20025
E05  26323485.36825     -2074.70525        31.60025  26321567.59626     -1549.26626        41.20026
E10  26950699.15723      3188.00023        22.20023                                                
E12  25439248.71225      2612.51725        34.60025  25437327.34226      1950.94926        36.80026
E16  26211868.13925      2352.26225        35.10025  26209953.06525      1756.54425        32.60025
E24  24668464.01525      1595.12925        32.80025  24666547.14226      1191.25426        40.10026
E25  28457470.14125      2586.74125        31.10025  28455583.24726      1931.80526        38.60026
E26  26913215.20623     -2516.30023        22.90023  26911275.54925     -1877.76725        31.80025
E31  23598947.82626      -810.79826        37.70026  23597032.75224      -605.31624        29.40024
E33  23964491.66525      -214.07225        34.50025  23962575.99125      -159.77925        32.30025
E23                                                  27043406.37724     -1811.88824        25.70024
> 2025 05 03 08 22 58.4104890  0 31                      
G04  25015755.03425      -455.78525        35.10025  25013400.46426      -340.43326        39.70026
G16  23488549.59725      3307.48025        32.30025                                                
G18  21426899.94726      2203.97226        39.80026  21424552.57227      1645.73127        42.70027
G20  24444288.25225     -1184.19725        34.40025                                                
G25  22577770.51624     -3107.40024        28.00024                                                
G26  21505404.20026      2279.96926        41.40026  21503056.82526      1702.47026        37.90026
G28  21869138.79127     -2381.48127        44.60027  21866788.71825     -1778.50325        32.80025
G31  21290283.32527      -829.64027        42.30027                                                
R10  20224200.35925      2483.61325        34.80025
R18  22896536.23925     -4073.45725        34.30025
R09  19187366.04426      -976.05426        38.60026
R20  20359087.17826      2813.66926        35.80026
C45  21891524.89425      -975.33325        34.10025  21889641.59826      -735.12626        39.50026  21891566.26526      -984.46626        39.60026
C38  39319137.70825       476.99725        31.00025  39317211.84225       359.38425        31.30025  39319169.18724       481.10024        24.20024
C36  24418293.24824     -3107.00024        25.30024                                                  24418313.93424     -3136.20024        23.90024
C35  23649349.57726      2586.30526        41.20026  23647465.38125      1948.85525        33.40025  23649378.95727      2609.76827        43.80027
C30  24555977.73125     -2836.89325        30.50025  24554089.63925     -2138.03725        29.50025  24555978.63124     -2863.11124        26.70024
C29  21470154.60226      -466.38926        40.70026  21468271.30625      -351.58125        34.10025  21470176.78726      -470.95226        39.90026
C26  23585197.58927      2216.74427        41.50027  23583320.28825      1670.36025        34.80025  23585233.26427      2236.94527        46.80027
C13  38945227.26124      1409.40024        28.90024                                                                                                
C08  39001614.92524      1016.65024        28.40024                                                                                                
E03  28179825.49426      -176.29126        36.40026  28177903.52426      -131.74026        37.20026
E05  26323873.64326     -2074.36926        36.40026  26321962.16627     -1549.11027        42.00027
E12  25438751.40026      2612.87426        35.80026  25436829.73025      1951.19525        34.70025
E16  26211409.50025      2352.46525        33.70025  26209504.91825      1756.77925        30.60025
E24  24668161.56826      1595.53226        38.00026  24666244.69526      1191.45626        38.60026
E25  28456976.72625      2587.45025        34.90025  28455091.33127      1932.15427        41.50027
E26  26913669.13624     -2514.40424        28.30024  26911753.76225     -1877.46725        34.60025
E31  23599098.36525      -810.43725        35.20025  23597186.58925      -605.28325        31.00025
E33  23964522.58725      -213.79725        31.10025  23962617.70625      -159.75125        32.30025
E23                                                  27043863.90424     -1811.62024        26.40024
> 2025 05 03 08 22 59.4104890  0 32                      
G04  25015842.47426      -454.97126        36.80026  25013486.70526      -339.74126        39.50026
G05  23661368.75724      1210.30024        27.30024                                                
G16  23487915.73625      3309.03025        31.50025                                                
G18  21426481.93726      2204.77126        40.20026  21424132.76326      1646.42526        41.00026
G20  24444507.00225     -1182.78725        34.60025                                                
G25  22578369.70224     -3106.50024        25.10024                                                
G26  21504984.99027      2280.92027        42.40027  21502622.62626      1703.29626        37.30026
G28  21869591.07927     -2380.94527        45.00027  21867241.60525     -1777.92425        29.90025
G29  21016250.13523     -1653.75023        21.40023                                                
G31  21290444.21427      -829.14427        42.70027                                                
R10  20223773.05526      2484.56226        35.70026
R18  22897287.71926     -4071.65026        36.30026
R09  19187551.21626      -975.42026        40.50026
R20  20358570.83626      2814.09326        35.50026
C45  21891708.56726      -974.57126        38.80026  21889827.07026      -734.44926        36.80026  21891752.33727      -983.50827        42.10027
C38  39319040.47625       477.83425        29.70025  39317118.50724       360.77924        28.20024                                                
C36  24418883.14124     -3108.05024        26.40024                                                  24418919.41624     -3134.03624        26.80024
C35  23648852.72227      2586.98127        42.30027  23646967.32725      1949.72425        31.10025  23648882.10127      2610.80327        43.40027
C30  24556528.35125     -2836.03525        29.80025  24554632.76324     -2136.55724        25.60024  24556573.91924     -2861.25024        25.20024
C29  21470241.74327      -465.35227        41.90027  21468359.94525      -350.66525        32.80025  21470272.92127      -469.57927        42.50027
C26  23584772.08427      2217.70927        41.50027  23582894.18425      1671.38825        34.50025  23584805.06127      2238.02527        45.90027
C13  38944955.85025      1411.68225        30.30025                                                                                                
C08  39001410.96724      1019.05024        26.50024                                                                                                
E03  28179854.47426      -175.50126        36.10026  28177936.70226      -130.94926        36.60026
E05  26324264.77326     -2073.62626        36.40026  26322356.59426     -1548.39626        39.20026
E12  25438250.64726      2613.78526        36.50026  25436332.87525      1951.84525        30.90025
E16  26210963.90926      2354.05026        37.10026  26209057.52925      1757.76225        33.40025
E24  24667854.78126      1596.77026        41.00026  24665940.00726      1192.35626        37.80026
E25  28456504.45425      2588.69225        35.10025  28454598.37326      1933.20926        40.90026
E26  26914148.10525     -2512.84625        33.10025  26912231.83125     -1876.41925        34.40025
E31  23599251.46025      -809.19825        34.70025  23597339.08425      -604.29825        29.60025
E33  23964568.05725      -212.70725        30.20025  23962658.97825      -158.85625        32.30025
> 2025 05 03 08 23 00.4104890  0 35                      
G04  25015919.91426      -456.17426        39.20026  25013574.33827      -340.59827        41.60027
G05  23661124.52024      1210.20024        27.30024                                                
G16  23487323.74024      3308.05024        27.90024                                                
G18  21426059.62326      2203.36626        37.40026  21423713.74726      1645.55426        40.80026
G20  24444733.73825     -1184.29825        30.60025                                                
G25  22578966.68224     -3103.80024        27.30024  22576566.84323     -2317.60023        22.20023
G26  21504548.58627      2280.02027        45.50027  21502190.11926      1702.58826        38.50026
G28  21870045.35827     -2381.94927        45.80027  21867694.98525     -1779.06525        32.20025
G29  21016529.63525     -1656.40825        34.90025                                                
G31  21290596.90227      -830.38327        46.00027                                                
R10  20223322.86025      2483.45325        35.40025
R18  22898042.99025     -4072.68225        30.70025
R09  19187739.87925      -977.53925        30.50025
R16  22711066.03224     -3907.60024        24.30024
R20  20358050.49026      2812.93426        35.60026
R19  19835940.63923     -2159.45023        18.90023
C45  21891911.02125      -975.97725        34.50025  21890015.73326      -735.28826        39.00026  21891935.90425      -986.31725        35.20025
C38  39318932.64525       476.88225        31.90025  39317027.16425       359.81125        35.20025  39318938.04124       481.85024        26.90024
C36  24419480.42124     -3104.25024        28.40024                                                  24419506.80325     -3134.42625        29.80025
C35  23648353.66127      2586.24627        42.00027  23646473.06326      1948.96626        38.00026  23648386.93827      2609.92227        43.60027
C30  24557087.55724     -2834.80024        28.40024  24555177.87925     -2137.47625        32.50025  24557135.52424     -2862.98424        29.20024
C29  21470334.47225      -466.54625        34.40025  21468449.67725      -351.66725        35.20025  21470366.55026      -470.51826        36.00026
C26  23584333.58126      2216.72826        36.20026  23582468.27226      1670.65626        37.70026  23584384.24627      2237.19227        46.20027
C13  38944682.23324      1410.45024        29.00024                                                                                                
C08  39001208.40124      1015.70024        27.20024                                                                                                
E03  28179874.05526      -176.32526        35.70026  28177972.77127      -131.71127        41.80027
E05  26324656.69526     -2074.34026        37.20026  26322750.31526     -1548.89826        40.90026
E12  25437751.58626      2612.73326        37.30026  25435835.01325      1951.19825        30.30025
E16  26210541.89526      2353.35126        35.50026  26208611.83126      1757.42826        39.60026
E24  24667542.19126      1595.99926        41.10026  24665639.40926      1191.79526        39.50026
E25  28456014.08725      2588.45325        34.30025  28454106.50727      1932.87127        41.80027
E26  26914620.67125     -2513.80025        30.20025  26912709.79426     -1877.19126        37.90026
E31  23599406.24625      -810.76425        29.90025  23597496.86825      -605.11525        34.40025
E33  23964614.01824      -214.14924        28.80024  23962701.94224      -160.03624        26.00024
E23                                                  27044786.95924     -1809.75024        23.60024
> 2025 05 03 08 23 01.4104890  0 34                      
G04  25016017.43826      -457.75026        35.50026  25013661.36926      -341.86826        38.70026
G05  23660917.15523      1208.90023        22.60023                                                
G16  23486658.89126      3306.81126        36.40026                                                
G18  21425644.80126      2202.39926        37.10026  21423294.72827      1644.61927        41.50027
G20  24444943.68424     -1186.80024        26.50024                                                
G25  22579540.27624     -3107.30024        24.30024                                                
G26  21504113.07926      2278.98226        37.00026  21501754.31226      1701.66026        37.30026
G28  21870493.03926     -2383.11726        40.10026  21868147.76326     -1779.42026        39.30026
G29  21016849.90426     -1656.45226        35.60026                                                
G31  21290757.68226      -831.56526        39.60026                                                
R10  20222829.79325      2481.98825        33.80025
R18  22898807.25225     -4074.38225        30.70025
R09  19187919.54626      -978.47826        38.50026
R20  20357492.96724      2809.05024        26.10024
R19  19836372.73223     -2156.35023        23.10023
C45  21892098.18227      -977.00227        42.20027  21890203.79426      -736.30426        37.70026  21892128.46127      -986.44327        43.90027
C38  39318867.68124       478.20024        26.80024  39316936.41825       358.63225        33.60025  39318880.27224       478.50024        25.90024
C36  24420077.09924     -3108.40024        27.40024  24418199.19924     -2341.49724        28.40024  24420110.97624     -3135.89824        28.40024
C35  23647857.89527      2585.29327        43.70027  23645977.89725      1948.64225        31.60025  23647889.97327      2609.01627        44.80027
C30  24557628.77424     -2837.74824        29.40024  24555722.99325     -2138.44725        31.40025  24557645.56224     -2864.01924        29.20024
C29  21470423.30227      -467.97527        42.60027  21468539.70625      -352.85325        32.70025  21470455.97927      -472.29227        42.80027
C26  23583928.35326      2215.54226        41.20026  23582041.15926      1669.58426        35.60026  23583958.93226      2235.76926        39.10026
C13  38944411.01223      1408.85023        23.10023                                                                                                
E03  28179920.31425      -177.84925        32.60025  28178006.43926      -132.89926        39.20026
E05  26325054.61125     -2075.22525        35.40025  26323144.63326     -1549.78626        37.90026
E12  25437254.92126      2611.98026        35.90026  25435338.64826      1950.45026        35.60026
E16  26210080.30625      2352.33025        34.40025  26208164.33226      1756.78326        36.40026
E24  24667254.48226      1595.20526        38.20026  24665334.01126      1191.08726        37.40026
E25  28455536.60925      2587.20025        33.60025  28453613.74026      1932.07526        39.90026
E26  26915102.52924     -2514.20024        23.50024  26913188.65425     -1878.47725        34.20025
E31  23599567.02626      -811.28726        37.00026  23597651.65225      -606.01625        32.50025
E33  23964661.47725      -215.42225        33.10025  23962745.20324      -160.95524        26.50024
E10                                                  26946333.10823      2381.30023        23.00023
E23                                                  27045251.72824     -1811.77524        26.70024
> 2025 05 03 08 23 02.4104890  0 35                      
G04  25016102.20525      -459.90425        35.10025  25013747.93526      -343.26326        36.40026
G05  23660679.34524      1204.70924        29.30024                                                
G16  23486025.65526      3305.08326        39.30026                                                
G18  21425231.91326      2200.15726        38.40026  21422874.94426      1643.01726        39.10026
G20  24445193.03724     -1183.60024        27.00024                                                
G25  22580109.20823     -3106.20023        21.00023  22577753.13923     -2320.55023        22.70023
G26  21503669.91126      2276.80326        36.60026  21501320.43826      1700.30826        38.80026
G28  21870949.84926     -2385.33226        36.90026  21868600.97526     -1781.11726        39.30026
G29  21017170.60826     -1659.12426        41.10026                                                
G31  21290917.09726      -834.07926        41.30026                                                
R10  20222377.63126      2479.76226        36.10026
R18  22899583.34125     -4075.27725        29.50025
R09  19188093.35226      -980.79926        41.10026
R20  20357006.33024      2807.05024        25.80024
R19  19836757.59124     -2164.05024        23.90024
C45  21892276.78427      -979.02727        42.70027  21890391.68925      -737.49425        33.90025  21892315.45827      -987.88827        46.40027
C38  39318757.88324       473.95024        26.80024  39316844.60724       354.01224        27.40024  39318742.29324       479.06124        28.60024
C36  24420675.41024     -3105.40024        24.30024  24418796.91124     -2342.67924        28.00024  24420716.18224     -3137.23824        27.60024
C35  23647361.96427      2583.35527        45.00027  23645482.56524      1946.75024        26.10024  23647390.44427      2607.18627        46.30027
C30  24558157.83326     -2839.00026        36.80026  24556269.14124     -2139.69224        25.30024  24558185.11426     -2864.88826        36.40026
C29  21470511.66626      -469.70526        41.30026  21468629.86924      -353.42824        27.00024  21470546.74226      -473.92226        41.40026
C26  23583501.37427      2213.60827        45.20027  23581613.28126      1668.29026        37.30026  23583530.75426      2234.43326        37.10026
C13  38944155.51423      1406.80023        22.50023                                                                                                
C08  39000824.98324      1011.90024        24.80024                                                                                                
E03  28179954.71525      -179.87125        35.00025  28178039.64126      -134.21026        36.60026
E05  26325451.76125     -2077.16925        34.30025  26323539.08526     -1551.12326        36.00026
E12  25436756.29225      2610.08525        34.30025  25434842.11725      1948.90725        34.60025
E16  26209626.34526      2350.85426        37.90026  26207716.36826      1755.45626        38.70026
E24  24666947.12026      1593.25426        40.80026  24665027.84926      1189.77026        36.40026
E25  28455036.78026      2585.99726        35.80026  28453120.50726      1931.09326        38.60026
E31  23599724.34326      -813.03126        38.60026  23597805.37125      -607.00825        29.60025
E33  23964700.97526      -217.38926        38.60026  23962782.90325      -162.17625        31.80025
E10                                                  26945737.64623      2380.25023        22.60023
E23                                                  27045711.83624     -1812.88624        27.70024
E26                                                  26913666.44925     -1879.11225        33.00025
> 2025 05 03 08 23 03.4104890  0 34                      
G04  25016187.37126      -461.55426        36.40026  25013835.19926      -344.77826        37.70026
G05  23660451.82725      1202.82925        32.40025                                                
G16  23485399.11426      3303.92426        35.80026                                                
G18  21424807.13226      2198.54526        37.90026  21422455.86026      1641.68726        38.60026
G20  24445438.59224     -1188.80024        27.50024                                                
G26  21503243.63126      2275.48826        36.20026  21500886.96326      1699.12626        38.50026
G28  21871404.65926     -2386.86826        38.40026  21869054.88526     -1782.41726        36.80026
G29  21017482.71726     -1660.69926        39.00026                                                
G31  21291076.31226      -835.79426        39.80026                                                
R10  20221918.97425      2478.09125        35.30025
R18  22900337.64325     -4077.71225        30.90025
R09  19188275.95026      -982.74626        40.10026
R16  22713235.37123     -3911.80023        19.40023
R20  20356448.74124      2808.45024        24.90024
R19  19837135.95423     -2165.55023        22.60023
C45  21892469.57627      -980.67027        41.90027  21890579.08526      -739.03726        35.60026  21892502.25327      -989.66827        45.30027
C38  39318643.98624       469.80024        29.10024  39316749.59823       357.05023        21.30023  39318660.47524       476.87224        28.40024
C36  24421269.92423     -3104.70023        22.10023  24419391.42424     -2343.92124        25.90024  24421306.19924     -3138.65824        26.50024
C35  23646864.93327      2582.08127        44.60027  23644985.23424      1945.83224        27.60024  23646896.41127      2605.74727        45.80027
C30  24558699.88326     -2840.56526        36.50026                                                  24558732.56025     -2866.63325        34.40025
C29  21470600.73027      -471.38327        41.70027  21468720.73124      -355.28524        28.00024  21470636.40527      -475.72027        42.20027
C26  23583075.69427      2212.14827        45.30027  23581188.80026      1667.07326        37.50026  23583088.28526      2232.50026        36.70026
C08  39000628.64425      1015.28325        30.20025                                                                                                
E03  28179988.61725      -181.53825        33.00025  28178074.74226      -135.64726        37.70026
E05  26325852.00926     -2078.47926        36.20026  26323936.03526     -1552.20826        36.50026
E12  25436261.95925      2608.39925        32.10025  25434344.48725      1947.90325        32.60025
E16  26209180.87926      2349.38026        37.10026  26207269.10226      1754.56026        37.80026
E24  24666644.95426      1591.81726        39.30026  24664724.48426      1188.70026        36.70026
E25  28454548.74326      2584.72426        36.10026  28452628.27226      1930.03526        38.40026
E26  26916064.51323     -2517.60023        22.50023  26914145.84225     -1880.66825        33.90025
E31  23599881.75926      -814.66426        37.80026  23597959.78925      -608.28625        29.90025
E33  23964743.27126      -219.29526        38.80026  23962823.99925      -163.92625        33.20025
G25                                                  22578344.35524     -2321.98124        25.40024
E23                                                  27046174.74024     -1814.10024        27.90024
> 2025 05 03 08 23 04.4104890  0 33                      
G04  25016276.80125      -459.25525        34.30025  25013922.83126      -342.99326        36.90026
G05  23660215.98324      1205.63724        29.00024                                                
G16  23484787.33025      3306.70625        34.80025                                                
G18  21424393.21125      2200.85625        35.10025  21422038.04126      1643.52926        36.60026
G20  24445632.95024     -1187.90024        27.30024                                                
G26  21502805.42726      2277.73126        35.80026  21500453.85526      1700.84126        37.10026
G28  21871864.03326     -2384.37926        37.30026  21869509.46326     -1780.72426        37.50026
G29  21017797.89126     -1658.11926        36.30026                                                
G31  21291234.69426      -833.68926        39.30026                                                
R10  20221435.80125      2479.20525        32.30025
R18  22901091.11424     -4074.75024        26.40024
R09  19188470.30826      -980.38926        38.30026
R20  20355943.38324      2810.65024        24.30024
C45  21892661.23626      -978.39826        40.50026  21890767.44726      -737.37826        35.60026  21892689.71627      -987.40127        43.00027
C38  39318559.23724       475.30024        25.90024  39316660.95224       357.82024        25.20024  39318573.62724       479.76724        26.90024
C36  24421861.20723     -3107.40023        23.30023  24419990.50224     -2341.66924        26.90024  24421917.26824     -3136.30024        24.60024
C35  23646369.46927      2584.89127        43.30027  23644489.17024      1948.05224        27.70024  23646400.34727      2608.32027        44.60027
C30  24559249.49525     -2837.52925        33.80025  24557362.60123     -2138.95023        22.70023  24559280.07425     -2863.79125        34.20025
C29  21470693.15826      -468.85726        39.40026  21468811.96024      -353.40624        27.00024  21470724.33626      -473.48626        39.30026
C26  23582647.08327      2214.77227        44.30027  23580763.48726      1668.85626        35.50026  23582665.67026      2234.64126        36.70026
C13  38943626.19823      1404.25023        21.70023                                                                                                
C08  39000444.06425      1014.43025        30.70025                                                                                                
E03  28180023.18525      -179.38525        31.20025  28178109.61026      -133.90626        37.30026
E05  26326250.22625     -2075.84025        35.00025  26324331.55426     -1550.16426        36.30026
E12  25435768.59325      2611.15225        30.00025  25433849.02225      1950.08725        31.80025
E16  26208735.77925      2352.26325        35.00025  26206821.90426      1756.51726        35.50026
E24  24666343.75526      1594.30626        37.00026  24664422.68525      1190.60125        35.20025
E25  28454057.17625      2587.61125        32.70025  28452136.40526      1932.35226        36.60026
E31  23600035.34525      -812.26225        35.30025  23598113.67524      -606.45324        28.20024
E33  23964786.23326      -217.05126        35.60026  23962864.86325      -161.14425        30.50025
G25                                                  22578934.13924     -2319.81624        25.90024
E23                                                  27046637.41224     -1811.86824        26.10024
E26                                                  26914625.60225     -1878.89825        33.80025
> 2025 05 03 08 23 05.4104890  0 32                      
G04  25016367.68626      -458.07026        35.50026  25014009.81926      -342.09226        36.90026
G05  23660044.84924      1208.35024        24.00024                                                
G16  23484139.22626      3308.41126        35.50026                                                
G18  21423970.25126      2202.09126        37.30026  21421618.67926      1644.42526        39.40026
G20  24445859.64125     -1186.34525        29.60025                                                
G25  22581901.83223     -3106.05023        20.10023                                                
G26  21502372.87426      2279.48326        38.00026  21500019.50326      1702.18426        36.70026
G28  21872311.37126     -2383.44426        36.30026  21869962.79726     -1779.71726        41.10026
G29  21018115.71826     -1656.75126        39.40026                                                
G31  21291394.83126      -832.39526        40.80026                                                
R10  20220959.17825      2482.01725        33.30025
R18  22901858.03124     -4072.38424        29.20024
R09  19188657.72626      -979.65526        39.60026
R20  20355390.61424      2809.60024        24.30024
R19  19837964.42023     -2164.25023        22.60023
C45  21892844.45627      -977.17227        43.00027  21890955.16425      -736.37725        35.30025  21892880.43127      -986.10627        45.00027
C38  39318511.61824       475.15024        24.20024  39316571.06125       359.62025        30.20025  39318484.63724       481.68624        28.40024
C36  24422461.13924     -3105.55024        26.30024  24420586.23724     -2340.79924        28.50024  24422486.02224     -3134.53124        26.40024
C35  23645873.06027      2585.95427        44.90027  23643995.46024      1948.88624        28.60024  23645903.93927      2609.71127        45.70027
C30  24559802.36025     -2836.24525        31.80025  24557904.37424     -2137.56924        25.80024  24559843.43125     -2862.16125        32.50025
C29  21470784.04326      -467.79226        41.40026  21468901.64624      -352.38024        27.20024  21470816.72026      -471.95126        41.40026
C26  23582224.42327      2216.08027        44.80027  23580336.63025      1670.17925        34.10025  23582247.80726      2236.59726        36.30026
E03  28180061.90625      -177.81525        32.40025  28178143.53426      -132.88626        37.80026
E05  26326636.40626     -2074.46626        37.10026  26324725.22926     -1549.14326        37.00026
E12  25435267.38826      2612.36926        37.10026  25433352.01425      1950.86325        35.10025
E16  26208287.33725      2354.20325        33.20025  26206373.46226      1757.98226        35.50026
E24  24666036.81526      1596.24026        39.90026  24664117.24426      1192.00826        35.50026
E25  28453567.96225      2589.28125        33.00025  28451643.29426      1933.57426        39.20026
E26  26917007.50123     -2514.00023        22.00023  26915103.21925     -1877.76925        30.20025
E31  23600184.98926      -810.74626        37.40026  23598269.01624      -605.22324        29.30024
E33  23964826.75325      -215.55625        34.70025  23962905.68324      -161.05024        28.50024
E23                                                  27047097.94124     -1811.00024        28.00024
> 2025 05 03 08 23 06.4104890  0 33                      
G04  25016463.00326      -458.51226        36.60026  25014097.34126      -342.42526        37.50026
G05  23659832.57924      1203.25024        25.60024                                                
G16  23483513.84226      3308.34326        38.40026                                                
G18  21423547.22726      2201.89926        37.00026  21421199.85226      1644.17826        40.50026
G20  24446085.06825     -1186.95425        33.10025                                                
G25  22582489.40823     -3107.65023        22.70023                                                
G26  21501938.15826      2279.17326        37.60026  21499586.28726      1701.95526        37.80026
G28  21872759.24426     -2383.49226        36.50026  21870417.26627     -1779.87527        41.80027
G29  21018425.98726     -1656.76526        40.90026                                                
G31  21291555.80326      -832.99726        41.00026                                                
R10  20220524.76226      2481.34626        35.90026
R18  22902622.18525     -4072.59025        31.40025
R09  19188845.07926      -980.17826        40.70026
R20  20354876.75223      2811.75023        23.40023
R19  19838431.78024     -2163.50024        27.80024
C45  21893036.30727      -977.40427        45.10027  21891144.01726      -736.54626        35.50026  21893065.68627      -986.31927        47.00027
C36  24423047.21724     -3107.55024        24.20024  24421181.60824     -2340.63424        27.80024  24423085.59024     -3134.30024        24.50024
C35  23645375.08827      2586.03827        45.60027  23643498.08724      1948.91024        28.30024  23645408.96427      2609.81027        46.50027
C30  24560345.56725     -2836.03425        35.00025  24558447.58124     -2137.18924        25.00024  24560380.64325     -2862.24125        33.80025
C29  21470874.86327      -467.88827        42.50027  21468991.56724      -352.55124        26.70024  21470906.34127      -472.21827        41.90027
C26  23581800.20027      2215.89427        45.90027  23579912.40725      1669.92225        35.30025  23581805.59625      2236.14925        33.10025
E03  28180097.26525      -178.18525        35.40025  28178178.29326      -133.05926        38.00026
E05  26327033.01526     -2074.43226        38.10026  26325120.03925     -1549.14625        35.00025
E12  25434770.01626      2612.46026        37.70026  25432855.24126      1950.94726        36.80026
E16  26207838.53126      2354.12926        37.70026  26205925.85525      1757.98725        35.30025
E24  24665734.60826      1596.08026        40.70026  24663813.83726      1191.88126        36.50026
E25  28453078.08425      2589.67425        35.10025  28451151.01826      1933.80426        38.20026
E26  26917472.76224     -2514.34624        24.80024  26915581.37125     -1877.81125        31.60025
E31  23600338.46626      -810.67426        37.00026  23598423.39224      -605.47124        27.60024
E33  23964870.20625      -215.86825        33.30025  23962947.33724      -161.23224        24.30024
E10                                                  26943305.57824      2380.64924        24.40024
E23                                                  27047561.10324     -1810.51424        26.90024
C38                                                  39316480.50725       359.60625        29.70025  39318392.28425       481.52125        32.70025
> 2025 05 03 08 23 07.4104890  0 34                      
G04  25016536.72226      -458.80626        37.70026  25014184.25026      -342.64226        38.20026
G05  23659591.21524      1206.60024        26.80024                                                
G16  23482874.35426      3308.59526        38.80026                                                
G18  21423133.48326      2201.87326        39.30026  21420780.71227      1644.15727        42.00027
G20  24446311.98024     -1185.10024        28.50024                                                
G25  22583060.48223     -3105.05023        22.80023                                                
G26  21501508.82527      2279.25727        41.70027  21499152.75626      1701.89026        39.80026
G28  21873210.40125     -2383.31125        33.10025  21870870.52127     -1779.97827        44.10027
G29  21018743.73627     -1656.65027        41.90027                                                
G31  21291715.26227      -833.24827        42.50027                                                
R10  20220033.67125      2481.32325        34.90025
R18  22903402.81425     -4072.89425        30.70025
R09  19189023.42526      -980.40026        41.40026
R16  22716215.40123     -3909.50023        18.80023
R20  20354351.78524      2809.75024        26.70024
R19  19838826.27624     -2163.55724        29.30024
C45  21893219.44927      -977.37427        44.30027  21891331.95626      -736.66626        36.90026  21893253.92527      -986.45427        46.60027
C36  24423665.05824     -3103.80024        28.30024  24421778.76424     -2340.59524        29.00024  24423678.24924     -3134.44024        26.40024
C35  23644877.40127      2586.30227        46.30027  23643001.00024      1948.98724        28.40024  23644910.07928      2609.93628        47.90028
C30  24560890.85925     -2835.80425        29.80025  24558992.57324     -2137.15424        28.10024  24560936.12725     -2861.99625        34.00025
C29  21470966.26927      -467.80927        41.50027  21469084.47224      -352.75224        27.50024  21470994.74926      -472.23226        41.30026
C26  23581375.06327      2216.00527        45.60027  23579485.47126      1669.91226        37.10026  23581404.74326      2236.37126        39.10026
E03  28180128.71226      -178.30026        37.40026  28178212.13926      -133.19626        40.50026
E05  26327425.11226     -2074.35626        38.00026  26325514.83526     -1549.00626        37.00026
E10  26944663.00722      3187.80022        16.70022  26942699.06724      2380.87624        26.20024
E12  25434270.83026      2612.65226        38.80026  25432357.25526      1951.00326        38.80026
E16  26207389.11226      2354.43826        36.70026  26205478.23426      1758.13426        37.60026
E24  24665426.09027      1596.28427        41.50027  24663510.11726      1192.06226        38.50026
E25  28452585.79425      2589.94125        34.20025  28450658.72826      1934.05026        40.90026
E26  26917966.78923     -2514.05023        22.40023  26916061.30825     -1877.59525        33.90025
E31  23600494.32726      -810.59526        38.20026  23598576.55525      -605.35325        29.80025
E33  23964905.85025      -216.15825        33.50025  23962988.37824      -161.29224        24.90024
E23                                                  27048021.25424     -1810.45424        28.60024
C38                                                  39316388.74025       359.55825        33.40025  39318299.01725       481.27725        31.70025
> 2025 05 03 08 23 08.4104890  0 34                      
G04  25016625.42626      -458.26826        37.80026  25014271.45626      -342.18626        38.00026
G05  23659325.26624      1205.60024        28.20024                                                
G16  23482244.15626      3309.43126        37.80026                                                
G18  21422716.73726      2202.06326        39.40026  21420361.56827      1644.45727        42.10027
G20  24446540.68825     -1185.93825        30.20025                                                
G25  22583654.33724     -3106.05024        23.90024                                                
G26  21501072.59327      2279.73227        41.70027  21498718.62226      1702.51226        39.50026
G28  21873666.95125     -2383.17125        34.90025  21871324.07327     -1779.70627        44.50027
G29  21019056.38627     -1656.12027        41.80027                                                
G31  21291871.42027      -833.07727        42.70027                                                
R10  20219567.16126      2481.72326        35.90026
R18  22904173.24625     -4071.43925        34.80025
R09  19189199.66926      -980.31726        41.00026
R16  22716308.00323     -3903.95023        23.20023
R20  20353823.81724      2811.95024        27.40024
R19  19839191.08925     -2163.21125        30.00025
C45  21893406.18627      -977.10827        43.80027  21891518.99226      -736.38626        37.10026  21893441.86127      -985.97727        46.50027
C38  39318151.48624       476.40024        24.30024  39316296.07025       360.24825        32.80025  39318212.04425       482.67325        31.80025
C36  24424251.11824     -3105.95024        26.70024  24422374.11825     -2340.03425        29.90025  24424291.59024     -3133.42324        27.60024
C35  23644381.51127      2586.72527        46.60027  23642502.71224      1949.46524        28.60024  23644414.78828      2610.52728        48.10028
C30  24561429.55225     -2834.90225        31.80025  24559537.26224     -2136.37624        26.90024  24561471.22326     -2860.86726        36.00026
C29  21471054.97426      -467.45026        40.90026  21469172.57724      -352.14524        28.40024  21471085.85226      -471.57726        40.90026
C26  23580949.92427      2216.51327        45.60027  23579060.03226      1670.41926        37.40026  23580978.10426      2237.03526        40.10026
E03  28180161.65626      -177.74326        37.60026  28178245.98226      -132.67226        40.60026
E05  26327819.90526     -2073.78926        37.60026  26325909.62826     -1548.64126        37.30026
E10  26944036.40723      3189.27623        23.40023  26942091.05424      2381.61624        27.90024
E12  25433774.94026      2613.20026        39.30026  25431860.46526      1951.38626        38.40026
E16  26206943.88626      2355.38226        36.90026  26205030.61026      1759.01026        38.20026
E24  24665122.96627      1597.10627        41.90027  24663205.79426      1192.69826        38.00026
E25  28452089.60426      2590.95726        35.50026  28450164.63626      1934.90926        40.40026
E26  26918457.51524     -2513.31224        26.60024  26916539.44325     -1876.88025        33.50025
E31  23600651.68426      -809.85326        38.40026  23598732.11325      -604.71825        30.60025
E33  23964947.48825      -215.48525        34.30025  23963031.51424      -160.79124        26.70024
E23                                                  27048482.30125     -1809.79825        29.50025
> 2025 05 03 08 23 09.4104890  0 34                      
G04  25016707.03826      -459.92026        37.20026  25014358.16426      -343.34426        36.90026
G05  23659124.77325      1204.46025        31.20025                                                
G16  23481608.06526      3308.36226        38.10026                                                
G18  21422297.99626      2200.56626        38.40026  21419941.92726      1643.45826        39.40026
G20  24446752.71024     -1191.20024        24.90024                                                
G25  22584248.59424     -3107.15024        23.50024  22581896.72323     -2319.30023        23.40023
G26  21500646.65627      2278.39127        43.40027  21498285.79126      1701.59126        40.50026
G28  21874127.50125     -2384.70325        33.80025  21871776.82827     -1780.66827        44.00027
G29  21019367.63926     -1657.55926        41.40026                                                
G31  21292025.28227      -834.64627        43.00027                                                
R10  20219120.53826      2480.08526        35.90026
R18  22904935.38725     -4072.78725        29.70025
R09  19189404.19626      -982.12926        38.90026
R16  22716968.81423     -3902.40023        21.90023
R20  20353316.33725      2809.15025        31.20025
R19  19839612.96624     -2163.60024        28.40024
C45  21893589.72827      -978.56027        41.60027  21891706.73125      -737.11825        34.00025  21893631.39927      -987.26927        45.00027
C38  39318061.01724       477.75024        27.50024  39316205.90124       359.32124        28.70024  39318119.47725       481.22625        30.60025
C36  24424860.66524     -3102.95024        26.70024  24422970.47424     -2340.64724        29.30024  24424874.75524     -3134.39024        29.00024
C35  23643884.22427      2585.55827        45.80027  23642003.32624      1948.94724        24.70024  23643916.90127      2609.51827        47.10027
C30  24561966.54925     -2836.29325        31.00025  24560128.52123     -2136.65023        20.90023  24562008.81926     -2862.05826        36.10026
C29  21471138.08525      -468.89725        34.40025                                                  21471170.46225      -472.94125        34.70025
C26  23580522.18827      2215.21827        44.90027  23578633.19626      1669.56526        38.10026  23580555.76527      2235.68227        43.90027
E03  28180193.20226      -179.15426        37.40026  28178279.92726      -133.70826        39.70026
E05  26328215.70025     -2074.71725        35.00025  26326304.52326     -1549.28626        38.70026
E12  25433274.95426      2612.02526        38.60026  25431363.77826      1950.56226        37.80026
E16  26206497.26426      2354.45226        37.60026  26204581.89026      1758.19826        39.90026
E24  24664805.55526      1596.09126        39.50026  24662901.87326      1191.89626        38.50026
E25  28451586.62126      2590.23226        37.10026  28449672.14626      1934.33126        40.70026
E26  26918942.04924     -2514.87624        25.90024  26917018.28025     -1878.04225        31.90025
E31  23600813.64126      -811.07926        36.90026  23598882.37824      -606.80024        23.80024
E33  23964991.92626      -216.86526        35.60026  23963071.15525      -161.79325        30.80025
E10                                                  26941485.24224      2380.94924        26.60024
E23                                                  27048944.05024     -1810.68224        28.60024
> 2025 05 03 08 23 10.4104890  0 33                      
G04  25016793.18925      -464.55825        34.90025  25014445.51426      -346.71226        35.90026
G05  23658898.54025      1199.86125        30.10025                                                
G16  23480978.91126      3304.25626        36.00026                                                
G18  21421871.20226      2196.07526        37.30026  21419523.52726      1640.08326        39.20026
G20  24446989.05624     -1195.30024        25.80024                                                
G25  22584845.59123     -3109.40023        23.10023                                                
G26  21500216.26427      2274.07727        43.00027  21497852.40126      1698.37126        39.60026
G28  21874583.59525     -2389.27925        33.30025  21872231.12427     -1784.01827        43.20027
G29  21019690.32626     -1661.75026        40.80026                                                
G31  21292189.07927      -839.31527        43.30027                                                
R10  20218645.17825      2475.54725        34.40025
R18  22905714.65824     -4077.60024        28.50024
R09  19189591.97626      -986.84426        38.50026
R20  20352763.33025      2804.50825        29.70025
R19  19840019.29524     -2170.05024        26.50024
C45  21893777.50827      -982.98127        41.50027  21891895.11125      -740.45625        33.30025  21893819.17927      -991.72027        45.20027
C38  39317948.40524       474.15024        23.90024  39316113.67525       356.49525        30.60025  39318024.55225       477.06825        30.80025
C36  24425461.55924     -3105.60024        25.00024  24423567.17124     -2343.81724        27.80024  24425477.74824     -3138.35024        25.80024
C35  23643387.57827      2581.30327        46.10027  23641508.17923      1944.20023        22.40023  23643421.75427      2605.23727        47.10027
C30  24562519.77625     -2840.29825        30.60025  24560625.98724     -2140.45224        24.10024  24562564.14525     -2865.95125        34.10025
C29  21471228.43226      -473.20826        35.70026  21469352.63124      -356.70024        25.00024  21471266.20626      -477.28126        35.80026
C26  23580096.59327      2210.91127        44.70027  23578208.20126      1666.41926        36.80026  23580131.06927      2231.47327        42.40027
E03  28180228.38826      -183.52026        35.90026  28178314.51326      -136.97926        39.60026
E05  26328609.73725     -2079.14525        35.30025  26326700.05926     -1552.53326        38.10026
E12  25432779.80726      2607.71326        38.30026  25430866.53226      1947.37926        37.20026
E16  26206046.78626      2350.40826        37.40026  26204133.51026      1755.20026        38.20026
E24  24664504.07426      1591.91426        39.40026  24662597.99326      1188.83126        37.90026
E25  28451097.17026      2586.30326        36.90026  28449179.39726      1931.38426        39.70026
E26  26919403.23924     -2518.97324        24.20024  26917496.85925     -1881.02125        32.60025
E31  23600962.14826      -815.27726        35.60026  23599040.47924      -608.74624        27.40024
E33  23965025.61225      -221.29825        32.20025  23963109.33924      -165.23624        28.10024
E10                                                  26940877.97324      2377.74124        26.80024
E23                                                  27049404.94124     -1813.55624        27.40024
> 2025 05 03 08 23 11.4104890  0 33                      
G04  25016873.89425      -464.64825        34.10025  25014534.31426      -346.95326        37.00026
G05  23658668.06125      1199.80625        31.30025                                                
G16  23480352.10626      3304.54526        38.80026                                                
G18  21421453.95226      2196.02626        37.90026  21419105.67826      1639.88526        39.70026
G20  24447166.59523     -1192.90023        22.10023                                                
G26  21499780.42827      2274.18827        43.20027  21497419.56226      1698.18926        40.00026
G28  21875032.44625     -2389.28425        35.20025  21872686.27027     -1784.22827        43.60027
G29  21020007.86726     -1661.63526        40.80026                                                
G31  21292342.63427      -839.53627        43.60027                                                
R10  20218161.67425      2475.57425        33.50025
R18  22906472.89524     -4076.45024        27.00024
R09  19189754.22526      -987.05026        37.60026
R20  20352270.53225      2804.37625        31.90025
R19  19840375.51024     -2167.85024        27.00024
C45  21893965.23927      -983.01927        41.50027  21892084.04125      -740.72325        29.90025  21894008.10927      -992.10227        44.80027
C36  24426051.31224     -3102.75024        23.50024  24424166.51724     -2343.74524        26.40024  24426071.69824     -3139.05024        25.80024
C35  23642891.78327      2581.50527        45.30027  23641009.38623      1945.40023        22.20023  23642924.76027      2605.11227        47.00027
C30  24563056.76625     -2839.83325        30.30025  24561171.67123     -2140.20023        21.90023  24563102.93425     -2866.13625        33.50025
C29  21471324.72725      -472.66425        32.30025  21469444.42924      -356.47724        23.90024  21471354.70625      -477.73525        32.40025
