NMEA,$GPGSV,3,1,10,04,05,315,37,05,19,075,29,16,18,299,36,18,54,169,39,1*64,1746260558008
NMEA,$GPGSV,3,2,10,20,12,040,33,25,31,119,25,26,45,302,41,28,44,215,47,1*64,1746260558008
NMEA,$GPGSV,3,3,10,29,58,052,34,31,52,256,42,1*61,1746260558008
NMEA,$GPGSV,2,1,05,04,05,315,41,18,54,169,42,25,31,119,24,26,45,302,39,8*6C,1746260558008
NMEA,$GPGSV,2,2,05,28,44,215,33,8*54,1746260558008
NMEA,$GLGSV,2,1,06,74,53,322,30,82,16,035,33,73,75,140,41,80,18,139,19,1*77,1746260558008
NMEA,$GLGSV,2,2,06,84,49,212,37,83,59,036,21,1*7B,1746260558008
NMEA,$GAGSV,3,1,11,03,07,320,31,05,10,272,33,10,20,191,19,12,41,177,38,7*7B,1746260558008
NMEA,$GAGSV,3,2,11,16,26,300,35,24,53,304,37,25,04,297,37,26,19,039,26,7*7E,1746260558008
NMEA,$GAGSV,3,3,11,31,68,098,37,33,58,082,28,23,17,113,,7*43,1746260558008
NMEA,$GAGSV,3,1,11,03,07,320,38,05,10,272,40,10,20,191,21,12,41,177,36,1*75,1746260558008
NMEA,$GAGSV,3,2,11,16,26,300,37,23,17,113,26,24,53,304,40,25,04,297,42,1*7A,1746260558008
NMEA,$GAGSV,3,3,11,26,19,039,37,31,68,098,34,33,58,082,33,1*4A,1746260558008
NMEA,$GBGSV,3,1,10,45,71,192,43,38,22,049,26,36,26,149,34,35,35,229,44,1*7E,1746260558008
NMEA,$GBGSV,3,2,10,30,25,053,32,29,80,067,42,26,38,306,36,13,28,079,26,1*7C,1746260558008
NMEA,$GBGSV,3,3,10,08,27,060,25,05,17,120,,1*7B,1746260558008
NMEA,$GBGSV,2,1,07,26,38,306,46,29,80,067,42,30,25,053,28,35,35,229,45,3*7C,1746260558008
NMEA,$GBGSV,2,2,07,36,26,149,35,38,22,049,27,45,71,192,45,3*47,1746260558008
NMEA,$GBGSV,2,1,07,26,38,306,37,29,80,067,35,30,25,053,26,35,35,229,33,5*73,1746260558008
NMEA,$GBGSV,2,2,07,36,26,149,20,38,22,049,33,45,71,192,41,5*44,1746260558008
NMEA,$GNGSA,A,3,04,05,16,18,20,25,26,28,29,31,,,0.6,0.3,0.5,1*3C,1746260558035
NMEA,$GNGSA,A,3,73,74,82,83,84,,,,,,,,0.6,0.3,0.5,2*38,1746260558035
NMEA,$GNGSA,A,3,03,05,10,12,16,23,24,26,31,33,,,0.6,0.3,0.5,3*31,1746260558035
NMEA,$GNGSA,A,3,08,13,26,29,30,35,36,38,45,,,,0.6,0.3,0.5,4*3B,1746260558035
NMEA,$GNVTG,,T,,M,0.0,N,0.0,K,A*3D,1746260558035
NMEA,$GNDTM,P90,,0000.000026,S,00000.000000,E,0.978,W84*5C,1746260558035
NMEA,$GNRMC,082238.00,A,4503.590970,N,00741.837416,E,0.0,,030525,3.3,E,A,V*70,1746260558035
NMEA,$GNGNS,082238.00,4503.590970,N,00741.837416,E,AAAANN,34,0.3,284.8,48.0,,,V*22,1746260558035
NMEA,$GNGGA,082238.00,4503.590970,N,00741.837416,E,1,12,0.3,284.8,M,48.0,M,,*76,1746260558035
NMEA,$GPGSV,3,1,10,04,05,315,29,05,19,075,24,16,18,299,34,18,54,169,37,1*6A,1746260559011
NMEA,$GPGSV,3,2,10,20,12,040,31,25,31,119,25,26,45,302,31,28,44,215,43,1*65,1746260559011
NMEA,$GPGSV,3,3,10,29,58,052,33,31,52,256,37,1*64,1746260559011
NMEA,$GPGSV,2,1,05,04,05,315,37,18,54,169,41,25,31,119,24,26,45,302,39,8*6E,1746260559011
NMEA,$GPGSV,2,2,05,28,44,215,38,8*5F,1746260559011
NMEA,$GLGSV,2,1,06,74,53,322,28,82,16,035,29,73,75,140,40,80,18,139,19,1*74,1746260559011
NMEA,$GLGSV,2,2,06,84,49,212,30,83,59,036,21,1*7C,1746260559011
NMEA,$GAGSV,3,1,11,03,07,320,28,05,10,272,29,10,20,191,18,12,41,177,34,7*75,1746260559011
NMEA,$GAGSV,3,2,11,16,26,300,32,23,17,113,29,24,53,304,33,25,04,297,32,7*75,1746260559011
NMEA,$GAGSV,3,3,11,26,19,039,22,31,68,098,37,33,58,082,32,7*4A,1746260559011
NMEA,$GAGSV,3,1,11,03,07,320,32,05,10,272,40,10,20,191,20,12,41,177,35,1*7D,1746260559011
NMEA,$GAGSV,3,2,11,16,26,300,34,23,17,113,29,24,53,304,39,25,04,297,40,1*7A,1746260559011
NMEA,$GAGSV,3,3,11,26,19,039,33,31,68,098,32,33,58,082,34,1*4F,1746260559011
NMEA,$GBGSV,3,1,10,45,71,192,46,38,22,049,32,36,26,149,23,35,35,229,44,1*78,1746260559011
NMEA,$GBGSV,3,2,10,30,25,053,28,29,80,067,42,26,38,306,35,13,28,079,31,1*72,1746260559011
NMEA,$GBGSV,3,3,10,05,17,120,,08,27,060,,1*7C,1746260559011
NMEA,$GBGSV,2,1,07,26,38,306,41,29,80,067,43,30,25,053,29,35,35,229,46,3*78,1746260559011
NMEA,$GBGSV,2,2,07,36,26,149,25,38,22,049,31,45,71,192,49,3*4D,1746260559011
NMEA,$GBGSV,2,1,07,26,38,306,36,29,80,067,29,30,25,053,24,35,35,229,20,5*7F,1746260559011
NMEA,$GBGSV,2,2,07,36,26,149,20,38,22,049,25,45,71,192,39,5*4C,1746260559011
NMEA,$GNGSA,A,3,04,05,16,18,20,25,26,28,29,31,,,0.6,0.3,0.5,1*3C,1746260559027
NMEA,$GNGSA,A,3,73,74,82,83,84,,,,,,,,0.6,0.3,0.5,2*38,1746260559027
NMEA,$GNGSA,A,3,03,05,10,12,16,23,24,26,31,33,,,0.6,0.3,0.5,3*31,1746260559027
NMEA,$GNGSA,A,3,08,13,26,29,30,35,36,38,45,,,,0.6,0.3,0.5,4*3B,1746260559027
NMEA,$GNVTG,,T,,M,0.0,N,0.0,K,A*3D,1746260559027
NMEA,$GNDTM,P90,,0000.000026,S,00000.000000,E,0.978,W84*5C,1746260559027
NMEA,$GNRMC,082239.00,A,4503.591030,N,00741.837258,E,0.0,,030525,3.3,E,A,V*71,1746260559027
NMEA,$GNGNS,082239.00,4503.591030,N,00741.837258,E,AAAANN,34,0.3,284.6,48.0,,,V*2D,1746260559027
NMEA,$GNGGA,082239.00,4503.591030,N,00741.837258,E,1,12,0.3,284.6,M,48.0,M,,*79,1746260559027
NMEA,$GPGSV,3,1,10,04,05,315,32,16,18,299,34,18,54,169,39,20,12,040,32,1*63,1746260560007
NMEA,$GPGSV,3,2,10,25,31,119,20,26,45,302,34,28,44,215,44,29,58,052,37,1*60,1746260560007
NMEA,$GPGSV,3,3,10,31,52,256,37,05,19,075,,1*6A,1746260560007
NMEA,$GPGSV,2,1,05,04,05,315,38,18,54,169,43,25,31,119,24,26,45,302,40,8*6D,1746260560007
NMEA,$GPGSV,2,2,05,28,44,215,40,8*50,1746260560007
NMEA,$GLGSV,2,1,06,74,53,322,27,82,16,035,26,73,75,140,42,80,18,139,26,1*7A,1746260560007
NMEA,$GLGSV,2,2,06,84,49,212,33,83,59,036,22,1*7C,1746260560007
NMEA,$GAGSV,3,1,11,03,07,320,33,05,10,272,32,10,20,191,22,12,41,177,35,7*7D,1746260560007
NMEA,$GAGSV,3,2,11,16,26,300,35,23,17,113,29,24,53,304,33,25,04,297,31,7*71,1746260560007
NMEA,$GAGSV,3,3,11,26,19,039,23,31,68,098,38,33,58,082,35,7*43,1746260560007
NMEA,$GAGSV,3,1,11,03,07,320,32,05,10,272,41,10,20,191,21,12,41,177,37,1*7F,1746260560007
NMEA,$GAGSV,3,2,11,16,26,300,33,23,17,113,26,24,53,304,40,25,04,297,39,1*72,1746260560007
NMEA,$GAGSV,3,3,11,26,19,039,32,31,68,098,29,33,58,082,32,1*42,1746260560007
NMEA,$GBGSV,3,1,10,45,71,192,46,38,22,049,31,36,26,149,31,35,35,229,44,1*78,1746260560007
NMEA,$GBGSV,3,2,10,30,25,053,30,29,80,067,42,26,38,306,40,13,28,079,29,1*70,1746260560007
NMEA,$GBGSV,3,3,10,05,17,120,,08,27,060,,1*7C,1746260560007
NMEA,$GBGSV,2,1,07,26,38,306,43,29,80,067,43,30,25,053,30,35,35,229,47,3*73,1746260560007
NMEA,$GBGSV,2,2,07,36,26,149,33,38,22,049,30,45,71,192,49,3*4B,1746260560007
NMEA,$GBGSV,2,1,07,26,38,306,36,29,80,067,26,30,25,053,25,35,35,229,26,5*77,1746260560007
NMEA,$GBGSV,2,2,07,36,26,149,18,38,22,049,27,45,71,192,37,5*4B,1746260560007
NMEA,$GNGSA,A,3,04,05,16,18,20,25,26,28,29,31,,,0.6,0.3,0.5,1*3C,1746260560027
NMEA,$GNGSA,A,3,73,74,82,83,84,,,,,,,,0.6,0.3,0.5,2*38,1746260560027
NMEA,$GNGSA,A,3,03,05,10,12,16,23,24,26,31,33,,,0.6,0.3,0.5,3*31,1746260560027
NMEA,$GNGSA,A,3,08,13,26,29,30,35,36,38,45,,,,0.6,0.3,0.5,4*3B,1746260560027
NMEA,$GNVTG,,T,,M,0.0,N,0.0,K,A*3D,1746260560027
NMEA,$GNDTM,P90,,0000.000026,S,00000.000000,E,0.978,W84*5C,1746260560027
NMEA,$GNRMC,082240.00,A,4503.591066,N,00741.837087,E,0.0,,030525,3.3,E,A,V*7C,1746260560027
NMEA,$GNGNS,082240.00,4503.591066,N,00741.837087,E,AAAANN,34,0.3,284.7,48.0,,,V*21,1746260560027
NMEA,$GNGGA,082240.00,4503.591066,N,00741.837087,E,1,12,0.3,284.7,M,48.0,M,,*75,1746260560027
NMEA,$GPGSV,3,1,10,04,05,315,35,16,18,299,32,18,54,169,40,20,12,040,34,1*6A,1746260561011
NMEA,$GPGSV,3,2,10,25,31,119,28,26,45,302,41,28,44,215,45,29,58,052,37,1*6B,1746260561011
NMEA,$GPGSV,3,3,10,31,52,256,42,05,19,075,,1*68,1746260561011
NMEA,$GPGSV,2,1,05,04,05,315,40,18,54,169,43,25,31,119,19,26,45,302,38,8*63,1746260561011
NMEA,$GPGSV,2,2,05,28,44,215,33,8*54,1746260561011
NMEA,$GLGSV,2,1,06,74,53,322,35,82,16,035,34,73,75,140,39,80,18,139,26,1*76,1746260561011
NMEA,$GLGSV,2,2,06,84,49,212,36,83,59,036,22,1*79,1746260561011
NMEA,$GAGSV,3,1,11,03,07,320,36,05,10,272,36,10,20,191,22,12,41,177,36,7*7F,1746260561011
NMEA,$GAGSV,3,2,11,16,26,300,34,24,53,304,38,25,04,297,35,26,19,039,28,7*7C,1746260561011
NMEA,$GAGSV,3,3,11,31,68,098,35,33,58,082,31,23,17,113,,7*49,1746260561011
NMEA,$GAGSV,3,1,11,03,07,320,37,05,10,272,42,10,20,191,21,12,41,177,35,1*7B,1746260561011
NMEA,$GAGSV,3,2,11,16,26,300,31,23,17,113,26,24,53,304,39,25,04,297,42,1*72,1746260561011
NMEA,$GAGSV,3,3,11,26,19,039,35,31,68,098,31,33,58,082,32,1*4C,1746260561011
NMEA,$GBGSV,3,1,10,45,71,192,34,38,22,049,31,36,26,149,25,35,35,229,41,1*7D,1746260561011
NMEA,$GBGSV,3,2,10,30,25,053,31,29,80,067,41,26,38,306,42,13,28,079,29,1*70,1746260561011
NMEA,$GBGSV,3,3,10,08,27,060,28,05,17,120,,1*76,1746260561011
NMEA,$GBGSV,2,1,07,26,38,306,47,29,80,067,40,30,25,053,27,35,35,229,44,3*71,1746260561011
NMEA,$GBGSV,2,2,07,36,26,149,24,38,22,049,24,45,71,192,40,3*41,1746260561011
NMEA,$GBGSV,2,1,07,26,38,306,35,29,80,067,34,30,25,053,30,35,35,229,33,5*77,1746260561011
NMEA,$GBGSV,2,2,07,36,26,149,18,38,22,049,31,45,71,192,40,5*4C,1746260561011
NMEA,$GNGSA,A,3,04,05,16,18,20,25,26,28,29,31,,,0.6,0.3,0.5,1*3C,1746260561040
NMEA,$GNGSA,A,3,73,74,82,83,84,,,,,,,,0.6,0.3,0.5,2*38,1746260561040
NMEA,$GNGSA,A,3,03,05,10,12,16,23,24,26,31,33,,,0.6,0.3,0.5,3*31,1746260561040
NMEA,$GNGSA,A,3,08,13,26,29,30,35,36,38,45,,,,0.6,0.3,0.5,4*3B,1746260561040
NMEA,$GNVTG,,T,,M,0.0,N,0.0,K,A*3D,1746260561040
NMEA,$GNDTM,P90,,0000.000026,S,00000.000000,E,0.978,W84*5C,1746260561040
NMEA,$GNRMC,082241.00,A,4503.591170,N,00741.837255,E,0.0,,030525,3.3,E,A,V*76,1746260561040
NMEA,$GNGNS,082241.00,4503.591170,N,00741.837255,E,AAAANN,34,0.3,284.7,48.0,,,V*2B,1746260561040
NMEA,$GNGGA,082241.00,4503.591170,N,00741.837255,E,1,12,0.3,284.7,M,48.0,M,,*7F,1746260561040
NMEA,$GPGSV,3,1,10,04,05,315,37,05,19,075,27,16,18,299,32,18,54,169,40,1*60,1746260562016
NMEA,$GPGSV,3,2,10,20,12,040,35,25,31,119,25,26,45,302,42,28,44,215,45,1*63,1746260562016
NMEA,$GPGSV,3,3,10,29,58,052,21,31,52,256,43,1*64,1746260562016
NMEA,$GPGSV,2,1,05,04,05,315,40,18,54,169,41,25,31,119,20,26,45,302,37,8*64,1746260562016
NMEA,$GPGSV,2,2,05,28,44,215,30,8*57,1746260562016
NMEA,$GLGSV,2,1,06,74,53,322,36,82,16,035,36,73,75,140,41,80,18,139,26,1*78,1746260562016
NMEA,$GLGSV,2,2,06,84,49,212,36,83,59,036,22,1*79,1746260562016
NMEA,$GAGSV,3,1,11,03,07,320,36,05,10,272,36,10,20,191,22,12,41,177,37,7*7E,1746260562016
NMEA,$GAGSV,3,2,11,16,26,300,37,24,53,304,41,25,04,297,35,26,19,039,33,7*7B,1746260562016
NMEA,$GAGSV,3,3,11,31,68,098,35,33,58,082,30,23,17,113,,7*48,1746260562016
NMEA,$GAGSV,3,1,11,03,07,320,37,05,10,272,39,10,20,191,21,12,41,177,31,1*73,1746260562016
NMEA,$GAGSV,3,2,11,16,26,300,33,23,17,113,26,24,53,304,38,25,04,297,41,1*72,1746260562016
NMEA,$GAGSV,3,3,11,26,19,039,34,31,68,098,30,33,58,082,32,1*4C,1746260562016
NMEA,$GBGSV,3,1,10,45,71,192,39,38,22,049,30,36,26,149,26,35,35,229,42,1*71,1746260562016
NMEA,$GBGSV,3,2,10,30,25,053,30,29,80,067,42,26,38,306,42,13,28,079,30,1*7A,1746260562016
NMEA,$GBGSV,3,3,10,08,27,060,27,05,17,120,,1*79,1746260562016
NMEA,$GBGSV,2,1,07,26,38,306,46,29,80,067,43,30,25,053,25,35,35,229,43,3*76,1746260562016
NMEA,$GBGSV,2,2,07,36,26,149,27,38,22,049,24,45,71,192,42,3*40,1746260562016
NMEA,$GBGSV,2,1,07,26,38,306,35,29,80,067,33,30,25,053,26,35,35,229,31,5*75,1746260562016
NMEA,$GBGSV,2,2,07,36,26,149,18,38,22,049,28,45,71,192,37,5*44,1746260562016
NMEA,$GNGSA,A,3,04,05,16,18,20,25,26,28,29,31,,,0.6,0.3,0.5,1*3C,1746260562043
NMEA,$GNGSA,A,3,73,74,82,83,84,,,,,,,,0.6,0.3,0.5,2*38,1746260562043
NMEA,$GNGSA,A,3,03,05,10,12,16,23,24,26,31,33,,,0.6,0.3,0.5,3*31,1746260562043
NMEA,$GNGSA,A,3,08,13,26,29,30,35,36,38,45,,,,0.6,0.3,0.5,4*3B,1746260562043
NMEA,$GNVTG,,T,,M,0.0,N,0.0,K,A*3D,1746260562043
NMEA,$GNDTM,P90,,0000.000026,S,00000.000000,E,0.978,W84*5C,1746260562043
NMEA,$GNRMC,082242.00,A,4503.591139,N,00741.837251,E,0.0,,030525,3.3,E,A,V*7C,1746260562043
NMEA,$GNGNS,082242.00,4503.591139,N,00741.837251,E,AAAANN,34,0.3,284.8,48.0,,,V*2E,1746260562043
NMEA,$GNGGA,082242.00,4503.591139,N,00741.837251,E,1,12,0.3,284.8,M,48.0,M,,*7A,1746260562043
NMEA,$GPGSV,3,1,10,04,05,315,39,05,19,075,27,16,18,299,28,18,54,169,37,1*65,1746260563009
NMEA,$GPGSV,3,2,10,20,12,040,31,25,31,119,27,26,45,302,46,28,44,215,46,1*62,1746260563009
NMEA,$GPGSV,3,3,10,29,58,052,35,31,52,256,46,1*64,1746260563009
NMEA,$GPGSV,2,1,05,04,05,315,42,18,54,169,41,25,31,119,22,26,45,302,39,8*6A,1746260563009
NMEA,$GPGSV,2,2,05,28,44,215,32,8*55,1746260563009
NMEA,$GLGSV,2,1,06,74,53,322,35,82,16,035,31,73,75,140,31,80,18,139,24,1*79,1746260563009
NMEA,$GLGSV,2,2,06,84,49,212,36,83,59,036,19,1*71,1746260563009
NMEA,$GAGSV,3,1,11,03,07,320,36,05,10,272,37,10,20,191,22,12,41,177,37,7*7F,1746260563009
NMEA,$GAGSV,3,2,11,16,26,300,36,24,53,304,41,25,04,297,34,26,19,039,30,7*78,1746260563009
NMEA,$GAGSV,3,3,11,31,68,098,30,33,58,082,29,23,17,113,,7*45,1746260563009
NMEA,$GAGSV,3,1,11,03,07,320,42,05,10,272,41,10,20,191,19,12,41,177,30,1*74,1746260563009
NMEA,$GAGSV,3,2,11,16,26,300,40,23,17,113,24,24,53,304,40,25,04,297,42,1*78,1746260563009
NMEA,$GAGSV,3,3,11,26,19,039,38,31,68,098,34,33,58,082,26,1*41,1746260563009
NMEA,$GBGSV,3,1,10,45,71,192,35,38,22,049,32,36,26,149,28,35,35,229,42,1*71,1746260563009
NMEA,$GBGSV,3,2,10,30,25,053,28,29,80,067,34,26,38,306,36,13,28,079,29,1*79,1746260563009
NMEA,$GBGSV,3,3,10,08,27,060,27,05,17,120,,1*79,1746260563009
NMEA,$GBGSV,2,1,07,26,38,306,46,29,80,067,36,30,25,053,29,35,35,229,44,3*7F,1746260563009
NMEA,$GBGSV,2,2,07,36,26,149,30,38,22,049,27,45,71,192,35,3*45,1746260563009
NMEA,$GBGSV,2,1,07,26,38,306,38,29,80,067,35,30,25,053,33,35,35,229,38,5*73,1746260563009
NMEA,$GBGSV,2,2,07,36,26,149,17,38,22,049,35,45,71,192,39,5*49,1746260563009
NMEA,$GNGSA,A,3,04,05,16,18,20,25,26,28,29,31,,,0.6,0.3,0.5,1*3C,1746260563036
NMEA,$GNGSA,A,3,73,74,82,83,84,,,,,,,,0.6,0.3,0.5,2*38,1746260563036
NMEA,$GNGSA,A,3,03,05,10,12,16,23,24,26,31,33,,,0.6,0.3,0.5,3*31,1746260563036
NMEA,$GNGSA,A,3,08,13,26,29,30,35,36,38,45,,,,0.6,0.3,0.5,4*3B,1746260563036
NMEA,$GNVTG,,T,,M,0.0,N,0.0,K,A*3D,1746260563036
NMEA,$GNDTM,P90,,0000.000026,S,00000.000000,E,0.978,W84*5C,1746260563036
NMEA,$GNRMC,082243.00,A,4503.591215,N,00741.837401,E,0.0,,030525,3.3,E,A,V*73,1746260563036
NMEA,$GNGNS,082243.00,4503.591215,N,00741.837401,E,AAAANN,34,0.3,284.3,48.0,,,V*2A,1746260563036
NMEA,$GNGGA,082243.00,4503.591215,N,00741.837401,E,1,12,0.3,284.3,M,48.0,M,,*7E,1746260563036
NMEA,$GPGSV,3,1,10,04,05,315,36,05,19,075,23,16,18,299,36,18,54,169,37,1*61,1746260564005
NMEA,$GPGSV,3,2,10,20,12,040,27,25,31,119,24,26,45,302,37,28,44,215,40,1*66,1746260564005
NMEA,$GPGSV,3,3,10,29,58,052,36,31,52,256,40,1*61,1746260564005
NMEA,$GPGSV,2,1,05,04,05,315,39,18,54,169,42,25,31,119,21,26,45,302,37,8*68,1746260564005
NMEA,$GPGSV,2,2,05,28,44,215,39,8*5E,1746260564005
NMEA,$GLGSV,2,1,06,74,53,322,34,82,16,035,31,73,75,140,39,80,18,139,24,1*70,1746260564005
NMEA,$GLGSV,2,2,06,84,49,212,26,83,59,036,23,1*79,1746260564005
NMEA,$GAGSV,3,1,11,03,07,320,33,05,10,272,35,10,20,191,22,12,41,177,36,7*79,1746260564005
NMEA,$GAGSV,3,2,11,16,26,300,34,24,53,304,38,25,04,297,34,26,19,039,24,7*71,1746260564005
NMEA,$GAGSV,3,3,11,31,68,098,37,33,58,082,33,23,17,113,,7*49,1746260564005
NMEA,$GAGSV,3,1,11,03,07,320,39,05,10,272,38,10,20,191,23,12,41,177,36,1*79,1746260564005
NMEA,$GAGSV,3,2,11,16,26,300,36,23,17,113,27,24,53,304,37,25,04,297,40,1*78,1746260564005
NMEA,$GAGSV,3,3,11,26,19,039,34,31,68,098,33,33,58,082,27,1*4B,1746260564005
NMEA,$GBGSV,3,1,10,45,71,192,42,38,22,049,27,36,26,149,27,35,35,229,44,1*7C,1746260564005
NMEA,$GBGSV,3,2,10,30,25,053,29,29,80,067,43,26,38,306,41,13,28,079,23,1*72,1746260564005
NMEA,$GBGSV,3,3,10,08,27,060,27,05,17,120,,1*79,1746260564005
NMEA,$GBGSV,2,1,07,26,38,306,39,29,80,067,43,30,25,053,29,35,35,229,45,3*74,1746260564005
NMEA,$GBGSV,2,2,07,36,26,149,28,38,22,049,26,45,71,192,44,3*4B,1746260564005
NMEA,$GBGSV,2,1,07,26,38,306,36,29,80,067,33,30,25,053,31,35,35,229,32,5*73,1746260564005
NMEA,$GBGSV,2,2,07,36,26,149,28,38,22,049,34,45,71,192,38,5*45,1746260564005
NMEA,$GNGSA,A,3,04,05,16,18,20,25,26,28,29,31,,,0.6,0.3,0.5,1*3C,1746260564015
NMEA,$GNGSA,A,3,73,74,82,83,84,,,,,,,,0.6,0.3,0.5,2*38,1746260564015
NMEA,$GNGSA,A,3,03,05,10,12,16,23,24,26,31,33,,,0.6,0.3,0.5,3*31,1746260564015
NMEA,$GNGSA,A,3,08,13,26,29,30,35,36,38,45,,,,0.6,0.3,0.5,4*3B,1746260564015
NMEA,$GNVTG,,T,,M,0.0,N,0.0,K,A*3D,1746260564015
NMEA,$GNDTM,P90,,0000.000026,S,00000.000000,E,0.978,W84*5C,1746260564015
NMEA,$GNRMC,082244.00,A,4503.591083,N,00741.837371,E,0.0,,030525,3.3,E,A,V*79,1746260564015
NMEA,$GNGNS,082244.00,4503.591083,N,00741.837371,E,AAAANN,34,0.3,284.0,48.0,,,V*23,1746260564015
NMEA,$GNGGA,082244.00,4503.591083,N,00741.837371,E,1,12,0.3,284.0,M,48.0,M,,*77,1746260564015
NMEA,$GPGSV,3,1,10,04,05,315,35,05,19,075,29,16,18,299,39,18,54,169,38,1*68,1746260565006
NMEA,$GPGSV,3,2,10,20,12,040,27,25,31,119,21,26,45,302,37,28,44,215,37,1*63,1746260565006
NMEA,$GPGSV,3,3,10,29,58,052,41,31,52,256,41,1*60,1746260565006
NMEA,$GPGSV,2,1,05,04,05,315,36,18,54,169,39,25,31,119,23,26,45,302,39,8*67,1746260565006
NMEA,$GPGSV,2,2,05,28,44,215,39,8*5E,1746260565006
NMEA,$GLGSV,2,1,06,74,53,322,36,82,16,035,30,73,75,140,41,80,18,139,24,1*7C,1746260565006
NMEA,$GLGSV,2,2,06,84,49,212,26,83,59,036,24,1*7E,1746260565006
NMEA,$GAGSV,3,1,11,03,07,320,35,05,10,272,34,10,20,191,22,12,41,177,34,7*7C,1746260565006
NMEA,$GAGSV,3,2,11,16,26,300,38,24,53,304,41,25,04,297,36,26,19,039,24,7*71,1746260565006
NMEA,$GAGSV,3,3,11,31,68,098,39,33,58,082,39,23,17,113,,7*4D,1746260565006
NMEA,$GAGSV,3,1,11,03,07,320,37,05,10,272,36,10,20,191,23,12,41,177,35,1*7A,1746260565006
NMEA,$GAGSV,3,2,11,16,26,300,39,23,17,113,28,24,53,304,36,25,04,297,39,1*77,1746260565006
NMEA,$GAGSV,3,3,11,26,19,039,33,31,68,098,30,33,58,082,32,1*4B,1746260565006
NMEA,$GBGSV,3,1,10,45,71,192,43,38,22,049,27,36,26,149,24,35,35,229,45,1*7F,1746260565006
NMEA,$GBGSV,3,2,10,30,25,053,37,29,80,067,41,26,38,306,45,13,28,079,23,1*7B,1746260565006
NMEA,$GBGSV,3,3,10,08,27,060,25,05,17,120,,1*7B,1746260565006
NMEA,$GBGSV,2,1,07,26,38,306,37,29,80,067,41,30,25,053,36,35,35,229,46,3*75,1746260565006
NMEA,$GBGSV,2,2,07,36,26,149,28,38,22,049,29,45,71,192,46,3*46,1746260565006
NMEA,$GBGSV,2,1,07,26,38,306,37,29,80,067,27,30,25,053,25,35,35,229,26,5*77,1746260565006
NMEA,$GBGSV,2,2,07,36,26,149,28,38,22,049,27,45,71,192,34,5*4B,1746260565006
NMEA,$GNGSA,A,3,04,05,16,18,20,25,26,28,29,31,,,0.6,0.3,0.5,1*3C,1746260565013
NMEA,$GNGSA,A,3,73,74,82,83,84,,,,,,,,0.6,0.3,0.5,2*38,1746260565013
NMEA,$GNGSA,A,3,03,05,10,12,16,23,24,26,31,33,,,0.6,0.3,0.5,3*31,1746260565013
NMEA,$GNGSA,A,3,08,13,26,29,30,35,36,38,45,,,,0.6,0.3,0.5,4*3B,1746260565013
NMEA,$GNVTG,,T,,M,0.0,N,0.0,K,A*3D,1746260565013
NMEA,$GNDTM,P90,,0000.000026,S,00000.000000,E,0.978,W84*5C,1746260565013
NMEA,$GNRMC,082245.00,A,4503.591136,N,00741.837189,E,0.0,,030525,3.3,E,A,V*72,1746260565013
NMEA,$GNGNS,082245.00,4503.591136,N,00741.837189,E,AAAANN,34,0.3,283.8,48.0,,,V*27,1746260565013
NMEA,$GNGGA,082245.00,4503.591136,N,00741.837189,E,1,12,0.3,283.8,M,48.0,M,,*73,1746260565013
NMEA,$GPGSV,3,1,10,04,05,315,36,05,19,075,32,16,18,299,36,18,54,169,38,1*6E,1746260566006
NMEA,$GPGSV,3,2,10,20,12,040,28,25,31,119,21,26,45,302,36,28,44,215,38,1*62,1746260566006
NMEA,$GPGSV,3,3,10,29,58,052,39,31,52,256,40,1*6E,1746260566006
NMEA,$GPGSV,2,1,05,04,05,315,38,18,54,169,39,25,31,119,25,26,45,302,39,8*6F,1746260566006
NMEA,$GPGSV,2,2,05,28,44,215,37,8*50,1746260566006
NMEA,$GLGSV,2,1,06,74,53,322,35,82,16,035,31,73,75,140,40,80,18,139,19,1*71,1746260566006
NMEA,$GLGSV,2,2,06,84,49,212,25,83,59,036,23,1*7A,1746260566006
NMEA,$GAGSV,3,1,11,03,07,320,33,05,10,272,36,10,20,191,22,12,41,177,32,7*7E,1746260566006
NMEA,$GAGSV,3,2,11,16,26,300,37,24,53,304,39,25,04,297,36,26,19,039,23,7*76,1746260566006
NMEA,$GAGSV,3,3,11,31,68,098,38,33,58,082,39,23,17,113,,7*4C,1746260566006
NMEA,$GAGSV,3,1,11,03,07,320,38,05,10,272,37,10,20,191,21,12,41,177,33,1*70,1746260566006
NMEA,$GAGSV,3,2,11,16,26,300,38,23,17,113,28,24,53,304,37,25,04,297,38,1*76,1746260566006
NMEA,$GAGSV,3,3,11,26,19,039,34,31,68,098,30,33,58,082,33,1*4D,1746260566006
NMEA,$GBGSV,3,1,10,45,71,192,42,38,22,049,29,36,26,149,22,35,35,229,45,1*76,1746260566006
NMEA,$GBGSV,3,2,10,30,25,053,37,29,80,067,42,26,38,306,45,13,28,079,23,1*78,1746260566006
NMEA,$GBGSV,3,3,10,08,27,060,30,05,17,120,,1*7F,1746260566006
NMEA,$GBGSV,2,1,07,26,38,306,37,29,80,067,42,30,25,053,34,35,35,229,46,3*74,1746260566006
NMEA,$GBGSV,2,2,07,36,26,149,27,38,22,049,28,45,71,192,45,3*4B,1746260566006
NMEA,$GBGSV,2,1,07,26,38,306,38,29,80,067,28,30,25,053,25,35,35,229,28,5*79,1746260566006
NMEA,$GBGSV,2,2,07,36,26,149,26,38,22,049,21,45,71,192,36,5*41,1746260566006
NMEA,$GNGSA,A,3,04,05,16,18,20,25,26,28,29,31,,,0.6,0.4,0.5,1*3B,1746260566019
NMEA,$GNGSA,A,3,73,74,82,83,84,,,,,,,,0.6,0.4,0.5,2*3F,1746260566019
NMEA,$GNGSA,A,3,03,05,10,12,16,23,24,26,31,33,,,0.6,0.4,0.5,3*36,1746260566019
NMEA,$GNGSA,A,3,08,13,26,29,30,35,36,38,45,,,,0.6,0.4,0.5,4*3C,1746260566019
NMEA,$GNVTG,,T,,M,0.0,N,0.0,K,A*3D,1746260566019
NMEA,$GNDTM,P90,,0000.000026,S,00000.000000,E,0.978,W84*5C,1746260566019
NMEA,$GNRMC,082246.00,A,4503.591167,N,00741.836960,E,0.0,,030525,3.3,E,A,V*7B,1746260566019
NMEA,$GNGNS,082246.00,4503.591167,N,00741.836960,E,AAAANN,34,0.4,283.9,48.0,,,V*28,1746260566019
NMEA,$GNGGA,082246.00,4503.591167,N,00741.836960,E,1,12,0.4,283.9,M,48.0,M,,*7C,1746260566019
NMEA,$GPGSV,3,1,10,04,05,315,34,05,19,075,29,16,18,299,35,18,54,169,35,1*68,1746260567004
NMEA,$GPGSV,3,2,10,20,12,040,27,25,31,119,21,26,45,302,36,28,44,215,37,1*62,1746260567004
NMEA,$GPGSV,3,3,10,29,58,052,36,31,52,256,39,1*6F,1746260567004
NMEA,$GPGSV,2,1,05,04,05,315,37,18,54,169,37,25,31,119,26,26,45,302,37,8*63,1746260567004
NMEA,$GPGSV,2,2,05,28,44,215,38,8*5F,1746260567004
NMEA,$GLGSV,2,1,06,74,53,322,32,82,16,035,26,73,75,140,38,80,18,139,19,1*7F,1746260567004
NMEA,$GLGSV,2,2,06,84,49,212,24,83,59,036,23,1*7B,1746260567004
NMEA,$GAGSV,3,1,11,03,07,320,31,05,10,272,35,10,20,191,22,12,41,177,30,7*7D,1746260567004
NMEA,$GAGSV,3,2,11,16,26,300,35,24,53,304,37,25,04,297,33,26,19,039,23,7*7F,1746260567004
NMEA,$GAGSV,3,3,11,31,68,098,35,33,58,082,36,23,17,113,,7*4E,1746260567004
NMEA,$GAGSV,3,1,11,03,07,320,37,05,10,272,36,10,20,191,21,12,41,177,32,1*7F,1746260567004
NMEA,$GAGSV,3,2,11,16,26,300,36,23,17,113,26,24,53,304,35,25,04,297,37,1*7B,1746260567004
NMEA,$GAGSV,3,3,11,26,19,039,34,31,68,098,28,33,58,082,31,1*46,1746260567004
NMEA,$GBGSV,3,1,10,45,71,192,41,38,22,049,26,36,26,149,23,35,35,229,43,1*7D,1746260567004
NMEA,$GBGSV,3,2,10,30,25,053,34,29,80,067,39,26,38,306,44,13,28,079,22,1*77,1746260567004
NMEA,$GBGSV,3,3,10,08,27,060,31,05,17,120,,1*7E,1746260567004
NMEA,$GBGSV,2,1,07,26,38,306,37,29,80,067,39,30,25,053,34,35,35,229,45,3*7B,1746260567004
NMEA,$GBGSV,2,2,07,36,26,149,25,38,22,049,27,45,71,192,43,3*40,1746260567004
NMEA,$GBGSV,2,1,07,26,38,306,36,29,80,067,27,30,25,053,23,35,35,229,28,5*7E,1746260567004
NMEA,$GBGSV,2,2,07,36,26,149,27,38,22,049,25,45,71,192,36,5*44,1746260567004
NMEA,$GNGSA,A,3,04,05,16,18,20,25,26,28,29,31,,,0.6,0.4,0.5,1*3B,1746260567009
NMEA,$GNGSA,A,3,73,74,82,83,84,,,,,,,,0.6,0.4,0.5,2*3F,1746260567009
NMEA,$GNGSA,A,3,03,05,10,12,16,23,24,26,31,33,,,0.6,0.4,0.5,3*36,1746260567009
NMEA,$GNGSA,A,3,08,13,26,29,30,35,36,38,45,,,,0.6,0.4,0.5,4*3C,1746260567009
NMEA,$GNVTG,,T,,M,0.0,N,0.0,K,A*3D,1746260567009
NMEA,$GNDTM,P90,,0000.000026,S,00000.000000,E,0.978,W84*5C,1746260567009
NMEA,$GNRMC,082247.00,A,4503.591238,N,00741.836862,E,0.0,,030525,3.3,E,A,V*70,1746260567009
NMEA,$GNGNS,082247.00,4503.591238,N,00741.836862,E,AAAANN,34,0.4,283.9,48.0,,,V*23,1746260567009
NMEA,$GNGGA,082247.00,4503.591238,N,00741.836862,E,1,12,0.4,283.9,M,48.0,M,,*77,1746260567009
NMEA,$GPGSV,3,1,10,04,05,315,36,05,19,075,24,16,18,299,36,18,54,169,37,1*66,1746260568003
NMEA,$GPGSV,3,2,10,20,12,040,30,25,31,119,20,26,45,302,38,28,44,215,36,1*6A,1746260568003
NMEA,$GPGSV,3,3,10,29,58,052,39,31,52,256,41,1*6F,1746260568003
NMEA,$GPGSV,2,1,05,04,05,315,37,18,54,169,39,25,31,119,26,26,45,302,37,8*6D,1746260568003
NMEA,$GPGSV,2,2,05,28,44,215,41,8*51,1746260568003
NMEA,$GLGSV,2,1,06,74,53,322,33,82,16,035,29,73,75,140,40,80,18,139,19,1*7E,1746260568003
NMEA,$GLGSV,2,2,06,84,49,212,24,83,59,036,23,1*7B,1746260568003
NMEA,$GAGSV,3,1,11,03,07,320,32,05,10,272,37,10,20,191,22,12,41,177,37,7*7B,1746260568003
NMEA,$GAGSV,3,2,11,16,26,300,33,24,53,304,40,25,04,297,33,26,19,039,22,7*78,1746260568003
NMEA,$GAGSV,3,3,11,31,68,098,37,33,58,082,35,23,17,113,,7*4F,1746260568003
NMEA,$GAGSV,3,1,11,03,07,320,38,05,10,272,37,10,20,191,21,12,41,177,35,1*76,1746260568003
NMEA,$GAGSV,3,2,11,16,26,300,36,23,17,113,28,24,53,304,36,25,04,297,39,1*78,1746260568003
NMEA,$GAGSV,3,3,11,26,19,039,30,31,68,098,29,33,58,082,29,1*4A,1746260568003
NMEA,$GBGSV,3,1,10,45,71,192,43,38,22,049,24,36,26,149,26,35,35,229,45,1*7E,1746260568003
NMEA,$GBGSV,3,2,10,30,25,053,32,29,80,067,41,26,38,306,45,13,28,079,22,1*7F,1746260568003
NMEA,$GBGSV,3,3,10,08,27,060,31,05,17,120,,1*7E,1746260568003
NMEA,$GBGSV,2,1,07,26,38,306,36,29,80,067,41,30,25,053,33,35,35,229,46,3*71,1746260568003
NMEA,$GBGSV,2,2,07,36,26,149,26,38,22,049,28,45,71,192,45,3*4A,1746260568003
NMEA,$GBGSV,2,1,07,26,38,306,34,29,80,067,27,30,25,053,26,35,35,229,29,5*78,1746260568003
NMEA,$GBGSV,2,2,07,36,26,149,29,38,22,049,30,45,71,192,35,5*4D,1746260568003
NMEA,$GNGSA,A,3,04,05,16,18,20,25,26,28,29,31,,,0.6,0.4,0.5,1*3B,1746260568010
NMEA,$GNGSA,A,3,73,74,82,83,84,,,,,,,,0.6,0.4,0.5,2*3F,1746260568010
NMEA,$GNGSA,A,3,03,05,10,12,16,23,24,26,31,33,,,0.6,0.4,0.5,3*36,1746260568010
NMEA,$GNGSA,A,3,08,13,26,29,30,35,36,38,45,,,,0.6,0.4,0.5,4*3C,1746260568010
NMEA,$GNVTG,,T,,M,0.0,N,0.0,K,A*3D,1746260568010
NMEA,$GNDTM,P90,,0000.000026,S,00000.000000,E,0.978,W84*5C,1746260568010
NMEA,$GNRMC,082248.00,A,4503.591266,N,00741.836853,E,0.0,,030525,3.3,E,A,V*76,1746260568010
NMEA,$GNGNS,082248.00,4503.591266,N,00741.836853,E,AAAANN,34,0.4,283.8,48.0,,,V*24,1746260568010
NMEA,$GNGGA,082248.00,4503.591266,N,00741.836853,E,1,12,0.4,283.8,M,48.0,M,,*70,1746260568010
NMEA,$GPGSV,3,1,10,04,05,315,37,05,19,075,26,16,18,299,38,18,54,169,37,1*6B,1746260569008
NMEA,$GPGSV,3,2,10,20,12,040,33,25,31,119,23,26,45,302,38,28,44,215,37,1*6B,1746260569008
NMEA,$GPGSV,3,3,10,29,58,052,41,31,52,256,41,1*60,1746260569008
NMEA,$GPGSV,2,1,05,04,05,315,38,18,54,169,41,25,31,119,26,26,45,302,38,8*62,1746260569008
NMEA,$GPGSV,2,2,05,28,44,215,42,8*52,1746260569008
NMEA,$GLGSV,2,1,06,74,53,322,36,82,16,035,31,73,75,140,41,80,18,139,19,1*73,1746260569008
NMEA,$GLGSV,2,2,06,84,49,212,23,83,59,036,28,1*77,1746260569008
NMEA,$GAGSV,3,1,11,03,07,320,35,05,10,272,38,10,20,191,22,12,41,177,38,7*7C,1746260569008
NMEA,$GAGSV,3,2,11,16,26,300,38,24,53,304,41,25,04,297,35,26,19,039,25,7*73,1746260569008
NMEA,$GAGSV,3,3,11,31,68,098,37,33,58,082,33,23,17,113,,7*49,1746260569008
NMEA,$GAGSV,3,1,11,03,07,320,38,05,10,272,35,10,20,191,24,12,41,177,37,1*73,1746260569008
NMEA,$GAGSV,3,2,11,16,26,300,35,23,17,113,27,24,53,304,37,25,04,297,38,1*74,1746260569008
NMEA,$GAGSV,3,3,11,26,19,039,32,31,68,098,28,33,58,082,24,1*44,1746260569008
NMEA,$GBGSV,3,1,10,45,71,192,45,38,22,049,24,36,26,149,24,35,35,229,46,1*79,1746260569008
NMEA,$GBGSV,3,2,10,30,25,053,35,29,80,067,43,26,38,306,46,13,28,079,22,1*79,1746260569008
NMEA,$GBGSV,3,3,10,08,27,060,31,05,17,120,,1*7E,1746260569008
NMEA,$GBGSV,2,1,07,26,38,306,33,29,80,067,42,30,25,053,34,35,35,229,47,3*71,1746260569008
NMEA,$GBGSV,2,2,07,36,26,149,25,38,22,049,33,45,71,192,47,3*41,1746260569008
NMEA,$GBGSV,2,1,07,26,38,306,35,29,80,067,27,30,25,053,25,35,35,229,28,5*7B,1746260569008
NMEA,$GBGSV,2,2,07,36,26,149,28,38,22,049,30,45,71,192,36,5*4F,1746260569008
NMEA,$GNGSA,A,3,04,05,16,18,20,25,26,28,29,31,,,0.6,0.4,0.5,1*3B,1746260569023
NMEA,$GNGSA,A,3,73,74,82,83,84,,,,,,,,0.6,0.4,0.5,2*3F,1746260569023
NMEA,$GNGSA,A,3,03,05,10,12,16,23,24,26,31,33,,,0.6,0.4,0.5,3*36,1746260569023
NMEA,$GNGSA,A,3,08,13,26,29,30,35,36,38,45,,,,0.6,0.4,0.5,4*3C,1746260569023
NMEA,$GNVTG,,T,,M,0.0,N,0.0,K,A*3D,1746260569023
NMEA,$GNDTM,P90,,0000.000026,S,00000.000000,E,0.978,W84*5C,1746260569023
NMEA,$GNRMC,082249.00,A,4503.591286,N,00741.836795,E,0.0,,030525,3.3,E,A,V*7C,1746260569023
NMEA,$GNGNS,082249.00,4503.591286,N,00741.836795,E,AAAANN,34,0.4,283.5,48.0,,,V*23,1746260569023
NMEA,$GNGGA,082249.00,4503.591286,N,00741.836795,E,1,12,0.4,283.5,M,48.0,M,,*77,1746260569023
NMEA,$GPGSV,3,1,10,04,05,315,38,05,19,075,27,16,18,299,39,18,54,169,39,1*6A,1746260570007
NMEA,$GPGSV,3,2,10,20,12,040,29,25,31,119,23,26,45,302,42,28,44,215,33,1*69,1746260570007
NMEA,$GPGSV,3,3,10,29,58,052,42,31,52,256,43,1*61,1746260570007
NMEA,$GPGSV,2,1,05,04,05,315,38,18,54,169,42,25,31,119,26,26,45,302,40,8*6E,1746260570007
NMEA,$GPGSV,2,2,05,28,44,215,44,8*54,1746260570007
NMEA,$GLGSV,2,1,06,74,53,322,35,82,16,035,31,73,75,140,41,80,18,139,19,1*70,1746260570007
NMEA,$GLGSV,2,2,06,84,49,212,27,83,59,036,29,1*72,1746260570007
NMEA,$GAGSV,3,1,11,03,07,320,37,05,10,272,38,10,20,191,17,12,41,177,39,7*79,1746260570007
NMEA,$GAGSV,3,2,11,16,26,300,37,24,53,304,42,25,04,297,34,26,19,039,22,7*79,1746260570007
NMEA,$GAGSV,3,3,11,31,68,098,38,33,58,082,34,23,17,113,,7*41,1746260570007
NMEA,$GAGSV,3,1,11,03,07,320,41,05,10,272,37,10,20,191,26,12,41,177,39,1*73,1746260570007
NMEA,$GAGSV,3,2,11,16,26,300,38,23,17,113,29,24,53,304,39,25,04,297,41,1*77,1746260570007
NMEA,$GAGSV,3,3,11,26,19,039,34,31,68,098,30,33,58,082,25,1*4A,1746260570007
NMEA,$GBGSV,3,1,10,45,71,192,44,38,22,049,24,36,26,149,28,35,35,229,46,1*74,1746260570007
NMEA,$GBGSV,3,2,10,30,25,053,30,29,80,067,42,26,38,306,46,13,28,079,22,1*7D,1746260570007
NMEA,$GBGSV,3,3,10,08,27,060,31,05,17,120,,1*7E,1746260570007
NMEA,$GBGSV,2,1,07,26,38,306,39,29,80,067,41,30,25,053,34,35,35,229,48,3*77,1746260570007
NMEA,$GBGSV,2,2,07,36,26,149,26,38,22,049,32,45,71,192,47,3*43,1746260570007
NMEA,$GBGSV,2,1,07,26,38,306,37,29,80,067,28,30,25,053,28,35,35,229,28,5*7B,1746260570007
NMEA,$GBGSV,2,2,07,36,26,149,29,38,22,049,33,45,71,192,37,5*4C,1746260570007
NMEA,$GNGSA,A,3,04,05,16,18,20,25,26,28,29,31,,,0.6,0.4,0.5,1*3B,1746260570023
NMEA,$GNGSA,A,3,73,74,82,83,84,,,,,,,,0.6,0.4,0.5,2*3F,1746260570023
NMEA,$GNGSA,A,3,03,05,10,12,16,23,24,26,31,33,,,0.6,0.4,0.5,3*36,1746260570023
NMEA,$GNGSA,A,3,08,13,26,29,30,35,36,38,45,,,,0.6,0.4,0.5,4*3C,1746260570023
NMEA,$GNVTG,,T,,M,0.0,N,0.0,K,A*3D,1746260570023
NMEA,$GNDTM,P90,,0000.000026,S,00000.000000,E,0.978,W84*5C,1746260570023
NMEA,$GNRMC,082250.00,A,4503.591247,N,00741.836717,E,0.0,,030525,3.3,E,A,V*73,1746260570023
NMEA,$GNGNS,082250.00,4503.591247,N,00741.836717,E,AAAANN,34,0.4,283.2,48.0,,,V*2B,1746260570023
NMEA,$GNGGA,082250.00,4503.591247,N,00741.836717,E,1,12,0.4,283.2,M,48.0,M,,*7F,1746260570023
NMEA,$GPGSV,3,1,10,04,05,315,38,05,19,075,28,16,18,299,38,18,54,169,39,1*64,1746260571010
NMEA,$GPGSV,3,2,10,20,12,040,30,25,31,119,24,26,45,302,42,28,44,215,35,1*60,1746260571010
NMEA,$GPGSV,3,3,10,29,58,052,42,31,52,256,43,1*61,1746260571010
NMEA,$GPGSV,2,1,05,04,05,315,38,18,54,169,42,25,31,119,17,26,45,302,40,8*6C,1746260571010
NMEA,$GPGSV,2,2,05,28,44,215,45,8*55,1746260571010
NMEA,$GLGSV,2,1,06,74,53,322,36,82,16,035,35,73,75,140,41,80,18,139,23,1*7E,1746260571010
NMEA,$GLGSV,2,2,06,84,49,212,27,83,59,036,30,1*7A,1746260571010
NMEA,$GAGSV,3,1,11,03,07,320,38,05,10,272,38,10,20,191,23,12,41,177,39,7*71,1746260571010
NMEA,$GAGSV,3,2,11,16,26,300,37,24,53,304,42,25,04,297,36,26,19,039,27,7*7E,1746260571010
NMEA,$GAGSV,3,3,11,31,68,098,38,33,58,082,34,23,17,113,,7*41,1746260571010
NMEA,$GAGSV,3,1,11,03,07,320,41,05,10,272,37,10,20,191,28,12,41,177,38,1*7C,1746260571010
NMEA,$GAGSV,3,2,11,16,26,300,38,23,17,113,30,24,53,304,38,25,04,297,40,1*7F,1746260571010
NMEA,$GAGSV,3,3,11,26,19,039,34,31,68,098,31,33,58,082,27,1*49,1746260571010
NMEA,$GBGSV,3,1,10,45,71,192,44,38,22,049,24,36,26,149,27,35,35,229,47,1*7A,1746260571010
NMEA,$GBGSV,3,2,10,30,25,053,32,29,80,067,41,26,38,306,46,05,17,120,,1*7A,1746260571010
NMEA,$GBGSV,3,3,10,08,27,060,,13,28,079,,1*7A,1746260571010
NMEA,$GBGSV,2,1,07,26,38,306,40,29,80,067,41,30,25,053,36,35,35,229,48,3*7B,1746260571010
NMEA,$GBGSV,2,2,07,36,26,149,28,38,22,049,32,45,71,192,47,3*4D,1746260571010
NMEA,$GBGSV,2,1,07,26,38,306,37,29,80,067,28,30,25,053,27,35,35,229,29,5*75,1746260571010
NMEA,$GBGSV,2,2,07,36,26,149,30,38,22,049,33,45,71,192,37,5*44,1746260571010
NMEA,$GNGSA,A,3,04,05,16,18,20,25,26,28,29,31,,,0.6,0.3,0.5,1*3C,1746260571026
NMEA,$GNGSA,A,3,73,74,80,82,83,84,,,,,,,0.6,0.3,0.5,2*30,1746260571026
NMEA,$GNGSA,A,3,03,05,10,12,16,23,24,26,31,33,,,0.6,0.3,0.5,3*31,1746260571026
NMEA,$GNGSA,A,3,08,13,26,29,30,35,36,38,45,,,,0.6,0.3,0.5,4*3B,1746260571026
NMEA,$GNVTG,,T,,M,0.0,N,0.0,K,A*3D,1746260571026
NMEA,$GNDTM,P90,,0000.000026,S,00000.000000,E,0.978,W84*5C,1746260571026
NMEA,$GNRMC,082251.00,A,4503.591232,N,00741.836575,E,0.0,,030525,3.3,E,A,V*76,1746260571026
NMEA,$GNGNS,082251.00,4503.591232,N,00741.836575,E,AAAANN,35,0.3,283.1,48.0,,,V*2B,1746260571026
NMEA,$GNGGA,082251.00,4503.591232,N,00741.836575,E,1,12,0.3,283.1,M,48.0,M,,*7E,1746260571026
NMEA,$GPGSV,3,1,10,04,05,315,37,05,19,075,31,16,18,299,38,18,54,169,38,1*62,1746260572008
NMEA,$GPGSV,3,2,10,20,12,040,25,25,31,119,24,26,45,302,43,28,44,215,34,1*64,1746260572008
NMEA,$GPGSV,3,3,10,29,58,052,41,31,52,256,43,1*62,1746260572008
NMEA,$GPGSV,2,1,05,04,05,315,37,18,54,169,39,25,31,119,23,26,45,302,41,8*69,1746260572008
NMEA,$GPGSV,2,2,05,28,44,215,44,8*54,1746260572008
NMEA,$GLGSV,2,1,06,74,53,322,36,82,16,035,30,73,75,140,39,80,18,139,22,1*75,1746260572008
NMEA,$GLGSV,2,2,06,84,49,212,31,83,59,036,28,1*74,1746260572008
NMEA,$GAGSV,3,1,11,03,07,320,37,05,10,272,35,10,20,191,23,12,41,177,39,7*73,1746260572008
NMEA,$GAGSV,3,2,11,16,26,300,38,24,53,304,40,25,04,297,37,26,19,039,26,7*73,1746260572008
NMEA,$GAGSV,3,3,11,31,68,098,37,33,58,082,36,23,17,113,,7*4C,1746260572008
NMEA,$GAGSV,3,1,11,03,07,320,40,05,10,272,39,10,20,191,27,12,41,177,38,1*7C,1746260572008
NMEA,$GAGSV,3,2,11,16,26,300,40,23,17,113,29,24,53,304,39,25,04,297,41,1*78,1746260572008
NMEA,$GAGSV,3,3,11,26,19,039,32,31,68,098,24,33,58,082,31,1*4C,1746260572008
NMEA,$GBGSV,3,1,10,45,71,192,42,38,22,049,28,36,26,149,27,35,35,229,46,1*71,1746260572008
NMEA,$GBGSV,3,2,10,30,25,053,31,29,80,067,34,26,38,306,45,05,17,120,,1*78,1746260572008
NMEA,$GBGSV,3,3,10,08,27,060,,13,28,079,,1*7A,1746260572008
NMEA,$GBGSV,2,1,07,26,38,306,44,29,80,067,35,30,25,053,36,35,35,229,47,3*73,1746260572008
NMEA,$GBGSV,2,2,07,36,26,149,29,38,22,049,31,45,71,192,45,3*4D,1746260572008
NMEA,$GBGSV,2,1,07,26,38,306,38,29,80,067,28,30,25,053,21,35,35,229,25,5*70,1746260572008
NMEA,$GBGSV,2,2,07,36,26,149,29,38,22,049,29,45,71,192,34,5*44,1746260572008
NMEA,$GNGSA,A,3,04,05,16,18,20,25,26,28,29,31,,,0.6,0.3,0.5,1*3C,1746260572015
NMEA,$GNGSA,A,3,73,74,80,82,83,84,,,,,,,0.6,0.3,0.5,2*30,1746260572015
NMEA,$GNGSA,A,3,03,05,10,12,16,23,24,26,31,33,,,0.6,0.3,0.5,3*31,1746260572015
NMEA,$GNGSA,A,3,08,13,26,29,30,35,36,38,45,,,,0.6,0.3,0.5,4*3B,1746260572015
NMEA,$GNVTG,,T,,M,0.0,N,0.0,K,A*3D,1746260572015
NMEA,$GNDTM,P90,,0000.000026,S,00000.000000,E,0.978,W84*5C,1746260572015
NMEA,$GNRMC,082252.00,A,4503.591260,N,00741.836424,E,0.0,,030525,3.3,E,A,V*77,1746260572015
NMEA,$GNGNS,082252.00,4503.591260,N,00741.836424,E,AAAANN,35,0.3,283.3,48.0,,,V*28,1746260572015
NMEA,$GNGGA,082252.00,4503.591260,N,00741.836424,E,1,12,0.3,283.3,M,48.0,M,,*7D,1746260572015
NMEA,$GPGSV,3,1,10,04,05,315,35,05,19,075,30,16,18,299,36,18,54,169,37,1*60,1746260573006
NMEA,$GPGSV,3,2,10,20,12,040,26,25,31,119,23,26,45,302,43,28,44,215,33,1*67,1746260573006
NMEA,$GPGSV,3,3,10,29,58,052,41,31,52,256,43,1*62,1746260573006
NMEA,$GPGSV,2,1,05,04,05,315,36,18,54,169,39,25,31,119,23,26,45,302,40,8*69,1746260573006
NMEA,$GPGSV,2,2,05,28,44,215,43,8*53,1746260573006
NMEA,$GLGSV,2,1,06,74,53,322,34,82,16,035,29,73,75,140,39,80,18,139,22,1*7F,1746260573006
NMEA,$GLGSV,2,2,06,84,49,212,30,83,59,036,27,1*7A,1746260573006
NMEA,$GAGSV,3,1,11,03,07,320,36,05,10,272,35,10,20,191,23,12,41,177,38,7*73,1746260573006
NMEA,$GAGSV,3,2,11,16,26,300,37,24,53,304,39,25,04,297,37,26,19,039,24,7*70,1746260573006
NMEA,$GAGSV,3,3,11,31,68,098,36,33,58,082,32,23,17,113,,7*49,1746260573006
NMEA,$GAGSV,3,1,11,03,07,320,40,05,10,272,38,10,20,191,27,12,41,177,37,1*72,1746260573006
NMEA,$GAGSV,3,2,11,16,26,300,38,23,17,113,27,24,53,304,38,25,04,297,40,1*79,1746260573006
NMEA,$GAGSV,3,3,11,26,19,039,33,31,68,098,27,33,58,082,28,1*46,1746260573006
NMEA,$GBGSV,3,1,10,45,71,192,42,38,22,049,24,36,26,149,25,35,35,229,46,1*7F,1746260573006
NMEA,$GBGSV,3,2,10,30,25,053,31,29,80,067,36,26,38,306,45,05,17,120,,1*7A,1746260573006
NMEA,$GBGSV,3,3,10,08,27,060,,13,28,079,,1*7A,1746260573006
NMEA,$GBGSV,2,1,07,26,38,306,42,29,80,067,36,30,25,053,34,35,35,229,47,3*74,1746260573006
NMEA,$GBGSV,2,2,07,36,26,149,26,38,22,049,31,45,71,192,45,3*42,1746260573006
NMEA,$GBGSV,2,1,07,26,38,306,37,29,80,067,25,30,25,053,24,35,35,229,22,5*70,1746260573006
NMEA,$GBGSV,2,2,07,36,26,149,28,38,22,049,31,45,71,192,33,5*4B,1746260573006
NMEA,$GNGSA,A,3,04,05,16,18,20,25,26,28,29,31,,,0.6,0.3,0.5,1*3C,1746260573015
NMEA,$GNGSA,A,3,73,74,80,82,83,84,,,,,,,0.6,0.3,0.5,2*30,1746260573015
NMEA,$GNGSA,A,3,03,05,10,12,16,23,24,26,31,33,,,0.6,0.3,0.5,3*31,1746260573015
NMEA,$GNGSA,A,3,26,29,30,35,36,38,45,,,,,,0.6,0.3,0.5,4*31,1746260573015
NMEA,$GNVTG,,T,,M,0.0,N,0.0,K,A*3D,1746260573015
NMEA,$GNDTM,P90,,0000.000026,S,00000.000000,E,0.978,W84*5C,1746260573015
NMEA,$GNRMC,082253.00,A,4503.591337,N,00741.836469,E,0.0,,030525,3.3,E,A,V*7C,1746260573015
NMEA,$GNGNS,082253.00,4503.591337,N,00741.836469,E,AAAANN,33,0.3,283.2,48.0,,,V*24,1746260573015
NMEA,$GNGGA,082253.00,4503.591337,N,00741.836469,E,1,12,0.3,283.2,M,48.0,M,,*77,1746260573015
NMEA,$GPGSV,3,1,10,04,05,315,34,05,19,075,31,16,18,299,39,18,54,169,38,1*60,1746260574011
NMEA,$GPGSV,3,2,10,20,12,040,22,25,31,119,23,26,45,302,43,28,44,215,35,1*65,1746260574011
NMEA,$GPGSV,3,3,10,29,58,052,41,31,52,256,44,1*65,1746260574011
NMEA,$GPGSV,2,1,05,04,05,315,37,18,54,169,40,25,31,119,19,26,45,302,40,8*6F,1746260574011
NMEA,$GPGSV,2,2,05,28,44,215,44,8*54,1746260574011
NMEA,$GLGSV,2,1,06,74,53,322,34,82,16,035,27,73,75,140,38,80,18,139,22,1*70,1746260574011
NMEA,$GLGSV,2,2,06,84,49,212,32,83,59,036,27,1*78,1746260574011
NMEA,$GAGSV,3,1,11,03,07,320,37,05,10,272,35,10,20,191,19,12,41,177,39,7*7A,1746260574011
NMEA,$GAGSV,3,2,11,16,26,300,37,24,53,304,38,25,04,297,37,26,19,039,24,7*71,1746260574011
NMEA,$GAGSV,3,3,11,31,68,098,34,33,58,082,34,23,17,113,,7*4D,1746260574011
NMEA,$GAGSV,3,1,11,03,07,320,40,05,10,272,38,10,20,191,27,12,41,177,38,1*7D,1746260574011
NMEA,$GAGSV,3,2,11,16,26,300,39,23,17,113,23,24,53,304,38,25,04,297,40,1*7C,1746260574011
NMEA,$GAGSV,3,3,11,26,19,039,34,31,68,098,27,33,58,082,27,1*4E,1746260574011
NMEA,$GBGSV,3,1,10,45,71,192,42,38,22,049,24,36,26,149,24,35,35,229,45,1*7D,1746260574011
NMEA,$GBGSV,3,2,10,30,25,053,30,29,80,067,32,26,38,306,45,08,27,060,23,1*75,1746260574011
NMEA,$GBGSV,3,3,10,05,17,120,,13,28,079,,1*71,1746260574011
NMEA,$GBGSV,2,1,07,26,38,306,44,29,80,067,32,30,25,053,34,35,35,229,47,3*76,1746260574011
NMEA,$GBGSV,2,2,07,36,26,149,26,38,22,049,28,45,71,192,45,3*4A,1746260574011
NMEA,$GBGSV,2,1,07,26,38,306,38,29,80,067,24,30,25,053,22,35,35,229,22,5*78,1746260574011
NMEA,$GBGSV,2,2,07,36,26,149,26,38,22,049,31,45,71,192,30,5*46,1746260574011
NMEA,$GNGSA,A,3,04,05,16,18,20,25,26,28,29,31,,,0.6,0.3,0.5,1*3C,1746260574021
NMEA,$GNGSA,A,3,73,74,80,82,83,84,,,,,,,0.6,0.3,0.5,2*30,1746260574021
NMEA,$GNGSA,A,3,03,05,10,12,16,23,24,26,31,33,,,0.6,0.3,0.5,3*31,1746260574021
NMEA,$GNGSA,A,3,08,26,29,30,35,36,38,45,,,,,0.6,0.3,0.5,4*39,1746260574021
NMEA,$GNVTG,,T,,M,0.0,N,0.0,K,A*3D,1746260574021
NMEA,$GNDTM,P90,,0000.000026,S,00000.000000,E,0.978,W84*5C,1746260574021
NMEA,$GNRMC,082254.00,A,4503.591511,N,00741.836254,E,0.0,,030525,3.3,E,A,V*71,1746260574021
NMEA,$GNGNS,082254.00,4503.591511,N,00741.836254,E,AAAANN,34,0.3,283.3,48.0,,,V*2F,1746260574021
NMEA,$GNGGA,082254.00,4503.591511,N,00741.836254,E,1,12,0.3,283.3,M,48.0,M,,*7B,1746260574021
NMEA,$GPGSV,3,1,10,04,05,315,34,05,19,075,31,16,18,299,39,18,54,169,38,1*60,1746260575007
NMEA,$GPGSV,3,2,10,20,12,040,29,25,31,119,23,26,45,302,43,28,44,215,38,1*63,1746260575007
NMEA,$GPGSV,3,3,10,29,58,052,41,31,52,256,44,1*65,1746260575007
NMEA,$GPGSV,2,1,05,04,05,315,38,18,54,169,41,25,31,119,19,26,45,302,40,8*61,1746260575007
NMEA,$GPGSV,2,2,05,28,44,215,43,8*53,1746260575007
NMEA,$GLGSV,2,1,06,74,53,322,34,82,16,035,31,73,75,140,40,80,18,139,21,1*7B,1746260575007
NMEA,$GLGSV,2,2,06,84,49,212,27,83,59,036,29,1*72,1746260575007
NMEA,$GAGSV,3,1,11,03,07,320,37,05,10,272,36,10,20,191,19,12,41,177,38,7*78,1746260575007
NMEA,$GAGSV,3,2,11,16,26,300,38,23,17,113,23,24,53,304,39,25,04,297,38,7*75,1746260575007
NMEA,$GAGSV,3,3,11,26,19,039,26,31,68,098,37,33,58,082,35,7*49,1746260575007
NMEA,$GAGSV,3,1,11,03,07,320,39,05,10,272,39,10,20,191,26,12,41,177,38,1*73,1746260575007
NMEA,$GAGSV,3,2,11,16,26,300,38,23,17,113,24,24,53,304,39,25,04,297,40,1*7B,1746260575007
NMEA,$GAGSV,3,3,11,26,19,039,34,31,68,098,31,33,58,082,24,1*4A,1746260575007
NMEA,$GBGSV,3,1,10,45,71,192,44,38,22,049,23,36,26,149,24,35,35,229,45,1*7C,1746260575007
NMEA,$GBGSV,3,2,10,30,25,053,32,29,80,067,40,26,38,306,46,13,28,079,21,1*7E,1746260575007
NMEA,$GBGSV,3,3,10,05,17,120,,08,27,060,,1*7C,1746260575007
NMEA,$GBGSV,2,1,07,26,38,306,42,29,80,067,40,30,25,053,35,35,35,229,47,3*74,1746260575007
NMEA,$GBGSV,2,2,07,36,26,149,24,38,22,049,29,45,71,192,47,3*4B,1746260575007
NMEA,$GBGSV,2,1,07,26,38,306,37,29,80,067,27,30,25,053,27,35,35,229,27,5*74,1746260575007
NMEA,$GBGSV,2,2,07,36,26,149,27,38,22,049,33,45,71,192,33,5*46,1746260575007
NMEA,$GNGSA,A,3,04,05,16,18,20,25,26,28,29,31,,,0.6,0.3,0.5,1*3C,1746260575020
NMEA,$GNGSA,A,3,73,74,80,82,83,84,,,,,,,0.6,0.3,0.5,2*30,1746260575020
NMEA,$GNGSA,A,3,03,05,10,12,16,23,24,26,31,33,,,0.6,0.3,0.5,3*31,1746260575020
NMEA,$GNGSA,A,3,08,13,26,29,30,35,36,38,45,,,,0.6,0.3,0.5,4*3B,1746260575020
NMEA,$GNVTG,,T,,M,0.0,N,0.0,K,A*3D,1746260575020
NMEA,$GNDTM,P90,,0000.000026,S,00000.000000,E,0.978,W84*5C,1746260575020
NMEA,$GNRMC,082255.00,A,4503.591683,N,00741.836138,E,0.0,,030525,3.3,E,A,V*71,1746260575020
NMEA,$GNGNS,082255.00,4503.591683,N,00741.836138,E,AAAANN,35,0.3,283.2,48.0,,,V*2F,1746260575020
NMEA,$GNGGA,082255.00,4503.591683,N,00741.836138,E,1,12,0.3,283.2,M,48.0,M,,*7A,1746260575020
NMEA,$GPGSV,3,1,10,04,05,315,36,05,19,075,32,16,18,299,37,18,54,169,42,1*62,1746260576006
NMEA,$GPGSV,3,2,10,20,12,040,34,25,31,119,25,26,45,302,39,28,44,215,44,1*6F,1746260576006
NMEA,$GPGSV,3,3,10,29,58,052,36,31,52,256,45,1*64,1746260576006
NMEA,$GPGSV,2,1,05,04,05,315,40,18,54,169,42,25,31,119,19,26,45,302,39,8*63,1746260576006
NMEA,$GPGSV,2,2,05,28,44,215,36,8*51,1746260576006
NMEA,$GLGSV,2,1,06,74,53,322,35,82,16,035,34,73,75,140,39,80,18,139,22,1*72,1746260576006
NMEA,$GLGSV,2,2,06,84,49,212,31,83,59,036,22,1*7E,1746260576006
NMEA,$GAGSV,3,1,11,03,07,320,34,05,10,272,38,10,20,191,19,12,41,177,38,7*75,1746260576006
NMEA,$GAGSV,3,2,11,16,26,300,38,23,17,113,31,24,53,304,39,25,04,297,38,7*76,1746260576006
NMEA,$GAGSV,3,3,11,26,19,039,32,31,68,098,37,33,58,082,31,7*48,1746260576006
NMEA,$GAGSV,3,1,11,03,07,320,39,05,10,272,40,10,20,191,26,12,41,177,37,1*72,1746260576006
NMEA,$GAGSV,3,2,11,16,26,300,38,23,17,113,26,24,53,304,39,25,04,297,40,1*79,1746260576006
NMEA,$GAGSV,3,3,11,26,19,039,35,31,68,098,35,33,58,082,28,1*43,1746260576006
NMEA,$GBGSV,3,1,10,45,71,192,40,38,22,049,29,36,26,149,30,35,35,229,43,1*71,1746260576006
NMEA,$GBGSV,3,2,10,30,25,053,29,29,80,067,42,26,38,306,44,13,28,079,31,1*75,1746260576006
NMEA,$GBGSV,3,3,10,05,17,120,,08,27,060,,1*7C,1746260576006
NMEA,$GBGSV,2,1,07,26,38,306,41,29,80,067,43,30,25,053,30,35,35,229,45,3*73,1746260576006
NMEA,$GBGSV,2,2,07,36,26,149,33,38,22,049,29,45,71,192,44,3*4E,1746260576006
NMEA,$GBGSV,2,1,07,26,38,306,38,29,80,067,35,30,25,053,33,35,35,229,36,5*7D,1746260576006
NMEA,$GBGSV,2,2,07,36,26,149,29,38,22,049,34,45,71,192,38,5*44,1746260576006
NMEA,$GNGSA,A,3,04,05,16,18,20,25,26,28,29,31,,,0.6,0.3,0.5,1*3C,1746260576016
NMEA,$GNGSA,A,3,73,74,80,82,83,84,,,,,,,0.6,0.3,0.5,2*30,1746260576016
NMEA,$GNGSA,A,3,03,05,10,12,16,23,24,26,31,33,,,0.6,0.3,0.5,3*31,1746260576016
NMEA,$GNGSA,A,3,08,13,26,29,30,35,36,38,45,,,,0.6,0.3,0.5,4*3B,1746260576016
NMEA,$GNVTG,160.9,T,157.6,M,0.6,N,1.1,K,A*30,1746260576016
NMEA,$GNDTM,P90,,0000.000026,S,00000.000000,E,0.978,W84*5C,1746260576016
NMEA,$GNRMC,082256.00,A,4503.591489,N,00741.836571,E,0.6,160.9,030525,3.3,E,A,V*55,1746260576016
NMEA,$GNGNS,082256.00,4503.591489,N,00741.836571,E,AAAANN,35,0.3,283.1,48.0,,,V*2E,1746260576016
NMEA,$GNGGA,082256.00,4503.591489,N,00741.836571,E,1,12,0.3,283.1,M,48.0,M,,*7B,1746260576016
NMEA,$GPGSV,3,1,10,04,05,315,36,05,19,075,39,16,18,299,34,18,54,169,41,1*69,1746260577008
NMEA,$GPGSV,3,2,10,20,12,040,32,25,31,119,36,26,45,302,33,28,44,215,40,1*65,1746260577008
NMEA,$GPGSV,3,3,10,29,58,052,39,31,52,256,39,1*60,1746260577008
NMEA,$GPGSV,2,1,05,04,05,315,31,18,54,169,39,25,31,119,28,26,45,302,32,8*60,1746260577008
NMEA,$GPGSV,2,2,05,28,44,215,37,8*50,1746260577008
NMEA,$GLGSV,2,1,06,74,53,322,30,82,16,035,34,73,75,140,43,80,18,139,22,1*7A,1746260577008
NMEA,$GLGSV,2,2,06,84,49,212,31,83,59,036,28,1*74,1746260577008
NMEA,$GAGSV,3,1,11,03,07,320,35,05,10,272,32,10,20,191,19,12,41,177,39,7*7F,1746260577008
NMEA,$GAGSV,3,2,11,16,26,300,30,23,17,113,41,24,53,304,31,25,04,297,34,7*7D,1746260577008
NMEA,$GAGSV,3,3,11,26,19,039,34,31,68,098,41,33,58,082,41,7*48,1746260577008
NMEA,$GAGSV,3,1,11,03,07,320,30,05,10,272,28,10,20,191,22,12,41,177,37,1*71,1746260577008
NMEA,$GAGSV,3,2,11,16,26,300,30,23,17,113,39,24,53,304,29,25,04,297,28,1*70,1746260577008
NMEA,$GAGSV,3,3,11,26,19,039,28,31,68,098,34,33,58,082,36,1*41,1746260577008
NMEA,$GBGSV,3,1,10,45,71,192,43,38,22,049,39,36,26,149,36,35,35,229,37,1*76,1746260577008
NMEA,$GBGSV,3,2,10,30,25,053,40,29,80,067,40,26,38,306,32,13,28,079,38,1*70,1746260577008
NMEA,$GBGSV,3,3,10,08,27,060,37,05,17,120,,1*78,1746260577008
NMEA,$GBGSV,2,1,07,26,38,306,33,29,80,067,40,30,25,053,41,35,35,229,39,3*78,1746260577008
NMEA,$GBGSV,2,2,07,36,26,149,37,38,22,049,39,45,71,192,46,3*49,1746260577008
NMEA,$GBGSV,2,1,07,26,38,306,29,29,80,067,31,30,25,053,31,35,35,229,33,5*7E,1746260577008
NMEA,$GBGSV,2,2,07,36,26,149,30,38,22,049,26,45,71,192,35,5*42,1746260577008
NMEA,$GNGSA,A,3,04,05,16,18,20,25,26,28,29,31,,,0.6,0.3,0.5,1*3C,1746260577020
NMEA,$GNGSA,A,3,73,74,80,82,83,84,,,,,,,0.6,0.3,0.5,2*30,1746260577020
NMEA,$GNGSA,A,3,03,05,10,12,16,23,24,26,31,33,,,0.6,0.3,0.5,3*31,1746260577020
NMEA,$GNGSA,A,3,08,13,26,29,30,35,36,38,45,,,,0.6,0.3,0.5,4*3B,1746260577020
NMEA,$GNVTG,149.8,T,146.5,M,1.5,N,2.7,K,A*3E,1746260577020
NMEA,$GNDTM,P90,,0000.000026,S,00000.000000,E,0.978,W84*5C,1746260577020
NMEA,$GNRMC,082257.00,A,4503.590941,N,00741.837305,E,1.5,149.8,030525,3.3,E,A,V*50,1746260577020
NMEA,$GNGNS,082257.00,4503.590941,N,00741.837305,E,AAAANN,35,0.3,283.3,48.0,,,V*21,1746260577020
NMEA,$GNGGA,082257.00,4503.590941,N,00741.837305,E,1,12,0.3,283.3,M,48.0,M,,*74,1746260577020
NMEA,$GPGSV,3,1,10,04,05,315,32,05,19,075,38,16,18,299,33,18,54,169,39,1*64,1746260578011
NMEA,$GPGSV,3,2,10,20,12,040,37,25,31,119,31,26,45,302,31,28,44,215,36,1*64,1746260578011
NMEA,$GPGSV,3,3,10,29,58,052,38,31,52,256,35,1*6D,1746260578011
NMEA,$GPGSV,2,1,05,04,05,315,23,18,54,169,40,25,31,119,33,26,45,302,31,8*64,1746260578011
NMEA,$GPGSV,2,2,05,28,44,215,35,8*52,1746260578011
NMEA,$GLGSV,2,1,06,74,53,322,26,82,16,035,38,73,75,140,41,80,18,139,22,1*73,1746260578011
NMEA,$GLGSV,2,2,06,84,49,212,25,83,59,036,27,1*7E,1746260578011
NMEA,$GAGSV,3,1,11,03,07,320,28,05,10,272,27,10,20,191,21,12,41,177,34,7*71,1746260578011
NMEA,$GAGSV,3,2,11,16,26,300,33,23,17,113,39,24,53,304,30,25,04,297,34,7*70,1746260578011
NMEA,$GAGSV,3,3,11,26,19,039,39,31,68,098,42,33,58,082,42,7*45,1746260578011
NMEA,$GAGSV,3,1,11,03,07,320,27,05,10,272,25,10,20,191,26,12,41,177,33,1*7A,1746260578011
NMEA,$GAGSV,3,2,11,16,26,300,30,23,17,113,35,24,53,304,23,25,04,297,24,1*7A,1746260578011
NMEA,$GAGSV,3,3,11,26,19,039,35,31,68,098,31,33,58,082,39,1*47,1746260578011
NMEA,$GBGSV,3,1,10,45,71,192,41,38,22,049,41,36,26,149,34,35,35,229,35,1*7B,1746260578011
NMEA,$GBGSV,3,2,10,30,25,053,45,29,80,067,39,26,38,306,34,13,28,079,36,1*73,1746260578011
NMEA,$GBGSV,3,3,10,08,27,060,38,05,17,120,,1*77,1746260578011
NMEA,$GBGSV,2,1,07,26,38,306,35,29,80,067,40,30,25,053,45,35,35,229,36,3*75,1746260578011
NMEA,$GBGSV,2,2,07,36,26,149,36,38,22,049,43,45,71,192,43,3*40,1746260578011
NMEA,$GBGSV,2,1,07,26,38,306,25,29,80,067,33,30,25,053,38,35,35,229,32,5*78,1746260578011
NMEA,$GBGSV,2,2,07,36,26,149,29,38,22,049,35,45,71,192,36,5*4B,1746260578011
NMEA,$GNGSA,A,3,04,05,16,18,20,25,26,28,29,31,,,0.6,0.3,0.5,1*3C,1746260578025
NMEA,$GNGSA,A,3,73,74,80,82,83,84,,,,,,,0.6,0.3,0.5,2*30,1746260578025
NMEA,$GNGSA,A,3,03,05,10,12,16,23,24,26,31,33,,,0.6,0.3,0.5,3*31,1746260578025
NMEA,$GNGSA,A,3,08,13,26,29,30,35,36,38,45,,,,0.6,0.3,0.5,4*3B,1746260578025
NMEA,$GNVTG,149.9,T,146.6,M,1.1,N,2.1,K,A*3E,1746260578025
NMEA,$GNDTM,P90,,0000.000026,S,00000.000000,E,0.978,W84*5C,1746260578025
NMEA,$GNRMC,082258.00,A,4503.590494,N,00741.837917,E,1.1,149.9,030525,3.3,E,A,V*56,1746260578025
NMEA,$GNGNS,082258.00,4503.590494,N,00741.837917,E,AAAANN,35,0.3,282.8,48.0,,,V*28,1746260578025
NMEA,$GNGGA,082258.00,4503.590494,N,00741.837917,E,1,12,0.3,282.8,M,48.0,M,,*7D,1746260578025
NMEA,$GPGSV,3,1,10,04,05,315,22,05,19,075,39,16,18,299,33,18,54,169,38,1*65,1746260579007
NMEA,$GPGSV,3,2,10,20,12,040,39,25,31,119,29,26,45,302,29,28,44,215,35,1*69,1746260579007
NMEA,$GPGSV,3,3,10,29,58,052,40,31,52,256,31,1*66,1746260579007
NMEA,$GPGSV,2,1,05,04,05,315,23,18,54,169,39,25,31,119,34,26,45,302,33,8*6F,1746260579007
NMEA,$GPGSV,2,2,05,28,44,215,37,8*50,1746260579007
NMEA,$GLGSV,2,1,06,74,53,322,23,82,16,035,37,73,75,140,38,80,18,139,22,1*77,1746260579007
NMEA,$GLGSV,2,2,06,84,49,212,23,83,59,036,29,1*76,1746260579007
NMEA,$GAGSV,3,1,11,03,07,320,26,05,10,272,29,10,20,191,29,12,41,177,33,7*7E,1746260579007
NMEA,$GAGSV,3,2,11,16,26,300,34,23,17,113,38,24,53,304,31,25,04,297,32,7*71,1746260579007
NMEA,$GAGSV,3,3,11,26,19,039,40,31,68,098,44,33,58,082,43,7*4C,1746260579007
NMEA,$GAGSV,3,1,11,03,07,320,27,05,10,272,31,10,20,191,30,12,41,177,35,1*7E,1746260579007
NMEA,$GAGSV,3,2,11,16,26,300,30,23,17,113,34,24,53,304,27,25,04,297,26,1*7D,1746260579007
NMEA,$GAGSV,3,3,11,26,19,039,36,31,68,098,33,33,58,082,39,1*46,1746260579007
NMEA,$GBGSV,3,1,10,45,71,192,40,38,22,049,41,36,26,149,33,35,35,229,38,1*70,1746260579007
NMEA,$GBGSV,3,2,10,30,25,053,43,29,80,067,38,26,38,306,32,13,28,079,39,1*7D,1746260579007
NMEA,$GBGSV,3,3,10,08,27,060,40,05,17,120,,1*78,1746260579007
NMEA,$GBGSV,2,1,07,26,38,306,35,29,80,067,37,30,25,053,44,35,35,229,40,3*75,1746260579007
NMEA,$GBGSV,2,2,07,36,26,149,36,38,22,049,43,45,71,192,44,3*47,1746260579007
NMEA,$GBGSV,2,1,07,26,38,306,23,29,80,067,32,30,25,053,39,35,35,229,36,5*7A,1746260579007
NMEA,$GBGSV,2,2,07,36,26,149,34,38,22,049,37,45,71,192,38,5*4B,1746260579007
NMEA,$GNGSA,A,3,04,05,16,18,20,25,26,28,29,31,,,0.6,0.3,0.5,1*3C,1746260579020
NMEA,$GNGSA,A,3,73,74,80,82,83,84,,,,,,,0.6,0.3,0.5,2*30,1746260579020
NMEA,$GNGSA,A,3,03,05,10,12,16,23,24,26,31,33,,,0.6,0.3,0.5,3*31,1746260579020
NMEA,$GNGSA,A,3,08,13,26,29,30,35,36,38,45,,,,0.6,0.3,0.5,4*3B,1746260579020
NMEA,$GNVTG,150.0,T,146.7,M,1.0,N,1.8,K,A*35,1746260579020
NMEA,$GNDTM,P90,,0000.000026,S,00000.000000,E,0.978,W84*5C,1746260579020
NMEA,$GNRMC,082259.00,A,4503.590089,N,00741.838425,E,1.0,150.0,030525,3.3,E,A,V*5C,1746260579020
NMEA,$GNGNS,082259.00,4503.590089,N,00741.838425,E,AAAANN,35,0.3,282.2,48.0,,,V*28,1746260579020
NMEA,$GNGGA,082259.00,4503.590089,N,00741.838425,E,1,12,0.3,282.2,M,48.0,M,,*7D,1746260579020
NMEA,$GPGSV,3,1,10,04,05,315,24,05,19,075,41,16,18,299,33,18,54,169,44,1*67,1746260580011
NMEA,$GPGSV,3,2,10,20,12,040,35,25,31,119,29,26,45,302,35,28,44,215,44,1*6E,1746260580011
NMEA,$GPGSV,3,3,10,29,58,052,37,31,52,256,39,1*6E,1746260580011
NMEA,$GPGSV,2,1,05,04,05,315,23,18,54,169,38,25,31,119,31,26,45,302,32,8*6A,1746260580011
NMEA,$GPGSV,2,2,05,28,44,215,39,8*5E,1746260580011
NMEA,$GLGSV,2,1,06,74,53,322,30,82,16,035,34,73,75,140,42,80,18,139,21,1*78,1746260580011
NMEA,$GLGSV,2,2,06,84,49,212,33,83,59,036,27,1*79,1746260580011
NMEA,$GAGSV,3,1,11,03,07,320,24,05,10,272,34,10,20,191,34,12,41,177,40,7*78,1746260580011
NMEA,$GAGSV,3,2,11,16,26,300,31,23,17,113,34,24,53,304,35,25,04,297,34,7*7A,1746260580011
NMEA,$GAGSV,3,3,11,26,19,039,31,31,68,098,40,33,58,082,39,7*43,1746260580011
NMEA,$GAGSV,3,1,11,03,07,320,22,05,10,272,34,10,20,191,35,12,41,177,34,1*7A,1746260580011
NMEA,$GAGSV,3,2,11,16,26,300,34,23,17,113,30,24,53,304,34,25,04,297,27,1*7E,1746260580011
NMEA,$GAGSV,3,3,11,26,19,039,29,31,68,098,36,33,58,082,38,1*4C,1746260580011
NMEA,$GBGSV,3,1,10,45,71,192,44,38,22,049,37,36,26,149,38,35,35,229,40,1*71,1746260580011
NMEA,$GBGSV,3,2,10,30,25,053,40,29,80,067,39,26,38,306,36,13,28,079,39,1*7B,1746260580011
NMEA,$GBGSV,3,3,10,08,27,060,34,05,17,120,,1*7B,1746260580011
NMEA,$GBGSV,2,1,07,26,38,306,37,29,80,067,39,30,25,053,40,35,35,229,41,3*7C,1746260580011
NMEA,$GBGSV,2,2,07,36,26,149,39,38,22,049,39,45,71,192,46,3*47,1746260580011
NMEA,$GBGSV,2,1,07,26,38,306,30,29,80,067,33,30,25,053,32,35,35,229,38,5*7C,1746260580011
NMEA,$GBGSV,2,2,07,36,26,149,37,38,22,049,31,45,71,192,36,5*40,1746260580011
NMEA,$GNGSA,A,3,04,05,16,18,20,25,26,28,29,31,,,0.6,0.3,0.5,1*3C,1746260580025
NMEA,$GNGSA,A,3,73,74,80,82,83,84,,,,,,,0.6,0.3,0.5,2*30,1746260580025
NMEA,$GNGSA,A,3,03,05,10,12,16,23,24,26,31,33,,,0.6,0.3,0.5,3*31,1746260580025
NMEA,$GNGSA,A,3,08,13,26,29,30,35,36,38,45,,,,0.6,0.3,0.5,4*3B,1746260580025
NMEA,$GNVTG,149.9,T,146.6,M,1.0,N,1.8,K,A*35,1746260580025
NMEA,$GNDTM,P90,,0000.000026,S,00000.000000,E,0.978,W84*5C,1746260580025
NMEA,$GNRMC,082300.00,A,4503.589754,N,00741.838046,E,1.0,149.9,030525,3.3,E,A,V*5E,1746260580025
NMEA,$GNGNS,082300.00,4503.589754,N,00741.838046,E,AAAANN,35,0.3,282.3,48.0,,,V*2A,1746260580025
NMEA,$GNGGA,082300.00,4503.589754,N,00741.838046,E,1,12,0.3,282.3,M,48.0,M,,*7F,1746260580025
NMEA,$GPGSV,3,1,10,04,05,315,29,05,19,075,34,16,18,299,36,18,54,169,44,1*6D,1746260581009
NMEA,$GPGSV,3,2,10,20,12,040,31,25,31,119,25,26,45,302,41,28,44,215,42,1*63,1746260581009
NMEA,$GPGSV,3,3,10,29,58,052,35,31,52,256,41,1*63,1746260581009
NMEA,$GPGSV,2,1,05,04,05,315,31,18,54,169,40,25,31,119,26,26,45,302,30,8*62,1746260581009
NMEA,$GPGSV,2,2,05,28,44,215,36,8*51,1746260581009
NMEA,$GLGSV,2,1,06,74,53,322,33,82,16,035,31,73,75,140,42,80,18,139,21,1*7E,1746260581009
NMEA,$GLGSV,2,2,06,84,49,212,33,83,59,036,24,1*7A,1746260581009
NMEA,$GAGSV,3,1,11,03,07,320,28,05,10,272,37,10,20,191,32,12,41,177,38,7*7E,1746260581009
NMEA,$GAGSV,3,2,11,16,26,300,32,23,17,113,23,24,53,304,37,25,04,297,33,7*7A,1746260581009
NMEA,$GAGSV,3,3,11,26,19,039,25,31,68,098,37,33,58,082,35,7*4A,1746260581009
NMEA,$GAGSV,3,1,11,03,07,320,27,05,10,272,35,10,20,191,28,12,41,177,37,1*71,1746260581009
NMEA,$GAGSV,3,2,11,16,26,300,35,23,17,113,24,24,53,304,26,25,04,297,29,1*77,1746260581009
NMEA,$GAGSV,3,3,11,26,19,039,32,31,68,098,35,33,58,082,35,1*48,1746260581009
NMEA,$GBGSV,3,1,10,45,71,192,44,38,22,049,27,36,26,149,40,35,35,229,46,1*79,1746260581009
NMEA,$GBGSV,3,2,10,30,25,053,31,29,80,067,40,26,38,306,42,13,28,079,29,1*71,1746260581009
NMEA,$GBGSV,3,3,10,08,27,060,31,05,17,120,,1*7E,1746260581009
NMEA,$GBGSV,2,1,07,26,38,306,42,29,80,067,41,30,25,053,32,35,35,229,47,3*72,1746260581009
NMEA,$GBGSV,2,2,07,36,26,149,41,38,22,049,32,45,71,192,46,3*43,1746260581009
NMEA,$GBGSV,2,1,07,26,38,306,26,29,80,067,35,30,25,053,31,35,35,229,36,5*70,1746260581009
NMEA,$GBGSV,2,2,07,36,26,149,37,38,22,049,32,45,71,192,39,5*4C,1746260581009
NMEA,$GNGSA,A,3,04,05,16,18,20,25,26,28,29,31,,,0.6,0.3,0.5,1*3C,1746260581022
NMEA,$GNGSA,A,3,73,74,80,82,83,84,,,,,,,0.6,0.3,0.5,2*30,1746260581022
NMEA,$GNGSA,A,3,03,05,10,12,16,23,24,26,31,33,,,0.6,0.3,0.5,3*31,1746260581022
NMEA,$GNGSA,A,3,08,13,26,29,30,35,36,38,45,,,,0.6,0.3,0.5,4*3B,1746260581022
NMEA,$GNVTG,149.9,T,146.6,M,0.9,N,1.7,K,A*32,1746260581022
NMEA,$GNDTM,P90,,0000.000026,S,00000.000000,E,0.978,W84*5C,1746260581022
NMEA,$GNRMC,082301.00,A,4503.589691,N,00741.837598,E,0.9,149.9,030525,3.3,E,A,V*56,1746260581022
NMEA,$GNGNS,082301.00,4503.589691,N,00741.837598,E,AAAANN,35,0.3,282.5,48.0,,,V*2C,1746260581022
NMEA,$GNGGA,082301.00,4503.589691,N,00741.837598,E,1,12,0.3,282.5,M,48.0,M,,*79,1746260581022
NMEA,$GPGSV,3,1,10,04,05,315,32,05,19,075,33,16,18,299,43,18,54,169,43,1*65,1746260582007
NMEA,$GPGSV,3,2,10,20,12,040,29,25,31,119,25,26,45,302,42,28,44,215,41,1*6A,1746260582007
NMEA,$GPGSV,3,3,10,29,58,052,34,31,52,256,43,1*60,1746260582007
NMEA,$GPGSV,2,1,05,04,05,315,31,18,54,169,41,25,31,119,26,26,45,302,38,8*6B,1746260582007
NMEA,$GPGSV,2,2,05,28,44,215,37,8*50,1746260582007
NMEA,$GLGSV,2,1,06,74,53,322,37,82,16,035,27,73,75,140,41,80,18,139,21,1*7E,1746260582007
NMEA,$GLGSV,2,2,06,84,49,212,32,83,59,036,26,1*79,1746260582007
NMEA,$GAGSV,3,1,11,03,07,320,33,05,10,272,38,10,20,191,33,12,41,177,39,7*7B,1746260582007
NMEA,$GAGSV,3,2,11,16,26,300,39,23,17,113,21,24,53,304,41,25,04,297,38,7*79,1746260582007
NMEA,$GAGSV,3,3,11,26,19,039,26,31,68,098,37,33,58,082,33,7*4F,1746260582007
NMEA,$GAGSV,3,1,11,03,07,320,29,05,10,272,37,10,20,191,31,12,41,177,39,1*7B,1746260582007
NMEA,$GAGSV,3,2,11,16,26,300,40,23,17,113,23,24,53,304,35,25,04,297,34,1*7C,1746260582007
NMEA,$GAGSV,3,3,11,26,19,039,32,31,68,098,34,33,58,082,33,1*4F,1746260582007
NMEA,$GBGSV,3,1,10,45,71,192,42,38,22,049,30,36,26,149,41,35,35,229,45,1*7B,1746260582007
NMEA,$GBGSV,3,2,10,30,25,053,28,29,80,067,39,26,38,306,41,13,28,079,30,1*7C,1746260582007
NMEA,$GBGSV,3,3,10,08,27,060,26,05,17,120,,1*78,1746260582007
NMEA,$GBGSV,2,1,07,26,38,306,41,29,80,067,42,30,25,053,31,35,35,229,47,3*71,1746260582007
NMEA,$GBGSV,2,2,07,36,26,149,43,38,22,049,32,45,71,192,44,3*43,1746260582007
NMEA,$GBGSV,2,1,07,26,38,306,35,29,80,067,31,30,25,053,25,35,35,229,32,5*77,1746260582007
NMEA,$GBGSV,2,2,07,36,26,149,37,38,22,049,27,45,71,192,37,5*46,1746260582007
NMEA,$GNGSA,A,3,04,05,16,18,20,25,26,28,29,31,,,0.6,0.3,0.5,1*3C,1746260582032
NMEA,$GNGSA,A,3,73,74,80,82,83,84,,,,,,,0.6,0.3,0.5,2*30,1746260582032
NMEA,$GNGSA,A,3,03,05,10,12,16,23,24,26,31,33,,,0.6,0.3,0.5,3*31,1746260582032
NMEA,$GNGSA,A,3,08,13,26,29,30,35,36,38,45,,,,0.6,0.3,0.5,4*3B,1746260582032
NMEA,$GNVTG,149.9,T,146.6,M,1.1,N,2.1,K,A*3E,1746260582032
NMEA,$GNDTM,P90,,0000.000026,S,00000.000000,E,0.978,W84*5C,1746260582032
NMEA,$GNRMC,082302.00,A,4503.589766,N,00741.837135,E,1.1,149.9,030525,3.3,E,A,V*56,1746260582032
NMEA,$GNGNS,082302.00,4503.589766,N,00741.837135,E,AAAANN,35,0.3,282.5,48.0,,,V*25,1746260582032
NMEA,$GNGGA,082302.00,4503.589766,N,00741.837135,E,1,12,0.3,282.5,M,48.0,M,,*70,1746260582032
NMEA,$GPGSV,3,1,10,04,05,315,38,05,19,075,30,16,18,299,42,18,54,169,36,1*6F,1746260583008
NMEA,$GPGSV,3,2,10,20,12,040,27,25,31,119,25,26,45,302,41,28,44,215,42,1*64,1746260583008
NMEA,$GPGSV,3,3,10,29,58,052,37,31,52,256,44,1*64,1746260583008
NMEA,$GPGSV,2,1,05,04,05,315,40,18,54,169,40,25,31,119,26,26,45,302,36,8*62,1746260583008
NMEA,$GPGSV,2,2,05,28,44,215,43,8*53,1746260583008
NMEA,$GLGSV,2,1,06,74,53,322,36,82,16,035,26,73,75,140,39,80,18,139,21,1*71,1746260583008
NMEA,$GLGSV,2,2,06,84,49,212,31,83,59,036,25,1*79,1746260583008
NMEA,$GAGSV,3,1,11,03,07,320,39,05,10,272,37,10,20,191,28,12,41,177,29,7*75,1746260583008
NMEA,$GAGSV,3,2,11,16,26,300,41,23,17,113,21,24,53,304,42,25,04,297,37,7*7A,1746260583008
NMEA,$GAGSV,3,3,11,26,19,039,22,31,68,098,32,33,58,082,38,7*45,1746260583008
NMEA,$GAGSV,3,1,11,03,07,320,40,05,10,272,33,10,20,191,23,12,41,177,31,1*7B,1746260583008
NMEA,$GAGSV,3,2,11,16,26,300,43,23,17,113,23,24,53,304,36,25,04,297,36,1*7E,1746260583008
NMEA,$GAGSV,3,3,11,26,19,039,21,31,68,098,29,33,58,082,31,1*43,1746260583008
NMEA,$GBGSV,3,1,10,45,71,192,40,38,22,049,30,36,26,149,36,35,35,229,40,1*7C,1746260583008
NMEA,$GBGSV,3,2,10,30,25,053,27,29,80,067,38,26,38,306,38,13,28,079,27,1*7A,1746260583008
NMEA,$GBGSV,3,3,10,08,27,060,27,05,17,120,,1*79,1746260583008
NMEA,$GBGSV,2,1,07,26,38,306,38,29,80,067,40,30,25,053,27,35,35,229,42,3*7F,1746260583008
NMEA,$GBGSV,2,2,07,36,26,149,37,38,22,049,25,45,71,192,43,3*41,1746260583008
