NMEA,$GPGSV,3,1,10,05,20,049,42,16,42,306,37,18,76,116,39,23,19,140,42,1*65,1746264007010
NMEA,$GPGSV,3,2,10,26,70,285,36,27,17,270,22,29,35,069,46,25,09,133,,1*64,1746264007010
NMEA,$GPGSV,3,3,10,28,20,201,,31,36,224,,1*6D,1746264007010
NMEA,$GPGSV,2,1,06,18,76,116,44,23,19,140,39,26,70,285,35,28,20,201,33,8*61,1746264007010
NMEA,$GPGSV,2,2,06,25,09,133,,27,17,270,,8*62,1746264007010
NMEA,$GLGSV,3,1,09,74,79,265,28,73,42,162,35,75,29,324,23,84,76,267,23,1*76,1746264007010
NMEA,$GLGSV,3,2,09,83,29,038,31,85,25,232,21,67,08,036,36,66,02,347,,1*78,1746264007010
NMEA,$GLGSV,3,3,09,68,00,000,,1*4F,1746264007010
NMEA,$GAGSV,3,1,11,10,43,197,38,12,65,175,38,16,44,306,37,24,73,305,29,7*72,1746264007010
NMEA,$GAGSV,3,2,11,26,01,037,33,31,50,126,34,33,47,052,45,03,01,303,,7*71,1746264007010
NMEA,$GAGSV,3,3,11,11,17,207,,23,01,126,,25,20,306,,7*45,1746264007010
NMEA,$GAGSV,3,1,09,10,43,197,33,12,65,175,31,16,44,306,30,24,73,305,34,1*74,1746264007010
NMEA,$GAGSV,3,2,09,26,01,037,29,31,50,126,35,33,47,052,39,03,01,303,,1*7F,1746264007010
NMEA,$GAGSV,3,3,09,23,01,126,,1*49,1746264007010
NMEA,$GBGSV,4,1,13,45,45,180,35,38,23,040,39,35,57,249,39,32,06,045,26,1*79,1746264007010
NMEA,$GBGSV,4,2,13,30,05,060,28,29,57,054,49,26,54,282,36,13,37,068,42,1*7B,1746264007010
NMEA,$GBGSV,4,3,13,08,31,049,39,05,17,119,34,24,13,318,,44,11,243,,1*78,1746264007010
NMEA,$GBGSV,4,4,13,60,05,101,,1*47,1746264007010
NMEA,$GBGSV,3,1,09,24,13,318,19,26,54,282,37,29,57,054,49,30,05,060,31,3*77,1746264007010
NMEA,$GBGSV,3,2,09,32,06,045,26,35,57,249,40,38,23,040,41,45,45,180,40,3*77,1746264007010
NMEA,$GBGSV,3,3,09,44,11,243,,3*48,1746264007010
NMEA,$GBGSV,3,1,11,26,54,282,34,29,57,054,36,30,05,060,17,32,06,045,27,5*72,1746264007010
NMEA,$GBGSV,3,2,11,35,57,249,27,38,23,040,40,45,45,180,24,20,04,096,,5*71,1746264007010
NMEA,$GBGSV,3,3,11,24,13,318,,36,03,155,,44,11,243,,5*4E,1746264007010
NMEA,$GNGSA,A,3,05,16,18,23,26,27,28,29,31,,,,0.7,0.4,0.5,1*3F,1746264007047
NMEA,$GNGSA,A,3,67,73,74,75,83,84,85,,,,,,0.7,0.4,0.5,2*3A,1746264007047
NMEA,$GNGSA,A,3,10,12,16,24,31,33,,,,,,,0.7,0.4,0.5,3*34,1746264007047
NMEA,$GNGSA,A,3,05,08,13,26,29,30,32,35,38,45,,,0.7,0.4,0.5,4*3C,1746264007047
NMEA,$GNVTG,,T,,M,0.0,N,0.0,K,A*3D,1746264007047
NMEA,$GNDTM,P90,,0000.000026,S,00000.000000,E,0.978,W84*5C,1746264007047
NMEA,$GNRMC,092007.00,A,4503.225383,N,00741.243565,E,0.0,,030525,3.3,E,A,V*7C,1746264007047
NMEA,$GNGNS,092007.00,4503.225383,N,00741.243565,E,AAAANN,32,0.4,211.6,48.0,,,V*2D,1746264007047
NMEA,$GNGGA,092007.00,4503.225383,N,00741.243565,E,1,12,0.4,211.6,M,48.0,M,,*7F,1746264007047
NMEA,$GPGSV,3,1,10,05,20,049,39,16,42,306,33,18,76,116,37,23,19,140,42,1*63,1746264008013
NMEA,$GPGSV,3,2,10,26,70,285,33,27,17,270,22,29,35,069,46,25,09,133,,1*61,1746264008013
NMEA,$GPGSV,3,3,10,28,20,201,,31,36,224,,1*6D,1746264008013
NMEA,$GPGSV,2,1,06,18,76,116,40,23,19,140,36,26,70,285,32,28,20,201,27,8*68,1746264008013
NMEA,$GPGSV,2,2,06,25,09,133,,27,17,270,,8*62,1746264008013
NMEA,$GLGSV,3,1,09,74,79,265,25,73,42,162,35,75,29,324,23,84,76,267,23,1*7B,1746264008013
NMEA,$GLGSV,3,2,09,83,29,038,31,85,25,232,21,67,08,036,31,66,02,347,,1*7F,1746264008013
NMEA,$GLGSV,3,3,09,68,00,000,,1*4F,1746264008013
NMEA,$GAGSV,3,1,11,10,43,197,37,12,65,175,35,16,44,306,34,24,73,305,28,7*72,1746264008013
NMEA,$GAGSV,3,2,11,26,01,037,31,31,50,126,32,33,47,052,43,03,01,303,,7*73,1746264008013
NMEA,$GAGSV,3,3,11,11,17,207,,23,01,126,,25,20,306,,7*45,1746264008013
NMEA,$GAGSV,3,1,09,10,43,197,28,12,65,175,24,16,44,306,30,24,73,305,31,1*7F,1746264008013
NMEA,$GAGSV,3,2,09,26,01,037,25,31,50,126,29,33,47,052,36,03,01,303,,1*71,1746264008013
NMEA,$GAGSV,3,3,09,23,01,126,,1*49,1746264008013
NMEA,$GBGSV,4,1,13,45,45,180,34,38,23,040,38,35,57,249,34,32,06,045,27,1*75,1746264008013
NMEA,$GBGSV,4,2,13,30,05,060,29,29,57,054,47,26,54,282,37,13,37,068,42,1*75,1746264008013
NMEA,$GBGSV,4,3,13,08,31,049,37,05,17,119,34,24,13,318,,44,11,243,,1*76,1746264008013
NMEA,$GBGSV,4,4,13,60,05,101,,1*47,1746264008013
NMEA,$GBGSV,3,1,09,24,13,318,19,26,54,282,37,29,57,054,48,30,05,060,31,3*76,1746264008013
NMEA,$GBGSV,3,2,09,32,06,045,26,35,57,249,36,38,23,040,39,45,45,180,39,3*77,1746264008013
NMEA,$GBGSV,3,3,09,44,11,243,,3*48,1746264008013
NMEA,$GBGSV,3,1,11,26,54,282,26,29,57,054,31,30,05,060,17,32,06,045,27,5*76,1746264008013
NMEA,$GBGSV,3,2,11,35,57,249,24,38,23,040,35,45,45,180,24,20,04,096,,5*70,1746264008013
NMEA,$GBGSV,3,3,11,24,13,318,,36,03,155,,44,11,243,,5*4E,1746264008013
NMEA,$GNGSA,A,3,05,16,18,23,26,27,28,29,31,,,,0.7,0.4,0.5,1*3F,1746264008031
NMEA,$GNGSA,A,3,67,73,74,75,83,84,85,,,,,,0.7,0.4,0.5,2*3A,1746264008031
NMEA,$GNGSA,A,3,10,12,16,24,31,33,,,,,,,0.7,0.4,0.5,3*34,1746264008031
NMEA,$GNGSA,A,3,05,08,13,26,29,30,32,35,38,45,,,0.7,0.4,0.5,4*3C,1746264008031
NMEA,$GNVTG,,T,,M,0.0,N,0.0,K,A*3D,1746264008031
NMEA,$GNDTM,P90,,0000.000026,S,00000.000000,E,0.978,W84*5C,1746264008031
NMEA,$GNRMC,092008.00,A,4503.225327,N,00741.243582,E,0.0,,030525,3.3,E,A,V*74,1746264008031
NMEA,$GNGNS,092008.00,4503.225327,N,00741.243582,E,AAAANN,32,0.4,211.7,48.0,,,V*24,1746264008031
NMEA,$GNGGA,092008.00,4503.225327,N,00741.243582,E,1,12,0.4,211.7,M,48.0,M,,*76,1746264008031
NMEA,$GPGSV,3,1,10,05,20,049,42,16,42,306,37,18,76,116,42,23,19,140,43,1*68,1746264009009
NMEA,$GPGSV,3,2,10,26,70,285,37,27,17,270,22,29,35,069,46,25,09,133,,1*65,1746264009009
NMEA,$GPGSV,3,3,10,28,20,201,,31,36,224,,1*6D,1746264009009
NMEA,$GPGSV,2,1,06,18,76,116,44,23,19,140,39,26,70,285,35,28,20,201,32,8*60,1746264009009
NMEA,$GPGSV,2,2,06,25,09,133,,27,17,270,,8*62,1746264009009
NMEA,$GLGSV,3,1,09,74,79,265,32,73,42,162,38,75,29,324,20,84,76,267,24,1*74,1746264009009
NMEA,$GLGSV,3,2,09,83,29,038,32,85,25,232,21,67,08,036,37,66,02,347,,1*7A,1746264009009
NMEA,$GLGSV,3,3,09,68,00,000,,1*4F,1746264009009
NMEA,$GAGSV,3,1,11,10,43,197,40,12,65,175,39,16,44,306,37,24,73,305,35,7*71,1746264009009
NMEA,$GAGSV,3,2,11,26,01,037,34,31,50,126,37,33,47,052,45,03,01,303,,7*75,1746264009009
NMEA,$GAGSV,3,3,11,11,17,207,,23,01,126,,25,20,306,,7*45,1746264009009
NMEA,$GAGSV,3,1,09,10,43,197,32,12,65,175,26,16,44,306,31,24,73,305,35,1*73,1746264009009
NMEA,$GAGSV,3,2,09,26,01,037,27,31,50,126,34,33,47,052,42,03,01,303,,1*7C,1746264009009
NMEA,$GAGSV,3,3,09,23,01,126,,1*49,1746264009009
NMEA,$GBGSV,4,1,13,45,45,180,40,38,23,040,40,35,57,249,30,32,06,045,30,1*7B,1746264009009
NMEA,$GBGSV,4,2,13,30,05,060,29,29,57,054,50,26,54,282,37,13,37,068,41,1*70,1746264009009
NMEA,$GBGSV,4,3,13,08,31,049,41,05,17,119,35,24,13,318,,44,11,243,,1*76,1746264009009
NMEA,$GBGSV,4,4,13,60,05,101,,1*47,1746264009009
NMEA,$GBGSV,3,1,09,24,13,318,21,26,54,282,39,29,57,054,50,30,05,060,33,3*78,1746264009009
NMEA,$GBGSV,3,2,09,32,06,045,24,35,57,249,33,38,23,040,42,45,45,180,44,3*76,1746264009009
NMEA,$GBGSV,3,3,09,44,11,243,,3*48,1746264009009
NMEA,$GBGSV,3,1,11,26,54,282,29,29,57,054,35,30,05,060,17,32,06,045,23,5*79,1746264009009
NMEA,$GBGSV,3,2,11,35,57,249,28,38,23,040,40,45,45,180,25,20,04,096,,5*7F,1746264009009
NMEA,$GBGSV,3,3,11,24,13,318,,36,03,155,,44,11,243,,5*4E,1746264009009
NMEA,$GNGSA,A,3,05,16,18,23,26,27,28,29,31,,,,0.7,0.4,0.5,1*3F,1746264009020
NMEA,$GNGSA,A,3,67,73,74,75,83,84,85,,,,,,0.7,0.4,0.5,2*3A,1746264009020
NMEA,$GNGSA,A,3,10,12,16,24,31,33,,,,,,,0.7,0.4,0.5,3*34,1746264009020
NMEA,$GNGSA,A,3,05,08,13,26,29,30,32,35,38,45,,,0.7,0.4,0.5,4*3C,1746264009020
NMEA,$GNVTG,,T,,M,0.0,N,0.0,K,A*3D,1746264009020
NMEA,$GNDTM,P90,,0000.000026,S,00000.000000,E,0.978,W84*5C,1746264009020
NMEA,$GNRMC,092009.00,A,4503.225310,N,00741.243596,E,0.0,,030525,3.3,E,A,V*74,1746264009020
NMEA,$GNGNS,092009.00,4503.225310,N,00741.243596,E,AAAANN,32,0.4,211.7,48.0,,,V*24,1746264009020
NMEA,$GNGGA,092009.00,4503.225310,N,00741.243596,E,1,12,0.4,211.7,M,48.0,M,,*76,1746264009020
NMEA,$GPGSV,3,1,10,05,20,049,42,16,42,306,39,18,76,116,42,23,19,140,45,1*60,1746264010013
NMEA,$GPGSV,3,2,10,26,70,285,37,29,35,069,46,25,09,133,,27,17,270,,1*65,1746264010013
NMEA,$GPGSV,3,3,10,28,20,201,,31,36,224,,1*6D,1746264010013
NMEA,$GPGSV,2,1,06,18,76,116,43,23,19,140,39,26,70,285,29,28,20,201,33,8*6B,1746264010013
NMEA,$GPGSV,2,2,06,25,09,133,,27,17,270,,8*62,1746264010013
NMEA,$GLGSV,3,1,09,74,79,265,33,73,42,162,41,75,29,324,23,84,76,267,29,1*75,1746264010013
NMEA,$GLGSV,3,2,09,83,29,038,34,85,25,232,21,67,08,036,40,66,02,347,,1*7C,1746264010013
NMEA,$GLGSV,3,3,09,68,00,000,,1*4F,1746264010013
NMEA,$GAGSV,3,1,11,10,43,197,40,12,65,175,38,16,44,306,38,24,73,305,34,7*7E,1746264010013
NMEA,$GAGSV,3,2,11,26,01,037,35,31,50,126,38,33,47,052,46,03,01,303,,7*78,1746264010013
NMEA,$GAGSV,3,3,11,11,17,207,,23,01,126,,25,20,306,,7*45,1746264010013
NMEA,$GAGSV,3,1,09,10,43,197,32,12,65,175,26,16,44,306,28,24,73,305,34,1*7A,1746264010013
NMEA,$GAGSV,3,2,09,26,01,037,24,31,50,126,33,33,47,052,43,03,01,303,,1*79,1746264010013
NMEA,$GAGSV,3,3,09,23,01,126,,1*49,1746264010013
NMEA,$GBGSV,4,1,13,45,45,180,38,38,23,040,43,35,57,249,28,32,06,045,27,1*78,1746264010013
NMEA,$GBGSV,4,2,13,30,05,060,27,29,57,054,49,26,54,282,36,13,37,068,40,1*76,1746264010013
NMEA,$GBGSV,4,3,13,08,31,049,42,05,17,119,38,24,13,318,,44,11,243,,1*78,1746264010013
NMEA,$GBGSV,4,4,13,60,05,101,,1*47,1746264010013
NMEA,$GBGSV,3,1,09,24,13,318,21,26,54,282,37,29,57,054,50,30,05,060,33,3*76,1746264010013
NMEA,$GBGSV,3,2,09,32,06,045,26,35,57,249,31,38,23,040,45,45,45,180,41,3*74,1746264010013
NMEA,$GBGSV,3,3,09,44,11,243,,3*48,1746264010013
NMEA,$GBGSV,3,1,11,26,54,282,29,29,57,054,33,30,05,060,17,32,06,045,25,5*79,1746264010013
NMEA,$GBGSV,3,2,11,35,57,249,28,38,23,040,40,45,45,180,25,20,04,096,,5*7F,1746264010013
NMEA,$GBGSV,3,3,11,24,13,318,,36,03,155,,44,11,243,,5*4E,1746264010013
NMEA,$GNGSA,A,3,05,16,18,23,26,27,28,29,31,,,,0.7,0.4,0.5,1*3F,1746264010028
NMEA,$GNGSA,A,3,67,73,74,75,83,84,85,,,,,,0.7,0.4,0.5,2*3A,1746264010028
NMEA,$GNGSA,A,3,10,12,16,24,31,33,,,,,,,0.7,0.4,0.5,3*34,1746264010028
NMEA,$GNGSA,A,3,05,08,13,26,29,30,32,35,38,45,,,0.7,0.4,0.5,4*3C,1746264010028
NMEA,$GNVTG,,T,,M,0.0,N,0.0,K,A*3D,1746264010028
NMEA,$GNDTM,P90,,0000.000026,S,00000.000000,E,0.978,W84*5C,1746264010028
NMEA,$GNRMC,092010.00,A,4503.225293,N,00741.243597,E,0.0,,030525,3.3,E,A,V*77,1746264010028
NMEA,$GNGNS,092010.00,4503.225293,N,00741.243597,E,AAAANN,32,0.4,211.8,48.0,,,V*28,1746264010028
NMEA,$GNGGA,092010.00,4503.225293,N,00741.243597,E,1,12,0.4,211.8,M,48.0,M,,*7A,1746264010028
NMEA,$GPGSV,3,1,10,05,20,049,41,16,42,306,38,18,76,116,41,23,19,140,43,1*67,1746264011012
NMEA,$GPGSV,3,2,10,26,70,285,36,29,35,069,44,25,09,133,,27,17,270,,1*66,1746264011012
NMEA,$GPGSV,3,3,10,28,20,201,,31,36,224,,1*6D,1746264011012
NMEA,$GPGSV,2,1,06,18,76,116,43,23,19,140,39,26,70,285,27,28,20,201,33,8*65,1746264011012
NMEA,$GPGSV,2,2,06,25,09,133,,27,17,270,,8*62,1746264011012
NMEA,$GLGSV,3,1,09,74,79,265,33,73,42,162,39,75,29,324,23,84,76,267,28,1*7B,1746264011012
NMEA,$GLGSV,3,2,09,83,29,038,33,85,25,232,21,67,08,036,39,66,02,347,,1*75,1746264011012
NMEA,$GLGSV,3,3,09,68,00,000,,1*4F,1746264011012
NMEA,$GAGSV,3,1,11,10,43,197,40,12,65,175,37,16,44,306,37,24,73,305,34,7*7E,1746264011012
NMEA,$GAGSV,3,2,11,26,01,037,35,31,50,126,36,33,47,052,43,03,01,303,,7*73,1746264011012
NMEA,$GAGSV,3,3,11,11,17,207,,23,01,126,,25,20,306,,7*45,1746264011012
NMEA,$GAGSV,3,1,09,10,43,197,31,12,65,175,21,16,44,306,22,24,73,305,33,1*73,1746264011012
NMEA,$GAGSV,3,2,09,26,01,037,21,31,50,126,34,33,47,052,42,03,01,303,,1*7A,1746264011012
NMEA,$GAGSV,3,3,09,23,01,126,,1*49,1746264011012
NMEA,$GBGSV,4,1,13,45,45,180,39,38,23,040,42,35,57,249,25,32,06,045,24,1*76,1746264011012
NMEA,$GBGSV,4,2,13,30,05,060,25,29,57,054,48,26,54,282,36,13,37,068,40,1*75,1746264011012
NMEA,$GBGSV,4,3,13,08,31,049,41,05,17,119,36,24,13,318,,44,11,243,,1*75,1746264011012
NMEA,$GBGSV,4,4,13,60,05,101,,1*47,1746264011012
NMEA,$GBGSV,3,1,09,24,13,318,21,26,54,282,38,29,57,054,49,30,05,060,32,3*70,1746264011012
NMEA,$GBGSV,3,2,09,32,06,045,26,35,57,249,27,38,23,040,44,45,45,180,41,3*72,1746264011012
NMEA,$GBGSV,3,3,09,44,11,243,,3*48,1746264011012
NMEA,$GBGSV,3,1,11,26,54,282,29,29,57,054,32,30,05,060,17,32,06,045,25,5*78,1746264011012
NMEA,$GBGSV,3,2,11,35,57,249,28,38,23,040,40,45,45,180,21,20,04,096,,5*7B,1746264011012
NMEA,$GBGSV,3,3,11,24,13,318,,36,03,155,,44,11,243,,5*4E,1746264011012
NMEA,$GNGSA,A,3,05,16,18,23,26,27,28,29,,,,,0.7,0.4,0.5,1*3D,1746264011033
NMEA,$GNGSA,A,3,67,73,74,75,83,84,85,,,,,,0.7,0.4,0.5,2*3A,1746264011033
NMEA,$GNGSA,A,3,10,12,16,24,31,33,,,,,,,0.7,0.4,0.5,3*34,1746264011033
NMEA,$GNGSA,A,3,05,08,13,26,29,30,32,35,38,45,,,0.7,0.4,0.5,4*3C,1746264011033
NMEA,$GNVTG,,T,,M,0.0,N,0.0,K,A*3D,1746264011033
NMEA,$GNDTM,P90,,0000.000026,S,00000.000000,E,0.978,W84*5C,1746264011033
NMEA,$GNRMC,092011.00,A,4503.225257,N,00741.243600,E,0.0,,030525,3.3,E,A,V*73,1746264011033
NMEA,$GNGNS,092011.00,4503.225257,N,00741.243600,E,AAAANN,31,0.4,211.8,48.0,,,V*2F,1746264011033
NMEA,$GNGGA,092011.00,4503.225257,N,00741.243600,E,1,12,0.4,211.8,M,48.0,M,,*7E,1746264011033
NMEA,$GPGSV,3,1,10,05,20,049,40,16,42,306,35,18,76,116,39,23,19,140,42,1*65,1746264012012
NMEA,$GPGSV,3,2,10,26,70,285,35,29,35,069,43,25,09,133,,27,17,270,,1*62,1746264012012
NMEA,$GPGSV,3,3,10,28,20,201,,31,36,224,,1*6D,1746264012012
NMEA,$GPGSV,2,1,06,18,76,116,41,23,19,140,39,26,70,285,30,28,20,201,29,8*6A,1746264012012
NMEA,$GPGSV,2,2,06,25,09,133,,27,17,270,,8*62,1746264012012
NMEA,$GLGSV,3,1,09,74,79,265,33,73,42,162,37,75,29,324,23,84,76,267,26,1*7B,1746264012012
NMEA,$GLGSV,3,2,09,83,29,038,31,85,25,232,17,67,08,036,37,66,02,347,,1*7C,1746264012012
NMEA,$GLGSV,3,3,09,68,00,000,,1*4F,1746264012012
NMEA,$GAGSV,3,1,11,10,43,197,39,12,65,175,35,16,44,306,35,24,73,305,34,7*70,1746264012012
NMEA,$GAGSV,3,2,11,26,01,037,32,31,50,126,36,33,47,052,40,03,01,303,,7*77,1746264012012
NMEA,$GAGSV,3,3,11,11,17,207,,23,01,126,,25,20,306,,7*45,1746264012012
NMEA,$GAGSV,3,1,09,10,43,197,29,12,65,175,24,16,44,306,25,24,73,305,32,1*79,1746264012012
NMEA,$GAGSV,3,2,09,26,01,037,23,31,50,126,33,33,47,052,40,03,01,303,,1*7D,1746264012012
NMEA,$GAGSV,3,3,09,23,01,126,,1*49,1746264012012
NMEA,$GBGSV,4,1,13,45,45,180,38,38,23,040,40,35,57,249,23,32,06,045,24,1*73,1746264012012
NMEA,$GBGSV,4,2,13,30,05,060,24,29,57,054,47,26,54,282,37,13,37,068,37,1*7A,1746264012012
NMEA,$GBGSV,4,3,13,08,31,049,40,05,17,119,35,24,13,318,,44,11,243,,1*77,1746264012012
NMEA,$GBGSV,4,4,13,60,05,101,,1*47,1746264012012
NMEA,$GBGSV,3,1,09,24,13,318,21,26,54,282,39,29,57,054,47,30,05,060,31,3*7C,1746264012012
NMEA,$GBGSV,3,2,09,32,06,045,26,35,57,249,24,38,23,040,41,45,45,180,41,3*74,1746264012012
NMEA,$GBGSV,3,3,09,44,11,243,,3*48,1746264012012
NMEA,$GBGSV,3,1,11,26,54,282,24,29,57,054,31,30,05,060,17,32,06,045,26,5*75,1746264012012
NMEA,$GBGSV,3,2,11,35,57,249,17,38,23,040,38,45,45,180,21,20,04,096,,5*78,1746264012012
NMEA,$GBGSV,3,3,11,24,13,318,,36,03,155,,44,11,243,,5*4E,1746264012012
NMEA,$GNGSA,A,3,05,16,18,23,26,27,28,29,,,,,0.7,0.4,0.5,1*3D,1746264012040
NMEA,$GNGSA,A,3,67,73,74,75,83,84,85,,,,,,0.7,0.4,0.5,2*3A,1746264012040
NMEA,$GNGSA,A,3,10,12,16,24,31,33,,,,,,,0.7,0.4,0.5,3*34,1746264012040
NMEA,$GNGSA,A,3,05,08,13,26,29,30,32,35,38,45,,,0.7,0.4,0.5,4*3C,1746264012040
NMEA,$GNVTG,,T,,M,0.0,N,0.0,K,A*3D,1746264012040
NMEA,$GNDTM,P90,,0000.000026,S,00000.000000,E,0.978,W84*5C,1746264012040
NMEA,$GNRMC,092012.00,A,4503.225249,N,00741.243591,E,0.0,,030525,3.3,E,A,V*74,1746264012040
NMEA,$GNGNS,092012.00,4503.225249,N,00741.243591,E,AAAANN,31,0.4,211.9,48.0,,,V*29,1746264012040
NMEA,$GNGGA,092012.00,4503.225249,N,00741.243591,E,1,12,0.4,211.9,M,48.0,M,,*78,1746264012040
NMEA,$GPGSV,3,1,10,05,20,049,44,16,42,306,36,18,76,116,43,23,19,140,44,1*69,1746264013008
NMEA,$GPGSV,3,2,10,26,70,285,33,29,35,069,46,31,36,224,26,25,09,133,,1*60,1746264013008
NMEA,$GPGSV,3,3,10,27,17,270,,28,20,201,,1*68,1746264013008
NMEA,$GPGSV,2,1,06,18,76,116,42,23,19,140,40,26,70,285,35,28,20,201,30,8*6A,1746264013008
NMEA,$GPGSV,2,2,06,25,09,133,,27,17,270,,8*62,1746264013008
NMEA,$GLGSV,3,1,09,74,79,265,33,73,42,162,43,75,29,324,19,84,76,267,24,1*73,1746264013008
NMEA,$GLGSV,3,2,09,83,29,038,35,85,25,232,17,67,08,036,37,66,02,347,,1*78,1746264013008
NMEA,$GLGSV,3,3,09,68,00,000,,1*4F,1746264013008
NMEA,$GAGSV,3,1,11,10,43,197,39,12,65,175,36,16,44,306,37,24,73,305,31,7*74,1746264013008
NMEA,$GAGSV,3,2,11,26,01,037,31,31,50,126,35,33,47,052,43,03,01,303,,7*74,1746264013008
NMEA,$GAGSV,3,3,11,11,17,207,,23,01,126,,25,20,306,,7*45,1746264013008
NMEA,$GAGSV,3,1,09,10,43,197,28,12,65,175,25,16,44,306,33,24,73,305,33,1*7F,1746264013008
NMEA,$GAGSV,3,2,09,26,01,037,25,31,50,126,31,33,47,052,41,03,01,303,,1*78,1746264013008
NMEA,$GAGSV,3,3,09,23,01,126,,1*49,1746264013008
NMEA,$GBGSV,4,1,13,45,45,180,43,38,23,040,41,35,57,249,30,32,06,045,27,1*7F,1746264013008
NMEA,$GBGSV,4,2,13,30,05,060,28,29,57,054,50,26,54,282,38,13,37,068,42,1*7D,1746264013008
NMEA,$GBGSV,4,3,13,08,31,049,40,05,17,119,35,24,13,318,,44,11,243,,1*77,1746264013008
NMEA,$GBGSV,4,4,13,60,05,101,,1*47,1746264013008
NMEA,$GBGSV,3,1,09,24,13,318,21,26,54,282,40,29,57,054,50,30,05,060,30,3*75,1746264013008
NMEA,$GBGSV,3,2,09,32,06,045,29,35,57,249,33,38,23,040,42,45,45,180,43,3*7C,1746264013008
NMEA,$GBGSV,3,3,09,44,11,243,,3*48,1746264013008
NMEA,$GBGSV,3,1,11,26,54,282,32,29,57,054,31,30,05,060,21,32,06,045,28,5*79,1746264013008
NMEA,$GBGSV,3,2,11,35,57,249,25,38,23,040,38,45,45,180,29,20,04,096,,5*71,1746264013008
NMEA,$GBGSV,3,3,11,24,13,318,,36,03,155,,44,11,243,,5*4E,1746264013008
NMEA,$GNGSA,A,3,05,16,18,23,26,28,29,31,,,,,0.7,0.5,0.6,1*38,1746264013041
NMEA,$GNGSA,A,3,67,73,74,75,83,84,,,,,,,0.7,0.5,0.6,2*35,1746264013041
NMEA,$GNGSA,A,3,10,12,16,24,31,33,,,,,,,0.7,0.5,0.6,3*36,1746264013041
NMEA,$GNGSA,A,3,05,08,13,26,29,30,32,35,38,45,,,0.7,0.5,0.6,4*3E,1746264013041
NMEA,$GNVTG,,T,,M,0.0,N,0.0,K,A*3D,1746264013041
NMEA,$GNDTM,P90,,0000.000026,S,00000.000000,E,0.978,W84*5C,1746264013041
NMEA,$GNRMC,092013.00,A,4503.225249,N,00741.243594,E,0.0,,030525,3.3,E,A,V*70,1746264013041
NMEA,$GNGNS,092013.00,4503.225249,N,00741.243594,E,AAAANN,30,0.5,211.9,48.0,,,V*2D,1746264013041
NMEA,$GNGGA,092013.00,4503.225249,N,00741.243594,E,1,12,0.5,211.9,M,48.0,M,,*7D,1746264013041
NMEA,$GPGSV,3,1,10,05,20,049,44,16,42,306,34,18,76,116,42,23,19,140,45,1*6B,1746264014013
NMEA,$GPGSV,3,2,10,26,70,285,39,29,35,069,45,25,09,133,,27,17,270,,1*68,1746264014013
NMEA,$GPGSV,3,3,10,28,20,201,,31,36,224,,1*6D,1746264014013
NMEA,$GPGSV,2,1,06,18,76,116,40,23,19,140,38,26,70,285,37,28,20,201,31,8*64,1746264014013
NMEA,$GPGSV,2,2,06,25,09,133,,27,17,270,,8*62,1746264014013
NMEA,$GLGSV,3,1,09,74,79,265,35,73,42,162,43,75,29,324,19,84,76,267,26,1*77,1746264014013
NMEA,$GLGSV,3,2,09,83,29,038,36,85,25,232,17,67,08,036,35,66,02,347,,1*79,1746264014013
NMEA,$GLGSV,3,3,09,68,00,000,,1*4F,1746264014013
NMEA,$GAGSV,3,1,11,10,43,197,33,12,65,175,37,16,44,306,36,24,73,305,32,7*7D,1746264014013
NMEA,$GAGSV,3,2,11,26,01,037,21,31,50,126,38,33,47,052,40,03,01,303,,7*7B,1746264014013
NMEA,$GAGSV,3,3,11,11,17,207,,23,01,126,,25,20,306,,7*45,1746264014013
NMEA,$GAGSV,3,1,09,10,43,197,24,12,65,175,26,16,44,306,36,24,73,305,32,1*74,1746264014013
NMEA,$GAGSV,3,2,09,26,01,037,24,31,50,126,29,33,47,052,40,03,01,303,,1*71,1746264014013
NMEA,$GAGSV,3,3,09,23,01,126,,1*49,1746264014013
NMEA,$GBGSV,4,1,13,45,45,180,43,38,23,040,42,35,57,249,35,32,06,045,31,1*7E,1746264014013
NMEA,$GBGSV,4,2,13,30,05,060,27,29,57,054,47,26,54,282,41,13,37,068,42,1*7A,1746264014013
NMEA,$GBGSV,4,3,13,08,31,049,40,05,17,119,33,24,13,318,,44,11,243,,1*71,1746264014013
NMEA,$GBGSV,4,4,13,60,05,101,,1*47,1746264014013
NMEA,$GBGSV,3,1,09,24,13,318,21,26,54,282,44,29,57,054,48,30,05,060,27,3*7E,1746264014013
NMEA,$GBGSV,3,2,09,32,06,045,35,35,57,249,39,38,23,040,41,44,11,243,17,3*75,1746264014013
NMEA,$GBGSV,3,3,09,45,45,180,42,3*42,1746264014013
NMEA,$GBGSV,3,1,11,26,54,282,34,29,57,054,27,30,05,060,21,32,06,045,30,5*71,1746264014013
NMEA,$GBGSV,3,2,11,35,57,249,24,38,23,040,37,45,45,180,35,20,04,096,,5*72,1746264014013
NMEA,$GBGSV,3,3,11,24,13,318,,36,03,155,,44,11,243,,5*4E,1746264014013
NMEA,$GNGSA,A,3,05,16,18,23,26,28,29,31,,,,,0.7,0.5,0.6,1*38,1746264014040
NMEA,$GNGSA,A,3,67,73,74,75,83,84,,,,,,,0.7,0.5,0.6,2*35,1746264014040
NMEA,$GNGSA,A,3,10,12,16,24,31,33,,,,,,,0.7,0.5,0.6,3*36,1746264014040
NMEA,$GNGSA,A,3,05,08,13,26,29,30,32,35,38,45,,,0.7,0.5,0.6,4*3E,1746264014040
NMEA,$GNVTG,,T,,M,0.0,N,0.0,K,A*3D,1746264014040
NMEA,$GNDTM,P90,,0000.000026,S,00000.000000,E,0.978,W84*5C,1746264014040
NMEA,$GNRMC,092014.00,A,4503.225250,N,00741.243593,E,0.0,,030525,3.3,E,A,V*78,1746264014040
NMEA,$GNGNS,092014.00,4503.225250,N,00741.243593,E,AAAANN,30,0.5,211.9,48.0,,,V*25,1746264014040
NMEA,$GNGGA,092014.00,4503.225250,N,00741.243593,E,1,12,0.5,211.9,M,48.0,M,,*75,1746264014040
NMEA,$GPGSV,3,1,10,05,20,049,42,18,76,116,43,23,19,140,45,26,70,285,34,1*64,1746264015007
NMEA,$GPGSV,3,2,10,29,35,069,43,16,42,306,,25,09,133,,27,17,270,,1*6C,1746264015007
NMEA,$GPGSV,3,3,10,28,20,201,,31,36,224,,1*6D,1746264015007
NMEA,$GPGSV,2,1,06,18,76,116,38,23,19,140,33,26,70,285,37,28,20,201,27,8*67,1746264015007
NMEA,$GPGSV,2,2,06,25,09,133,,27,17,270,,8*62,1746264015007
NMEA,$GLGSV,3,1,09,74,79,265,35,73,42,162,36,75,29,324,22,84,76,267,24,1*7F,1746264015007
NMEA,$GLGSV,3,2,09,83,29,038,36,85,25,232,17,67,08,036,28,66,02,347,,1*75,1746264015007
NMEA,$GLGSV,3,3,09,68,00,000,,1*4F,1746264015007
NMEA,$GAGSV,3,1,11,10,43,197,35,12,65,175,37,16,44,306,30,24,73,305,30,7*7F,1746264015007
NMEA,$GAGSV,3,2,11,26,01,037,21,31,50,126,42,33,47,052,38,03,01,303,,7*79,1746264015007
NMEA,$GAGSV,3,3,11,11,17,207,,23,01,126,,25,20,306,,7*45,1746264015007
NMEA,$GAGSV,3,1,09,10,43,197,21,12,65,175,27,16,44,306,31,24,73,305,31,1*74,1746264015007
NMEA,$GAGSV,3,2,09,26,01,037,30,31,50,126,27,33,47,052,39,03,01,303,,1*74,1746264015007
NMEA,$GAGSV,3,3,09,23,01,126,,1*49,1746264015007
NMEA,$GBGSV,4,1,13,45,45,180,38,38,23,040,43,35,57,249,38,32,06,045,25,1*7B,1746264015007
NMEA,$GBGSV,4,2,13,30,05,060,29,29,57,054,46,26,54,282,43,13,37,068,40,1*75,1746264015007
NMEA,$GBGSV,4,3,13,08,31,049,38,05,17,119,33,24,13,318,,44,11,243,,1*7E,1746264015007
NMEA,$GBGSV,4,4,13,60,05,101,,1*47,1746264015007
NMEA,$GBGSV,3,1,09,24,13,318,21,26,54,282,44,29,57,054,46,30,05,060,27,3*70,1746264015007
NMEA,$GBGSV,3,2,09,32,06,045,30,35,57,249,40,38,23,040,42,44,11,243,17,3*7D,1746264015007
NMEA,$GBGSV,3,3,09,45,45,180,36,3*41,1746264015007
NMEA,$GBGSV,3,1,11,26,54,282,32,29,57,054,27,30,05,060,19,32,06,045,32,5*7E,1746264015007
NMEA,$GBGSV,3,2,11,35,57,249,23,38,23,040,36,45,45,180,35,20,04,096,,5*74,1746264015007
NMEA,$GBGSV,3,3,11,24,13,318,,36,03,155,,44,11,243,,5*4E,1746264015007
NMEA,$GNGSA,A,3,05,16,18,23,26,28,29,31,,,,,0.7,0.5,0.6,1*38,1746264015033
NMEA,$GNGSA,A,3,67,73,74,75,83,84,,,,,,,0.7,0.5,0.6,2*35,1746264015033
NMEA,$GNGSA,A,3,10,12,16,24,31,33,,,,,,,0.7,0.5,0.6,3*36,1746264015033
NMEA,$GNGSA,A,3,05,08,13,26,29,30,32,35,38,45,,,0.7,0.5,0.6,4*3E,1746264015033
NMEA,$GNVTG,,T,,M,0.0,N,0.0,K,A*3D,1746264015033
NMEA,$GNDTM,P90,,0000.000026,S,00000.000000,E,0.978,W84*5C,1746264015033
NMEA,$GNRMC,092015.00,A,4503.225248,N,00741.243593,E,0.0,,030525,3.3,E,A,V*70,1746264015033
NMEA,$GNGNS,092015.00,4503.225248,N,00741.243593,E,AAAANN,30,0.5,211.9,48.0,,,V*2D,1746264015033
NMEA,$GNGGA,092015.00,4503.225248,N,00741.243593,E,1,12,0.5,211.9,M,48.0,M,,*7D,1746264015033
NMEA,$GPGSV,3,1,10,05,20,049,43,18,76,116,42,23,19,140,45,26,70,285,38,1*68,1746264016010
NMEA,$GPGSV,3,2,10,29,35,069,44,31,36,224,33,16,42,306,,25,09,133,,1*6E,1746264016010
NMEA,$GPGSV,3,3,10,27,17,270,,28,20,201,,1*68,1746264016010
NMEA,$GPGSV,2,1,06,18,76,116,38,23,19,140,32,26,70,285,38,28,20,201,26,8*68,1746264016010
NMEA,$GPGSV,2,2,06,25,09,133,,27,17,270,,8*62,1746264016010
NMEA,$GLGSV,3,1,09,74,79,265,35,73,42,162,34,75,29,324,24,84,76,267,25,1*7A,1746264016010
NMEA,$GLGSV,3,2,09,83,29,038,35,85,25,232,17,67,08,036,33,66,02,347,,1*7C,1746264016010
NMEA,$GLGSV,3,3,09,68,00,000,,1*4F,1746264016010
NMEA,$GAGSV,3,1,11,10,43,197,37,12,65,175,37,16,44,306,29,24,73,305,37,7*72,1746264016010
NMEA,$GAGSV,3,2,11,26,01,037,21,31,50,126,38,33,47,052,40,03,01,303,,7*7B,1746264016010
NMEA,$GAGSV,3,3,11,11,17,207,,23,01,126,,25,20,306,,7*45,1746264016010
NMEA,$GAGSV,3,1,09,10,43,197,25,12,65,175,25,16,44,306,29,24,73,305,32,1*78,1746264016010
NMEA,$GAGSV,3,2,09,26,01,037,29,31,50,126,27,33,47,052,41,03,01,303,,1*73,1746264016010
NMEA,$GAGSV,3,3,09,23,01,126,,1*49,1746264016010
NMEA,$GBGSV,4,1,13,45,45,180,40,38,23,040,42,35,57,249,36,32,06,045,29,1*77,1746264016010
NMEA,$GBGSV,4,2,13,30,05,060,29,29,57,054,44,26,54,282,42,13,37,068,40,1*76,1746264016010
NMEA,$GBGSV,4,3,13,08,31,049,38,05,17,119,33,24,13,318,,44,11,243,,1*7E,1746264016010
NMEA,$GBGSV,4,4,13,60,05,101,,1*47,1746264016010
NMEA,$GBGSV,3,1,09,24,13,318,21,26,54,282,44,29,57,054,42,30,05,060,29,3*7A,1746264016010
NMEA,$GBGSV,3,2,09,32,06,045,33,35,57,249,37,38,23,040,40,44,11,243,17,3*7C,1746264016010
NMEA,$GBGSV,3,3,09,45,45,180,35,3*42,1746264016010
NMEA,$GBGSV,3,1,11,26,54,282,30,29,57,054,23,30,05,060,19,32,06,045,32,5*78,1746264016010
NMEA,$GBGSV,3,2,11,35,57,249,22,38,23,040,36,45,45,180,35,20,04,096,,5*75,1746264016010
NMEA,$GBGSV,3,3,11,24,13,318,,36,03,155,,44,11,243,,5*4E,1746264016010
NMEA,$GNGSA,A,3,05,16,18,23,26,28,29,31,,,,,0.7,0.5,0.6,1*38,1746264016029
NMEA,$GNGSA,A,3,67,73,74,75,83,84,,,,,,,0.7,0.5,0.6,2*35,1746264016029
NMEA,$GNGSA,A,3,10,12,16,24,31,33,,,,,,,0.7,0.5,0.6,3*36,1746264016029
NMEA,$GNGSA,A,3,05,08,13,26,29,30,32,35,38,45,,,0.7,0.5,0.6,4*3E,1746264016029
NMEA,$GNVTG,,T,,M,0.0,N,0.0,K,A*3D,1746264016029
NMEA,$GNDTM,P90,,0000.000026,S,00000.000000,E,0.978,W84*5C,1746264016029
NMEA,$GNRMC,092016.00,A,4503.225249,N,00741.243602,E,0.0,,030525,3.3,E,A,V*79,1746264016029
NMEA,$GNGNS,092016.00,4503.225249,N,00741.243602,E,AAAANN,30,0.5,211.9,48.0,,,V*24,1746264016029
NMEA,$GNGGA,092016.00,4503.225249,N,00741.243602,E,1,12,0.5,211.9,M,48.0,M,,*74,1746264016029
NMEA,$GPGSV,3,1,10,05,20,049,43,16,42,306,33,18,76,116,42,23,19,140,44,1*6A,1746264017015
NMEA,$GPGSV,3,2,10,26,70,285,42,29,35,069,43,31,36,224,34,25,09,133,,1*60,1746264017015
NMEA,$GPGSV,3,3,10,27,17,270,,28,20,201,,1*68,1746264017015
NMEA,$GPGSV,2,1,06,18,76,116,35,23,19,140,33,26,70,285,39,28,20,201,27,8*64,1746264017015
NMEA,$GPGSV,2,2,06,25,09,133,,27,17,270,,8*62,1746264017015
NMEA,$GLGSV,3,1,09,74,79,265,37,73,42,162,33,75,29,324,24,84,76,267,29,1*73,1746264017015
NMEA,$GLGSV,3,2,09,83,29,038,34,85,25,232,17,67,08,036,33,66,02,347,,1*7D,1746264017015
NMEA,$GLGSV,3,3,09,68,00,000,,1*4F,1746264017015
NMEA,$GAGSV,3,1,11,10,43,197,39,11,17,207,19,12,65,175,37,16,44,306,37,7*78,1746264017015
NMEA,$GAGSV,3,2,11,24,73,305,40,26,01,037,21,31,50,126,41,33,47,052,37,7*77,1746264017015
NMEA,$GAGSV,3,3,11,03,01,303,,23,01,126,,25,20,306,,7*44,1746264017015
NMEA,$GAGSV,3,1,09,10,43,197,25,12,65,175,29,16,44,306,35,24,73,305,32,1*79,1746264017015
NMEA,$GAGSV,3,2,09,26,01,037,27,31,50,126,26,33,47,052,38,03,01,303,,1*72,1746264017015
NMEA,$GAGSV,3,3,09,23,01,126,,1*49,1746264017015
NMEA,$GBGSV,4,1,13,45,45,180,39,38,23,040,39,35,57,249,36,32,06,045,30,1*7D,1746264017015
NMEA,$GBGSV,4,2,13,30,05,060,29,29,57,054,46,26,54,282,42,13,37,068,38,1*7B,1746264017015
NMEA,$GBGSV,4,3,13,08,31,049,37,05,17,119,32,24,13,318,,44,11,243,,1*70,1746264017015
NMEA,$GBGSV,4,4,13,60,05,101,,1*47,1746264017015
NMEA,$GBGSV,3,1,09,24,13,318,21,26,54,282,44,29,57,054,45,30,05,060,25,3*71,1746264017015
NMEA,$GBGSV,3,2,09,32,06,045,35,35,57,249,38,38,23,040,38,44,11,243,21,3*7F,1746264017015
NMEA,$GBGSV,3,3,09,45,45,180,35,3*42,1746264017015
NMEA,$GBGSV,2,1,08,26,54,282,34,29,57,054,21,30,05,060,19,32,06,045,30,5*75,1746264017015
NMEA,$GBGSV,2,2,08,35,57,249,28,38,23,040,34,45,45,180,33,24,13,318,,5*75,1746264017015
NMEA,$GNGSA,A,3,05,16,18,23,26,28,29,31,,,,,0.7,0.5,0.6,1*38,1746264017031
NMEA,$GNGSA,A,3,67,73,74,75,83,84,,,,,,,0.7,0.5,0.6,2*35,1746264017031
NMEA,$GNGSA,A,3,10,12,16,24,31,33,,,,,,,0.7,0.5,0.6,3*36,1746264017031
NMEA,$GNGSA,A,3,05,08,13,26,29,30,32,35,38,45,,,0.7,0.5,0.6,4*3E,1746264017031
NMEA,$GNVTG,,T,,M,0.0,N,0.0,K,A*3D,1746264017031
NMEA,$GNDTM,P90,,0000.000026,S,00000.000000,E,0.978,W84*5C,1746264017031
NMEA,$GNRMC,092017.00,A,4503.225250,N,00741.243608,E,0.0,,030525,3.3,E,A,V*7A,1746264017031
NMEA,$GNGNS,092017.00,4503.225250,N,00741.243608,E,AAAANN,30,0.5,211.9,48.0,,,V*27,1746264017031
NMEA,$GNGGA,092017.00,4503.225250,N,00741.243608,E,1,12,0.5,211.9,M,48.0,M,,*77,1746264017031
NMEA,$GPGSV,3,1,10,05,20,049,41,16,42,306,32,18,76,116,42,23,19,140,45,1*68,1746264018012
NMEA,$GPGSV,3,2,10,26,70,285,42,28,20,201,31,29,35,069,43,31,36,224,31,1*63,1746264018012
NMEA,$GPGSV,3,3,10,25,09,133,,27,17,270,,1*6C,1746264018012
NMEA,$GPGSV,2,1,06,18,76,116,34,23,19,140,33,26,70,285,38,28,20,201,21,8*62,1746264018012
NMEA,$GPGSV,2,2,06,25,09,133,,27,17,270,,8*62,1746264018012
NMEA,$GLGSV,3,1,09,74,79,265,36,73,42,162,29,75,29,324,24,84,76,267,28,1*78,1746264018012
NMEA,$GLGSV,3,2,09,83,29,038,34,85,25,232,17,67,08,036,30,66,02,347,,1*7E,1746264018012
NMEA,$GLGSV,3,3,09,68,00,000,,1*4F,1746264018012
NMEA,$GAGSV,3,1,11,10,43,197,39,11,17,207,20,12,65,174,34,16,44,306,38,7*7F,1746264018012
NMEA,$GAGSV,3,2,11,24,73,305,41,26,01,037,21,31,50,126,39,33,47,052,39,7*77,1746264018012
NMEA,$GAGSV,3,3,11,03,01,303,,23,01,126,,25,20,306,,7*44,1746264018012
NMEA,$GAGSV,3,1,09,10,43,197,27,12,65,174,32,16,44,306,35,24,73,305,32,1*70,1746264018012
NMEA,$GAGSV,3,2,09,26,01,037,28,31,50,126,29,33,47,052,38,03,01,303,,1*72,1746264018012
NMEA,$GAGSV,3,3,09,23,01,126,,1*49,1746264018012
NMEA,$GBGSV,4,1,13,45,45,180,39,38,23,040,39,35,57,249,38,32,06,045,27,1*75,1746264018012
NMEA,$GBGSV,4,2,13,30,05,060,28,29,57,054,42,26,54,282,41,13,37,068,36,1*73,1746264018012
NMEA,$GBGSV,4,3,13,08,31,049,38,05,17,119,35,24,13,318,,44,11,243,,1*78,1746264018012
NMEA,$GBGSV,4,4,13,60,05,101,,1*47,1746264018012
NMEA,$GBGSV,3,1,09,24,13,318,21,26,54,282,43,29,57,054,42,30,05,060,26,3*72,1746264018012
NMEA,$GBGSV,3,2,09,32,06,045,34,35,57,249,39,38,23,040,40,44,11,243,21,3*70,1746264018012
NMEA,$GBGSV,3,3,09,45,45,180,41,3*41,1746264018012
NMEA,$GBGSV,2,1,08,26,54,282,34,29,57,054,28,30,05,060,19,32,06,045,31,5*7D,1746264018012
NMEA,$GBGSV,2,2,08,35,57,249,25,38,23,040,34,45,45,180,35,44,11,243,,5*75,1746264018012
NMEA,$GNGSA,A,3,05,16,18,23,26,28,29,31,,,,,0.7,0.4,0.5,1*3A,1746264018043
NMEA,$GNGSA,A,3,67,73,74,75,83,84,,,,,,,0.7,0.4,0.5,2*37,1746264018043
NMEA,$GNGSA,A,3,10,12,16,24,31,33,,,,,,,0.7,0.4,0.5,3*34,1746264018043
NMEA,$GNGSA,A,3,05,08,13,26,29,30,32,35,38,45,,,0.7,0.4,0.5,4*3C,1746264018043
NMEA,$GNVTG,,T,,M,0.0,N,0.0,K,A*3D,1746264018043
NMEA,$GNDTM,P90,,0000.000026,S,00000.000000,E,0.978,W84*5C,1746264018043
NMEA,$GNRMC,092018.00,A,4503.225251,N,00741.243614,E,0.0,,030525,3.3,E,A,V*79,1746264018043
NMEA,$GNGNS,092018.00,4503.225251,N,00741.243614,E,AAAANN,30,0.4,211.9,48.0,,,V*25,1746264018043
NMEA,$GNGGA,092018.00,4503.225251,N,00741.243614,E,1,12,0.4,211.9,M,48.0,M,,*75,1746264018043
NMEA,$GPGSV,3,1,10,05,20,049,42,16,42,306,31,18,76,116,40,23,19,140,43,1*6C,1746264019014
NMEA,$GPGSV,3,2,10,26,70,285,41,29,35,069,41,31,36,224,29,25,09,133,,1*6D,1746264019014
NMEA,$GPGSV,3,3,10,27,17,270,,28,20,201,,1*68,1746264019014
NMEA,$GPGSV,2,1,06,18,76,116,36,23,19,140,32,26,70,285,35,28,20,201,24,8*69,1746264019014
NMEA,$GPGSV,2,2,06,25,09,133,,27,17,270,,8*62,1746264019014
NMEA,$GLGSV,3,1,09,74,79,265,34,73,42,162,31,75,29,324,19,84,76,267,25,1*70,1746264019014
NMEA,$GLGSV,3,2,09,83,29,038,33,85,25,232,17,67,08,036,35,66,02,347,,1*7C,1746264019014
NMEA,$GLGSV,3,3,09,68,00,000,,1*4F,1746264019014
NMEA,$GAGSV,3,1,11,10,43,197,34,11,17,207,21,12,65,174,35,16,44,306,37,7*7D,1746264019014
NMEA,$GAGSV,3,2,11,24,73,305,40,26,01,037,15,31,50,126,34,33,47,052,39,7*7C,1746264019014
NMEA,$GAGSV,3,3,11,03,01,303,,23,01,126,,25,20,306,,7*44,1746264019014
NMEA,$GAGSV,3,1,09,10,43,197,29,12,65,174,31,16,44,306,32,24,73,305,27,1*7E,1746264019014
NMEA,$GAGSV,3,2,09,26,01,037,25,31,50,126,25,33,47,052,40,03,01,303,,1*7C,1746264019014
NMEA,$GAGSV,3,3,09,23,01,126,,1*49,1746264019014
NMEA,$GBGSV,4,1,13,45,45,180,36,38,23,040,39,35,57,249,36,32,06,045,30,1*72,1746264019014
NMEA,$GBGSV,4,2,13,30,05,060,29,29,57,054,43,26,54,282,41,13,37,068,37,1*72,1746264019014
NMEA,$GBGSV,4,3,13,08,31,049,36,05,17,119,33,24,13,318,,44,11,243,,1*70,1746264019014
NMEA,$GBGSV,4,4,13,60,05,101,,1*47,1746264019014
NMEA,$GBGSV,3,1,09,24,13,318,21,26,54,282,43,29,57,054,40,30,05,060,27,3*71,1746264019014
NMEA,$GBGSV,3,2,09,32,06,045,34,35,57,249,37,38,23,040,39,44,11,243,21,3*70,1746264019014
NMEA,$GBGSV,3,3,09,45,45,180,38,3*4F,1746264019014
NMEA,$GBGSV,3,1,09,26,54,282,31,29,57,054,31,30,05,060,16,32,06,045,29,5*76,1746264019014
NMEA,$GBGSV,3,2,09,35,57,249,26,38,23,040,34,45,45,180,35,24,13,318,,5*7D,1746264019014
NMEA,$GBGSV,3,3,09,44,11,243,,5*4E,1746264019014
NMEA,$GNGSA,A,3,05,16,18,23,26,28,29,31,,,,,0.7,0.4,0.5,1*3A,1746264019037
NMEA,$GNGSA,A,3,67,73,74,75,83,84,,,,,,,0.7,0.4,0.5,2*37,1746264019037
NMEA,$GNGSA,A,3,10,12,16,24,31,33,,,,,,,0.7,0.4,0.5,3*34,1746264019037
NMEA,$GNGSA,A,3,05,08,13,26,29,30,32,35,38,45,,,0.7,0.4,0.5,4*3C,1746264019037
NMEA,$GNVTG,,T,,M,0.0,N,0.0,K,A*3D,1746264019037
NMEA,$GNDTM,P90,,0000.000026,S,00000.000000,E,0.978,W84*5C,1746264019037
NMEA,$GNRMC,092019.00,A,4503.225254,N,00741.243624,E,0.0,,030525,3.3,E,A,V*7E,1746264019037
NMEA,$GNGNS,092019.00,4503.225254,N,00741.243624,E,AAAANN,30,0.4,212.0,48.0,,,V*28,1746264019037
NMEA,$GNGGA,092019.00,4503.225254,N,00741.243624,E,1,12,0.4,212.0,M,48.0,M,,*78,1746264019037
NMEA,$GPGSV,3,1,10,05,20,049,44,16,42,306,33,18,76,116,41,23,19,140,43,1*69,1746264020012
NMEA,$GPGSV,3,2,10,26,70,285,37,29,35,069,45,31,36,224,28,25,09,133,,1*69,1746264020012
NMEA,$GPGSV,3,3,10,27,17,270,,28,20,201,,1*68,1746264020012
NMEA,$GPGSV,1,1,04,18,76,116,39,23,19,140,36,26,70,285,37,28,20,201,31,8*65,1746264020012
NMEA,$GLGSV,3,1,09,74,79,265,36,73,42,162,41,75,29,324,19,84,76,267,25,1*75,1746264020012
NMEA,$GLGSV,3,2,09,83,29,038,31,85,25,232,17,67,08,036,36,66,02,347,,1*7D,1746264020012
NMEA,$GLGSV,3,3,09,68,00,000,,1*4F,1746264020012
NMEA,$GAGSV,3,1,11,10,43,197,31,11,17,207,20,12,65,174,38,16,44,306,36,7*75,1746264020012
NMEA,$GAGSV,3,2,11,24,73,305,35,26,01,037,28,31,50,126,33,33,47,052,41,7*78,1746264020012
NMEA,$GAGSV,3,3,11,03,01,303,,23,01,126,,25,20,306,,7*44,1746264020012
NMEA,$GAGSV,3,1,09,10,43,197,30,12,65,174,28,16,44,306,31,24,73,305,30,1*7B,1746264020012
NMEA,$GAGSV,3,2,09,26,01,037,25,31,50,126,27,33,47,052,39,03,01,303,,1*70,1746264020012
NMEA,$GAGSV,3,3,09,23,01,126,,1*49,1746264020012
NMEA,$GBGSV,4,1,13,45,45,180,40,38,23,040,39,35,57,249,36,32,06,045,29,1*7B,1746264020012
NMEA,$GBGSV,4,2,13,30,05,060,29,29,57,054,47,26,54,282,38,13,37,068,40,1*78,1746264020012
NMEA,$GBGSV,4,3,13,08,31,049,39,05,17,119,33,24,13,318,,44,11,243,,1*7F,1746264020012
NMEA,$GBGSV,4,4,13,60,05,101,,1*47,1746264020012
NMEA,$GBGSV,3,1,09,24,13,318,21,26,54,282,42,29,57,054,46,30,05,060,28,3*79,1746264020012
NMEA,$GBGSV,3,2,09,32,06,045,30,35,57,249,39,38,23,040,40,44,11,243,21,3*74,1746264020012
NMEA,$GBGSV,3,3,09,45,45,180,40,3*40,1746264020012
NMEA,$GBGSV,3,1,09,26,54,282,30,29,57,054,31,30,05,060,16,32,06,045,27,5*79,1746264020012
NMEA,$GBGSV,3,2,09,35,57,249,28,38,23,040,34,45,45,180,33,24,13,318,,5*75,1746264020012
NMEA,$GBGSV,3,3,09,44,11,243,,5*4E,1746264020012
NMEA,$GNGSA,A,3,05,16,18,23,26,28,29,31,,,,,0.7,0.4,0.5,1*3A,1746264020028
NMEA,$GNGSA,A,3,67,73,74,75,83,84,,,,,,,0.7,0.4,0.5,2*37,1746264020028
NMEA,$GNGSA,A,3,10,12,16,24,31,33,,,,,,,0.7,0.4,0.5,3*34,1746264020028
NMEA,$GNGSA,A,3,05,08,13,26,29,30,32,35,38,45,,,0.7,0.4,0.5,4*3C,1746264020028
NMEA,$GNVTG,,T,,M,0.0,N,0.0,K,A*3D,1746264020028
NMEA,$GNDTM,P90,,0000.000026,S,00000.000000,E,0.978,W84*5C,1746264020028
NMEA,$GNRMC,092020.00,A,4503.225248,N,00741.243608,E,0.0,,030525,3.3,E,A,V*77,1746264020028
NMEA,$GNGNS,092020.00,4503.225248,N,00741.243608,E,AAAANN,30,0.4,211.9,48.0,,,V*2B,1746264020028
NMEA,$GNGGA,092020.00,4503.225248,N,00741.243608,E,1,12,0.4,211.9,M,48.0,M,,*7B,1746264020028
NMEA,$GPGSV,3,1,10,05,20,049,44,16,42,306,30,18,76,116,39,23,19,140,45,1*63,1746264021011
NMEA,$GPGSV,3,2,10,26,70,285,38,29,35,069,45,31,36,224,27,25,09,133,,1*69,1746264021011
NMEA,$GPGSV,3,3,10,27,17,270,,28,20,201,,1*68,1746264021011
NMEA,$GPGSV,2,1,06,18,76,116,39,23,19,140,39,26,70,285,36,28,20,201,31,8*6A,1746264021011
NMEA,$GPGSV,2,2,06,25,09,133,,27,17,270,,8*62,1746264021011
NMEA,$GLGSV,3,1,09,74,79,265,34,73,42,162,36,75,29,324,19,84,76,267,27,1*75,1746264021011
NMEA,$GLGSV,3,2,09,83,29,038,34,85,25,232,16,67,08,036,35,66,02,347,,1*7A,1746264021011
NMEA,$GLGSV,3,3,09,68,00,000,,1*4F,1746264021011
NMEA,$GAGSV,3,1,11,10,43,197,33,11,17,207,20,12,65,174,38,16,44,306,35,7*74,1746264021011
NMEA,$GAGSV,3,2,11,24,73,305,38,26,01,037,26,31,50,126,40,33,47,052,38,7*71,1746264021011
NMEA,$GAGSV,3,3,11,03,01,303,,23,01,126,,25,20,306,,7*44,1746264021011
NMEA,$GAGSV,3,1,09,10,43,197,30,12,65,174,30,16,44,306,32,24,73,305,31,1*70,1746264021011
NMEA,$GAGSV,3,2,09,26,01,037,23,31,50,126,33,33,47,052,41,03,01,303,,1*7C,1746264021011
NMEA,$GAGSV,3,3,09,23,01,126,,1*49,1746264021011
NMEA,$GBGSV,4,1,13,45,45,180,38,38,23,040,37,35,57,249,33,32,06,045,31,1*76,1746264021011
NMEA,$GBGSV,4,2,13,30,05,060,29,29,57,054,45,26,54,282,37,13,37,068,40,1*75,1746264021011
NMEA,$GBGSV,4,3,13,08,31,049,36,05,17,119,31,24,13,318,,44,11,243,,1*72,1746264021011
NMEA,$GBGSV,4,4,13,60,05,101,,1*47,1746264021011
NMEA,$GBGSV,3,1,09,24,13,318,21,26,54,282,41,29,57,054,44,30,05,060,27,3*77,1746264021011
NMEA,$GBGSV,3,2,09,32,06,045,30,35,57,249,35,38,23,040,39,44,11,243,21,3*76,1746264021011
NMEA,$GBGSV,3,3,09,45,45,180,38,3*4F,1746264021011
NMEA,$GBGSV,3,1,09,26,54,282,28,29,57,054,32,30,05,060,19,32,06,045,23,5*78,1746264021011
NMEA,$GBGSV,3,2,09,35,57,249,28,38,23,040,35,45,45,180,35,24,13,318,,5*72,1746264021011
NMEA,$GBGSV,3,3,09,44,11,243,,5*4E,1746264021011
NMEA,$GNGSA,A,3,05,16,18,23,26,28,29,31,,,,,0.7,0.4,0.5,1*3A,1746264021028
NMEA,$GNGSA,A,3,67,73,74,75,83,84,,,,,,,0.7,0.4,0.5,2*37,1746264021028
NMEA,$GNGSA,A,3,10,12,16,24,31,33,,,,,,,0.7,0.4,0.5,3*34,1746264021028
NMEA,$GNGSA,A,3,05,08,13,26,29,30,32,35,38,45,,,0.7,0.4,0.5,4*3C,1746264021028
NMEA,$GNVTG,,T,,M,0.0,N,0.0,K,A*3D,1746264021028
NMEA,$GNDTM,P90,,0000.000026,S,00000.000000,E,0.978,W84*5C,1746264021028
NMEA,$GNRMC,092021.00,A,4503.225246,N,00741.243603,E,0.0,,030525,3.3,E,A,V*73,1746264021028
NMEA,$GNGNS,092021.00,4503.225246,N,00741.243603,E,AAAANN,30,0.4,211.9,48.0,,,V*2F,1746264021028
NMEA,$GNGGA,092021.00,4503.225246,N,00741.243603,E,1,12,0.4,211.9,M,48.0,M,,*7F,1746264021028
NMEA,$GPGSV,3,1,10,05,20,049,42,18,76,116,42,23,19,140,49,26,70,285,35,1*68,1746264022012
NMEA,$GPGSV,3,2,10,28,20,201,32,29,35,069,43,16,42,306,,25,09,133,,1*60,1746264022012
NMEA,$GPGSV,3,3,10,27,17,270,,31,36,224,,1*60,1746264022012
NMEA,$GPGSV,2,1,06,18,76,116,42,23,19,140,42,26,70,285,33,28,20,201,30,8*6E,1746264022012
NMEA,$GPGSV,2,2,06,25,09,133,,27,17,270,,8*62,1746264022012
NMEA,$GLGSV,3,1,09,74,79,265,34,73,42,162,41,75,29,324,19,84,76,267,26,1*74,1746264022012
NMEA,$GLGSV,3,2,09,83,29,038,36,85,25,232,16,67,08,036,34,66,02,347,,1*79,1746264022012
NMEA,$GLGSV,3,3,09,68,00,000,,1*4F,1746264022012
NMEA,$GAGSV,3,1,11,10,43,197,37,11,17,207,20,12,65,174,38,16,44,306,31,7*74,1746264022012
NMEA,$GAGSV,3,2,11,24,73,305,34,26,01,037,26,31,50,126,43,33,47,052,41,7*70,1746264022012
NMEA,$GAGSV,3,3,11,03,01,303,,23,01,126,,25,20,306,,7*44,1746264022012
NMEA,$GAGSV,3,1,09,10,43,197,31,12,65,174,30,16,44,306,37,24,73,305,35,1*70,1746264022012
NMEA,$GAGSV,3,2,09,26,01,037,22,31,50,126,39,33,47,052,37,03,01,303,,1*76,1746264022012
NMEA,$GAGSV,3,3,09,23,01,126,,1*49,1746264022012
NMEA,$GBGSV,4,1,13,45,45,180,40,38,23,040,40,35,57,249,34,32,06,045,29,1*77,1746264022012
NMEA,$GBGSV,4,2,13,30,05,060,26,29,57,054,44,26,54,282,36,13,37,068,38,1*75,1746264022012
NMEA,$GBGSV,4,3,13,08,31,049,33,05,17,119,40,24,13,318,,44,11,243,,1*71,1746264022012
NMEA,$GBGSV,4,4,13,60,05,101,,1*47,1746264022012
NMEA,$GBGSV,3,1,09,24,13,318,21,26,54,282,39,29,57,054,43,30,05,060,28,3*70,1746264022012
NMEA,$GBGSV,3,2,09,32,06,045,29,35,57,249,34,38,23,040,41,44,11,243,21,3*70,1746264022012
NMEA,$GBGSV,3,3,09,45,45,180,43,3*43,1746264022012
NMEA,$GBGSV,3,1,09,26,54,282,30,29,57,054,33,30,05,060,19,32,06,045,28,5*7B,1746264022012
NMEA,$GBGSV,3,2,09,35,57,249,30,38,23,040,34,45,45,180,33,24,13,318,,5*7C,1746264022012
NMEA,$GBGSV,3,3,09,44,11,243,,5*4E,1746264022012
NMEA,$GNGSA,A,3,05,16,18,23,26,28,29,31,,,,,0.7,0.4,0.5,1*3A,1746264022033
NMEA,$GNGSA,A,3,67,73,74,75,83,84,,,,,,,0.7,0.4,0.5,2*37,1746264022033
NMEA,$GNGSA,A,3,10,12,16,24,31,33,,,,,,,0.7,0.4,0.5,3*34,1746264022033
NMEA,$GNGSA,A,3,05,08,13,26,29,30,32,35,38,45,,,0.7,0.4,0.5,4*3C,1746264022033
NMEA,$GNVTG,,T,,M,0.0,N,0.0,K,A*3D,1746264022033
NMEA,$GNDTM,P90,,0000.000026,S,00000.000000,E,0.978,W84*5C,1746264022033
NMEA,$GNRMC,092022.00,A,4503.225244,N,00741.243603,E,0.0,,030525,3.3,E,A,V*72,1746264022033
NMEA,$GNGNS,092022.00,4503.225244,N,00741.243603,E,AAAANN,30,0.4,211.9,48.0,,,V*2E,1746264022033
NMEA,$GNGGA,092022.00,4503.225244,N,00741.243603,E,1,12,0.4,211.9,M,48.0,M,,*7E,1746264022033
NMEA,$GPGSV,3,1,10,05,20,049,35,18,76,116,42,23,19,140,49,26,70,285,40,1*6A,1746264023017
NMEA,$GPGSV,3,2,10,29,35,069,43,16,42,306,,25,09,133,,27,17,270,,1*6C,1746264023017
NMEA,$GPGSV,3,3,10,28,20,201,,31,36,224,,1*6D,1746264023017
NMEA,$GPGSV,2,1,06,18,76,116,41,23,19,140,42,26,70,285,39,28,20,201,25,8*63,1746264023017
NMEA,$GPGSV,2,2,06,25,09,133,,27,17,270,,8*62,1746264023017
NMEA,$GLGSV,3,1,09,74,79,265,31,73,42,162,43,75,29,324,19,84,76,267,26,1*73,1746264023017
NMEA,$GLGSV,3,2,09,83,29,038,25,85,25,232,16,67,08,036,28,66,02,347,,1*76,1746264023017
NMEA,$GLGSV,3,3,09,68,00,000,,1*4F,1746264023017
NMEA,$GAGSV,3,1,11,10,43,197,38,11,17,207,20,12,65,174,36,16,44,306,33,7*77,1746264023017
NMEA,$GAGSV,3,2,11,24,73,305,38,26,01,037,22,31,50,126,42,33,47,052,40,7*78,1746264023017
NMEA,$GAGSV,3,3,11,03,01,303,,23,01,126,,25,20,306,,7*44,1746264023017
NMEA,$GAGSV,2,1,07,10,43,197,29,12,65,174,28,16,44,306,34,24,73,305,35,1*7C,1746264023017
NMEA,$GAGSV,2,2,07,26,01,037,25,31,50,126,39,33,47,052,35,1*4E,1746264023017
NMEA,$GBGSV,4,1,13,45,45,180,39,38,23,040,37,35,57,249,36,32,06,045,26,1*74,1746264023017
NMEA,$GBGSV,4,2,13,30,05,060,28,29,57,054,44,26,54,282,42,13,37,068,43,1*74,1746264023017
NMEA,$GBGSV,4,3,13,08,31,049,32,05,17,119,42,24,13,318,,44,11,243,,1*72,1746264023017
NMEA,$GBGSV,4,4,13,60,05,101,,1*47,1746264023017
NMEA,$GBGSV,3,1,09,24,13,318,21,26,54,282,43,29,57,054,45,30,05,060,26,3*75,1746264023017
NMEA,$GBGSV,3,2,09,32,06,045,33,35,57,249,39,38,23,040,40,44,11,243,21,3*77,1746264023017
NMEA,$GBGSV,3,3,09,45,45,180,40,3*40,1746264023017
NMEA,$GBGSV,3,1,09,26,54,282,35,29,57,054,34,30,05,060,19,32,06,045,27,5*76,1746264023017
NMEA,$GBGSV,3,2,09,35,57,249,30,38,23,040,34,45,45,180,34,24,13,318,,5*7B,1746264023017
NMEA,$GBGSV,3,3,09,44,11,243,,5*4E,1746264023017
NMEA,$GNGSA,A,3,05,16,18,23,26,28,29,31,,,,,0.7,0.4,0.5,1*3A,1746264023030
NMEA,$GNGSA,A,3,67,73,74,75,83,84,,,,,,,0.7,0.4,0.5,2*37,1746264023030
NMEA,$GNGSA,A,3,10,12,16,24,31,33,,,,,,,0.7,0.4,0.5,3*34,1746264023030
NMEA,$GNGSA,A,3,05,08,13,26,29,30,32,35,38,45,,,0.7,0.4,0.5,4*3C,1746264023030
NMEA,$GNVTG,,T,,M,0.0,N,0.0,K,A*3D,1746264023030
NMEA,$GNDTM,P90,,0000.000026,S,00000.000000,E,0.978,W84*5C,1746264023030
NMEA,$GNRMC,092023.00,A,4503.225243,N,00741.243603,E,0.0,,030525,3.3,E,A,V*74,1746264023030
NMEA,$GNGNS,092023.00,4503.225243,N,00741.243603,E,AAAANN,30,0.4,212.0,48.0,,,V*22,1746264023030
NMEA,$GNGGA,092023.00,4503.225243,N,00741.243603,E,1,12,0.4,212.0,M,48.0,M,,*72,1746264023030
NMEA,$GPGSV,3,1,10,05,20,049,37,16,42,306,36,18,76,116,40,23,19,140,49,1*63,1746264024011
NMEA,$GPGSV,3,2,10,26,70,285,40,29,35,069,47,25,09,133,,27,17,270,,1*64,1746264024011
NMEA,$GPGSV,3,3,10,28,20,201,,31,36,224,,1*6D,1746264024011
NMEA,$GPGSV,2,1,06,18,76,116,41,23,19,140,41,26,70,285,35,28,20,201,27,8*6E,1746264024011
NMEA,$GPGSV,2,2,06,25,09,133,,27,17,270,,8*62,1746264024011
NMEA,$GLGSV,3,1,09,74,79,265,33,73,42,162,45,75,29,324,19,84,76,267,27,1*76,1746264024011
NMEA,$GLGSV,3,2,09,83,29,038,26,85,25,232,20,67,08,036,29,66,02,347,,1*71,1746264024011
NMEA,$GLGSV,3,3,09,68,00,000,,1*4F,1746264024011
NMEA,$GAGSV,3,1,11,10,43,197,38,11,17,207,24,12,65,174,39,16,44,306,36,7*79,1746264024011
NMEA,$GAGSV,3,2,11,24,73,305,35,26,01,037,22,31,50,126,45,33,47,052,42,7*70,1746264024011
NMEA,$GAGSV,3,3,11,03,01,303,,23,01,126,,25,20,306,,7*44,1746264024011
NMEA,$GAGSV,3,1,09,10,43,197,29,12,65,174,29,16,44,306,39,24,73,305,35,1*7F,1746264024011
NMEA,$GAGSV,3,2,09,26,01,037,26,31,50,126,41,33,47,052,38,03,01,303,,1*72,1746264024011
NMEA,$GAGSV,3,3,09,23,01,126,,1*49,1746264024011
NMEA,$GBGSV,4,1,13,45,45,180,40,38,23,040,38,35,57,249,37,32,06,045,25,1*77,1746264024011
NMEA,$GBGSV,4,2,13,30,05,060,31,29,57,054,48,26,54,282,40,13,37,068,44,1*75,1746264024011
NMEA,$GBGSV,4,3,13,08,31,049,35,05,17,119,42,24,13,318,,44,11,243,,1*75,1746264024011
NMEA,$GBGSV,4,4,13,60,05,101,,1*47,1746264024011
NMEA,$GBGSV,3,1,09,24,13,318,19,26,54,282,42,29,57,054,50,30,05,060,29,3*74,1746264024011
NMEA,$GBGSV,3,2,09,32,06,045,31,35,57,249,39,38,23,040,39,44,11,243,21,3*7B,1746264024011
NMEA,$GBGSV,3,3,09,45,45,180,41,3*41,1746264024011
NMEA,$GBGSV,3,1,09,24,13,318,16,26,54,282,34,29,57,054,33,30,05,060,17,5*74,1746264024011
NMEA,$GBGSV,3,2,09,32,06,045,26,35,57,249,30,38,23,040,33,45,45,180,35,5*71,1746264024011
NMEA,$GBGSV,3,3,09,44,11,243,,5*4E,1746264024011
NMEA,$GNGSA,A,3,05,16,18,23,26,28,29,31,,,,,0.7,0.4,0.5,1*3A,1746264024033
NMEA,$GNGSA,A,3,67,73,74,75,83,84,85,,,,,,0.7,0.4,0.5,2*3A,1746264024033
NMEA,$GNGSA,A,3,10,12,16,24,31,33,,,,,,,0.7,0.4,0.5,3*34,1746264024033
NMEA,$GNGSA,A,3,05,08,13,26,29,30,32,35,38,45,,,0.7,0.4,0.5,4*3C,1746264024033
NMEA,$GNVTG,,T,,M,0.0,N,0.0,K,A*3D,1746264024033
NMEA,$GNDTM,P90,,0000.000026,S,00000.000000,E,0.978,W84*5C,1746264024033
NMEA,$GNRMC,092024.00,A,4503.225242,N,00741.243604,E,0.0,,030525,3.3,E,A,V*75,1746264024033
NMEA,$GNGNS,092024.00,4503.225242,N,00741.243604,E,AAAANN,31,0.4,212.0,48.0,,,V*22,1746264024033
NMEA,$GNGGA,092024.00,4503.225242,N,00741.243604,E,1,12,0.4,212.0,M,48.0,M,,*73,1746264024033
NMEA,$GPGSV,3,1,10,05,20,049,37,16,42,306,34,18,76,116,36,23,19,140,46,1*6F,1746264025007
NMEA,$GPGSV,3,2,10,26,70,285,38,29,35,069,45,25,09,133,,27,17,270,,1*69,1746264025007
NMEA,$GPGSV,3,3,10,28,20,201,,31,36,224,,1*6D,1746264025007
NMEA,$GPGSV,2,1,06,18,76,116,42,23,19,140,42,25,09,133,16,26,70,285,33,8*6E,1746264025007
NMEA,$GPGSV,2,2,06,27,17,270,16,28,20,201,30,8*62,1746264025007
NMEA,$GLGSV,3,1,09,74,79,265,36,73,42,162,40,75,29,324,19,84,76,267,28,1*79,1746264025007
NMEA,$GLGSV,3,2,09,83,29,038,33,85,25,232,20,67,08,036,29,66,02,347,,1*75,1746264025007
NMEA,$GLGSV,3,3,09,68,00,000,,1*4F,1746264025007
NMEA,$GAGSV,3,1,11,10,43,197,36,11,17,207,24,12,65,174,35,16,44,306,35,7*78,1746264025007
NMEA,$GAGSV,3,2,11,24,73,305,40,26,01,037,24,31,50,126,41,33,47,052,38,7*7D,1746264025007
NMEA,$GAGSV,3,3,11,03,01,303,,23,01,126,,25,20,306,,7*44,1746264025007
NMEA,$GAGSV,3,1,10,10,43,197,29,12,65,174,32,16,44,306,35,24,73,305,32,1*76,1746264025007
NMEA,$GAGSV,3,2,10,26,01,037,26,31,50,126,40,33,47,052,39,03,01,303,,1*7A,1746264025007
NMEA,$GAGSV,3,3,10,11,17,207,,23,01,126,,1*72,1746264025007
NMEA,$GBGSV,4,1,13,45,45,180,35,38,23,040,37,35,57,249,33,32,06,045,26,1*7D,1746264025007
NMEA,$GBGSV,4,2,13,30,05,060,32,29,57,054,44,26,54,282,39,13,37,068,38,1*7F,1746264025007
NMEA,$GBGSV,4,3,13,08,31,049,31,05,17,119,41,24,13,318,,44,11,243,,1*72,1746264025007
NMEA,$GBGSV,4,4,13,60,05,101,,1*47,1746264025007
NMEA,$GBGSV,3,1,09,24,13,318,19,26,54,282,42,29,57,054,43,30,05,060,27,3*78,1746264025007
NMEA,$GBGSV,3,2,09,32,06,045,28,35,57,249,33,38,23,040,35,44,11,243,21,3*75,1746264025007
NMEA,$GBGSV,3,3,09,45,45,180,36,3*41,1746264025007
NMEA,$GBGSV,3,1,09,24,13,318,16,26,54,282,33,29,57,054,36,30,05,060,22,5*70,1746264025007
NMEA,$GBGSV,3,2,09,32,06,045,22,35,57,249,26,38,23,040,30,45,45,180,35,5*71,1746264025007
NMEA,$GBGSV,3,3,09,44,11,243,,5*4E,1746264025007
NMEA,$GNGSA,A,3,05,16,18,23,26,28,29,31,,,,,0.7,0.5,0.5,1*3B,1746264025019
NMEA,$GNGSA,A,3,67,73,74,83,84,85,,,,,,,0.7,0.5,0.5,2*39,1746264025019
NMEA,$GNGSA,A,3,10,12,16,24,31,33,,,,,,,0.7,0.5,0.5,3*35,1746264025019
NMEA,$GNGSA,A,3,05,08,13,26,29,30,32,35,38,45,,,0.7,0.5,0.5,4*3D,1746264025019
NMEA,$GNVTG,,T,,M,0.0,N,0.0,K,A*3D,1746264025019
NMEA,$GNDTM,P90,,0000.000026,S,00000.000000,E,0.978,W84*5C,1746264025019
NMEA,$GNRMC,092025.00,A,4503.225242,N,00741.243605,E,0.0,,030525,3.3,E,A,V*75,1746264025019
NMEA,$GNGNS,092025.00,4503.225242,N,00741.243605,E,AAAANN,30,0.5,212.0,48.0,,,V*22,1746264025019
NMEA,$GNGGA,092025.00,4503.225242,N,00741.243605,E,1,12,0.5,212.0,M,48.0,M,,*72,1746264025019
NMEA,$GPGSV,3,1,10,05,20,049,37,18,76,116,40,23,19,140,47,26,70,285,37,1*64,1746264026010
NMEA,$GPGSV,3,2,10,29,35,069,44,16,42,306,,25,09,133,,27,17,270,,1*6B,1746264026010
NMEA,$GPGSV,3,3,10,28,20,201,,31,36,224,,1*6D,1746264026010
NMEA,$GPGSV,2,1,06,18,76,116,43,23,19,140,42,25,09,133,16,26,70,285,34,8*68,1746264026010
NMEA,$GPGSV,2,2,06,27,17,270,16,28,20,201,28,8*6B,1746264026010
NMEA,$GLGSV,3,1,09,74,79,265,33,73,42,162,43,75,29,324,19,84,76,267,25,1*72,1746264026010
NMEA,$GLGSV,3,2,09,83,29,038,23,85,25,232,20,67,08,036,27,66,02,347,,1*7A,1746264026010
NMEA,$GLGSV,3,3,09,68,00,000,,1*4F,1746264026010
NMEA,$GAGSV,3,1,11,10,43,197,34,11,17,207,24,12,65,174,37,16,44,306,31,7*7C,1746264026010
NMEA,$GAGSV,3,2,11,24,73,305,34,26,01,037,23,31,50,126,42,33,47,052,39,7*7B,1746264026010
NMEA,$GAGSV,3,3,11,03,01,303,,23,01,126,,25,20,306,,7*44,1746264026010
NMEA,$GAGSV,3,1,10,10,43,197,28,11,17,207,20,12,65,174,30,16,44,306,35,1*71,1746264026010
NMEA,$GAGSV,3,2,10,24,73,305,35,26,01,037,19,31,50,126,40,33,47,052,38,1*77,1746264026010
NMEA,$GAGSV,3,3,10,03,01,303,,23,01,126,,1*73,1746264026010
NMEA,$GBGSV,4,1,13,45,45,180,37,38,23,040,38,35,57,249,33,32,06,045,26,1*70,1746264026010
NMEA,$GBGSV,4,2,13,30,05,060,29,29,57,054,47,26,54,282,39,13,37,068,41,1*78,1746264026010
NMEA,$GBGSV,4,3,13,08,31,049,33,05,17,119,39,24,13,318,,44,11,243,,1*7F,1746264026010
NMEA,$GBGSV,4,4,13,60,05,101,,1*47,1746264026010
NMEA,$GBGSV,3,1,09,24,13,318,19,26,54,282,41,29,57,054,47,30,05,060,26,3*7E,1746264026010
NMEA,$GBGSV,3,2,09,32,06,045,28,35,57,249,36,38,23,040,36,44,11,243,21,3*73,1746264026010
NMEA,$GBGSV,3,3,09,45,45,180,40,3*40,1746264026010
NMEA,$GBGSV,3,1,09,24,13,318,19,26,54,282,33,29,57,054,31,30,05,060,22,5*78,1746264026010
NMEA,$GBGSV,3,2,09,32,06,045,27,35,57,249,29,38,23,040,33,45,45,180,36,5*7B,1746264026010
NMEA,$GBGSV,3,3,09,44,11,243,,5*4E,1746264026010
NMEA,$GNGSA,A,3,05,16,18,23,26,28,29,31,,,,,0.7,0.5,0.5,1*3B,1746264026027
NMEA,$GNGSA,A,3,67,73,74,83,84,85,,,,,,,0.7,0.5,0.5,2*39,1746264026027
NMEA,$GNGSA,A,3,10,12,16,24,31,33,,,,,,,0.7,0.5,0.5,3*35,1746264026027
NMEA,$GNGSA,A,3,05,08,13,26,29,30,32,35,38,45,,,0.7,0.5,0.5,4*3D,1746264026027
NMEA,$GNVTG,,T,,M,0.0,N,0.0,K,A*3D,1746264026027
NMEA,$GNDTM,P90,,0000.000026,S,00000.000000,E,0.978,W84*5C,1746264026027
NMEA,$GNRMC,092026.00,A,4503.225242,N,00741.243605,E,0.0,,030525,3.3,E,A,V*76,1746264026027
NMEA,$GNGNS,092026.00,4503.225242,N,00741.243605,E,AAAANN,30,0.5,212.0,48.0,,,V*21,1746264026027
NMEA,$GNGGA,092026.00,4503.225242,N,00741.243605,E,1,12,0.5,212.0,M,48.0,M,,*71,1746264026027
NMEA,$GPGSV,3,1,10,05,20,049,35,18,76,116,42,23,19,140,48,26,70,285,35,1*69,1746264027012
NMEA,$GPGSV,3,2,10,29,35,069,42,16,42,306,,25,09,133,,27,17,270,,1*6D,1746264027012
NMEA,$GPGSV,3,3,10,28,20,201,,31,36,224,,1*6D,1746264027012
NMEA,$GPGSV,2,1,06,18,76,116,44,23,19,140,44,25,09,133,16,26,70,285,36,8*6B,1746264027012
NMEA,$GPGSV,2,2,06,27,17,270,16,28,20,201,30,8*62,1746264027012
NMEA,$GLGSV,3,1,09,74,79,265,31,73,42,162,44,75,29,324,19,84,76,267,24,1*76,1746264027012
NMEA,$GLGSV,3,2,09,83,29,038,27,85,25,232,20,67,08,036,26,66,02,347,,1*7F,1746264027012
NMEA,$GLGSV,3,3,09,68,00,000,,1*4F,1746264027012
NMEA,$GAGSV,3,1,11,10,43,197,36,11,17,207,24,12,65,174,37,16,44,306,32,7*7D,1746264027012
NMEA,$GAGSV,3,2,11,24,73,305,33,26,01,037,23,31,50,126,39,33,47,052,40,7*7E,1746264027012
NMEA,$GAGSV,3,3,11,03,01,303,,23,01,126,,25,20,306,,7*44,1746264027012
NMEA,$GAGSV,3,1,10,10,43,197,31,11,17,207,20,12,65,174,30,16,44,306,36,1*7A,1746264027012
NMEA,$GAGSV,3,2,10,24,73,305,33,26,01,037,23,31,50,126,39,33,47,052,39,1*77,1746264027012
NMEA,$GAGSV,3,3,10,03,01,303,,23,01,126,,1*73,1746264027012
NMEA,$GBGSV,4,1,13,45,45,180,39,38,23,040,38,35,57,249,32,32,06,045,23,1*7A,1746264027012
NMEA,$GBGSV,4,2,13,30,05,060,26,29,57,054,46,26,54,282,37,13,37,068,39,1*77,1746264027012
NMEA,$GBGSV,4,3,13,08,31,049,34,05,17,119,38,24,13,318,,44,11,243,,1*79,1746264027012
NMEA,$GBGSV,4,4,13,60,05,101,,1*47,1746264027012
NMEA,$GBGSV,3,1,09,24,13,318,21,26,54,282,40,29,57,054,47,30,05,060,26,3*74,1746264027012
NMEA,$GBGSV,3,2,09,32,06,045,27,35,57,249,32,38,23,040,37,44,11,243,21,3*79,1746264027012
NMEA,$GBGSV,3,3,09,45,45,180,42,3*42,1746264027012
NMEA,$GBGSV,3,1,09,24,13,318,19,26,54,282,27,29,57,054,35,30,05,060,22,5*79,1746264027012
NMEA,$GBGSV,3,2,09,32,06,045,30,35,57,249,29,38,23,040,34,45,45,180,34,5*78,1746264027012
NMEA,$GBGSV,3,3,09,44,11,243,,5*4E,1746264027012
NMEA,$GNGSA,A,3,05,16,18,23,26,28,29,,,,,,0.7,0.5,0.6,1*3A,1746264027027
NMEA,$GNGSA,A,3,67,73,74,83,84,85,,,,,,,0.7,0.5,0.6,2*3A,1746264027027
NMEA,$GNGSA,A,3,10,12,16,24,31,33,,,,,,,0.7,0.5,0.6,3*36,1746264027027
NMEA,$GNGSA,A,3,05,08,13,26,29,30,32,35,38,45,,,0.7,0.5,0.6,4*3E,1746264027027
NMEA,$GNVTG,,T,,M,0.0,N,0.0,K,A*3D,1746264027027
NMEA,$GNDTM,P90,,0000.000026,S,00000.000000,E,0.978,W84*5C,1746264027027
NMEA,$GNRMC,092027.00,A,4503.225242,N,00741.243608,E,0.0,,030525,3.3,E,A,V*7A,1746264027027
NMEA,$GNGNS,092027.00,4503.225242,N,00741.243608,E,AAAANN,29,0.5,212.0,48.0,,,V*25,1746264027027
NMEA,$GNGGA,092027.00,4503.225242,N,00741.243608,E,1,12,0.5,212.0,M,48.0,M,,*7D,1746264027027
NMEA,$GPGSV,3,1,10,05,20,049,39,16,42,306,33,18,76,116,42,23,19,140,49,1*6A,1746264028013
NMEA,$GPGSV,3,2,10,26,70,285,30,28,20,201,32,29,35,069,43,25,09,133,,1*6B,1746264028013
NMEA,$GPGSV,3,3,10,27,17,270,,31,36,224,,1*60,1746264028013
NMEA,$GPGSV,2,1,06,18,76,116,41,23,19,140,43,25,09,133,16,26,70,285,31,8*6E,1746264028013
NMEA,$GPGSV,2,2,06,27,17,270,16,28,20,201,29,8*6A,1746264028013
NMEA,$GLGSV,3,1,09,74,79,265,32,73,42,162,45,75,29,324,19,84,76,267,23,1*73,1746264028013
NMEA,$GLGSV,3,2,09,83,29,038,34,85,25,232,24,67,08,036,37,66,02,347,,1*79,1746264028013
NMEA,$GLGSV,3,3,09,68,00,000,,1*4F,1746264028013
NMEA,$GAGSV,3,1,11,10,43,197,39,11,17,207,24,12,65,174,36,16,44,306,34,7*75,1746264028013
NMEA,$GAGSV,3,2,11,24,73,305,29,26,01,037,30,31,50,126,40,33,47,052,43,7*7A,1746264028013
NMEA,$GAGSV,3,3,11,03,01,303,,23,01,126,,25,20,306,,7*44,1746264028013
NMEA,$GAGSV,3,1,10,10,43,197,30,11,17,207,20,12,65,174,24,16,44,306,29,1*70,1746264028013
NMEA,$GAGSV,3,2,10,24,73,305,32,26,01,037,23,31,50,126,38,33,47,052,33,1*7D,1746264028013
NMEA,$GAGSV,3,3,10,03,01,303,,23,01,126,,1*73,1746264028013
NMEA,$GBGSV,4,1,13,45,45,180,43,38,23,040,41,35,57,249,32,32,06,045,30,1*7B,1746264028013
NMEA,$GBGSV,4,2,13,30,05,060,25,29,57,054,42,26,54,282,39,13,37,068,40,1*70,1746264028013
NMEA,$GBGSV,4,3,13,08,31,049,32,05,17,119,40,24,13,318,,44,11,243,,1*70,1746264028013
NMEA,$GBGSV,4,4,13,60,05,101,,1*47,1746264028013
NMEA,$GBGSV,3,1,09,24,13,318,21,26,54,282,41,29,57,054,43,30,05,060,26,3*71,1746264028013
NMEA,$GBGSV,3,2,09,32,06,045,31,35,57,249,32,38,23,040,42,44,11,243,21,3*7C,1746264028013
NMEA,$GBGSV,3,3,09,45,45,180,46,3*46,1746264028013
NMEA,$GBGSV,3,1,09,24,13,318,19,26,54,282,25,29,57,054,28,30,05,060,22,5*77,1746264028013
NMEA,$GBGSV,3,2,09,32,06,045,24,35,57,249,29,38,23,040,33,45,45,180,27,5*78,1746264028013
NMEA,$GBGSV,3,3,09,44,11,243,,5*4E,1746264028013
NMEA,$GNGSA,A,3,05,16,18,23,26,28,29,,,,,,0.7,0.5,0.5,1*39,1746264028041
NMEA,$GNGSA,A,3,67,73,74,83,84,85,,,,,,,0.7,0.5,0.5,2*39,1746264028041
NMEA,$GNGSA,A,3,10,12,16,24,31,33,,,,,,,0.7,0.5,0.5,3*35,1746264028041
NMEA,$GNGSA,A,3,05,08,13,26,29,30,32,35,38,45,,,0.7,0.5,0.5,4*3D,1746264028041
NMEA,$GNVTG,,T,,M,0.0,N,0.0,K,A*3D,1746264028041
NMEA,$GNDTM,P90,,0000.000026,S,00000.000000,E,0.978,W84*5C,1746264028041
NMEA,$GNRMC,092028.00,A,4503.225242,N,00741.243612,E,0.0,,030525,3.3,E,A,V*7E,1746264028041
NMEA,$GNGNS,092028.00,4503.225242,N,00741.243612,E,AAAANN,29,0.5,212.0,48.0,,,V*21,1746264028041
NMEA,$GNGGA,092028.00,4503.225242,N,00741.243612,E,1,12,0.5,212.0,M,48.0,M,,*79,1746264028041
NMEA,$GPGSV,3,1,10,05,20,049,40,16,42,306,30,18,76,116,38,23,19,140,46,1*65,1746264029015
NMEA,$GPGSV,3,2,10,26,70,285,38,29,35,069,44,25,09,133,,27,17,270,,1*68,1746264029015
NMEA,$GPGSV,3,3,10,28,20,201,,31,36,224,,1*6D,1746264029015
NMEA,$GPGSV,2,1,06,18,76,116,42,23,19,140,40,25,09,133,16,26,70,285,39,8*66,1746264029015
NMEA,$GPGSV,2,2,06,27,17,270,16,28,20,201,26,8*65,1746264029015
NMEA,$GLGSV,3,1,09,74,79,265,34,73,42,162,42,75,29,324,19,84,76,267,23,1*72,1746264029015
NMEA,$GLGSV,3,2,09,83,29,038,35,85,25,232,24,67,08,036,36,66,02,347,,1*79,1746264029015
NMEA,$GLGSV,3,3,09,68,00,000,,1*4F,1746264029015
NMEA,$GAGSV,3,1,11,10,43,197,37,11,17,207,18,12,65,174,37,16,44,306,38,7*79,1746264029015
NMEA,$GAGSV,3,2,11,24,73,305,35,26,01,037,29,31,50,126,43,33,47,052,40,7*7F,1746264029015
NMEA,$GAGSV,3,3,11,03,01,303,,23,01,126,,25,20,306,,7*44,1746264029015
NMEA,$GAGSV,3,1,10,10,43,197,31,11,17,207,22,12,65,174,31,16,44,306,36,1*79,1746264029015
NMEA,$GAGSV,3,2,10,24,73,305,34,26,01,037,27,31,50,126,35,33,47,052,42,1*74,1746264029015
NMEA,$GAGSV,3,3,10,03,01,303,,23,01,126,,1*73,1746264029015
NMEA,$GBGSV,4,1,13,45,45,180,40,38,23,040,41,35,57,249,34,32,06,045,30,1*7E,1746264029015
NMEA,$GBGSV,4,2,13,30,05,060,31,29,57,054,47,26,54,282,39,24,13,318,22,1*72,1746264029015
NMEA,$GBGSV,4,3,13,13,37,068,41,08,31,049,37,05,17,119,38,44,11,243,,1*79,1746264029015
NMEA,$GBGSV,4,4,13,60,05,101,,1*47,1746264029015
NMEA,$GBGSV,3,1,09,24,13,318,21,26,54,282,42,29,57,054,47,30,05,060,27,3*77,1746264029015
NMEA,$GBGSV,3,2,09,32,06,045,33,35,57,249,35,38,23,040,40,44,11,243,15,3*7C,1746264029015
NMEA,$GBGSV,3,3,09,45,45,180,38,3*4F,1746264029015
NMEA,$GBGSV,3,1,09,24,13,318,19,26,54,282,34,29,57,054,36,30,05,060,16,5*7F,1746264029015
NMEA,$GBGSV,3,2,09,32,06,045,31,35,57,249,28,38,23,040,34,45,45,180,35,5*79,1746264029015
NMEA,$GBGSV,3,3,09,44,11,243,,5*4E,1746264029015
NMEA,$GNGSA,A,3,05,16,18,23,26,28,29,,,,,,0.7,0.4,0.5,1*38,1746264029039
NMEA,$GNGSA,A,3,67,73,74,83,84,85,,,,,,,0.7,0.4,0.5,2*38,1746264029039
NMEA,$GNGSA,A,3,10,12,16,24,31,33,,,,,,,0.7,0.4,0.5,3*34,1746264029039
NMEA,$GNGSA,A,3,05,08,13,24,26,29,30,32,35,38,45,,0.7,0.4,0.5,4*3A,1746264029039
NMEA,$GNVTG,,T,,M,0.0,N,0.0,K,A*3D,1746264029039
NMEA,$GNDTM,P90,,0000.000026,S,00000.000000,E,0.978,W84*5C,1746264029039
NMEA,$GNRMC,092029.00,A,4503.225241,N,00741.243612,E,0.0,,030525,3.3,E,A,V*7C,1746264029039
NMEA,$GNGNS,092029.00,4503.225241,N,00741.243612,E,AAAANN,30,0.4,212.0,48.0,,,V*2A,1746264029039
NMEA,$GNGGA,092029.00,4503.225241,N,00741.243612,E,1,12,0.4,212.0,M,48.0,M,,*7A,1746264029039
NMEA,$GPGSV,3,1,10,05,20,049,35,18,76,116,42,23,19,140,46,26,70,285,40,1*65,1746264030013
NMEA,$GPGSV,3,2,10,29,35,069,46,16,42,306,,25,09,133,,27,17,270,,1*69,1746264030013
NMEA,$GPGSV,3,3,10,28,20,201,,31,36,224,,1*6D,1746264030013
NMEA,$GPGSV,2,1,06,18,76,116,43,23,19,140,33,25,09,133,16,26,70,285,40,8*6D,1746264030013
NMEA,$GPGSV,2,2,06,27,17,270,16,28,20,201,27,8*64,1746264030013
NMEA,$GLGSV,3,1,09,74,79,265,34,73,42,162,42,75,29,324,19,84,76,267,27,1*76,1746264030013
NMEA,$GLGSV,3,2,09,83,29,038,34,85,25,232,20,67,08,036,39,66,02,347,,1*73,1746264030013
NMEA,$GLGSV,3,3,09,68,00,000,,1*4F,1746264030013
NMEA,$GAGSV,3,1,11,10,43,197,35,11,17,207,22,12,65,174,39,16,44,306,27,7*72,1746264030013
NMEA,$GAGSV,3,2,11,24,73,305,37,26,01,037,29,31,50,126,36,33,47,052,40,7*7F,1746264030013
NMEA,$GAGSV,3,3,11,03,01,303,,23,01,126,,25,20,306,,7*44,1746264030013
