     4.01           OBSERVATION DATA    M                   RINEX VERSION / TYPE
GnssLogger          Xiaomi 12           20250503 092024 UTC PGM / RUN BY / DATE
Google GnssLogger                                           MARKER NAME
Unknown                                                     MARKER NUMBER
Unknown             Unknown                                 OBSERVER / AGENCY
Unknown             GnssLogger          v3.1.0.4            REC # / TYPE / VERS
Unknown             Unknown                                 ANT # / TYPE
        0.0000        0.0000        0.0000                  ANTENNA: DELTA H/E/N
G    6 C1C D1C S1C C5Q D5Q S5Q                              SYS / # / OBS TYPES
R    3 C1C D1C S1C                                          SYS / # / OBS TYPES
C    9 C2I D2I S2I C5P D5P S5P C1P D1P S1P                  SYS / # / OBS TYPES
E    6 C1C D1C S1C C5Q D5Q S5Q                              SYS / # / OBS TYPES
  2025    05    03    09    20   24.0000000     GPS         TIME OF FIRST OBS
 7 R03  5 R09 -2 R10 -7 R11  0 R19  3 R20  2 R21  4         GLONASS SLOT / FRQ #
Xiaomi 2107113SG (Android 12) HW Year: 2018 HW Model:       COMMENT
qcom;MPSS.HI.4.3.c2-00084-LC_ALL_PACK-1.4500.49.6980.77;    COMMENT
                                                            END OF HEADER
> 2025 05 03 09 20 24.4181452  0 32                      
G05  23598108.24027     -1036.28827        41.80027                                                
G16  21533871.38226      2530.12826        37.40026                                                
G18  20624919.53626       206.82026        39.40026  20622562.56827       154.35827        43.70027
G23  23732667.08727      3253.76827        41.60027  23730324.80926      2429.73326        38.90026
G26  20485763.37226       725.22826        36.00026  20483388.11625       541.78325        34.90025
G27  23583347.95923      3140.20023        21.80023                                                
G29  22409622.41227     -2491.68727        46.40027                                                
R10  19339910.42924        81.80024        28.10024
R09  20613176.66625     -3312.21225        35.40025
R11  21771763.89223      3668.50023        22.90023
R20  19295438.31723       463.90023        22.70023
R19  21764746.95025     -3556.98025        31.10025
R21  22195450.98023      3451.00023        20.90023
R03  23854034.76626      1225.56126        36.00026
C45  23068784.78325     -2492.77925        34.70025  23066903.88624     -1878.14624        24.00024  23068817.76126     -2515.79026        39.90026
C38  39248646.09926      -231.63526        39.30026  39246767.59926      -174.54826        40.10026  39248677.87726      -233.75626        41.10026
C35  22276903.39126      1542.65826        38.60026  22275026.39124      1162.89424        26.90024  22276937.86826      1556.73126        40.10026
C32  26733404.02024       666.05024        25.50024  26731528.81824       501.27624        26.90024  26733435.79824       672.35024        25.80024
C30  26510212.13324     -2960.90024        27.70024                                                  26510258.00125     -2989.63025        31.00025
C29  22201628.80328     -1634.48228        48.50028  22199744.30826     -1231.68526        35.60026  22201659.08228     -1649.56628        49.40028
C26  22588980.74526       697.81926        35.90026  22587097.74825       525.83425        34.30025  22589006.82726       704.24426        36.60026
C13  38237134.95327       734.92127        41.90027                                                                                                
C08  38595945.15426       228.40126        39.10026                                                                                                
C05  39802374.76025        78.45025        34.40025                                                                                                
E10  25069783.12126      2460.76226        38.00026  25067868.94625      1837.74525        33.10025
E12  24115908.57526      1365.51926        38.20026  24113990.80225      1019.40525        31.20025
E16  24771176.64226      1982.51826        37.00026  24769263.06725      1480.33125        29.90025
E24  23860963.86924       809.72124        29.40024  23859049.99425       604.72025        34.00025
E26  28756844.22225     -2964.54425        32.80025  28754929.74724     -2213.89224        28.80024
E31  24440014.80125     -1742.22025        33.70025  24438102.42525     -1300.93925        34.50025
E33  24613021.13127     -1660.57127        44.90027  24611109.35426     -1240.10826        39.10026
G28                                                  23861939.39425     -2595.53825        32.80025
> 2025 05 03 09 20 25.4181452  0 27                      
G05  23598300.53126     -1039.82126        38.70026                                                
G16  21533387.64025      2526.76825        33.20025                                                
G18  20624876.19026       203.22326        37.30026  20622522.81926       151.99726        39.90026
G23  23732051.73727      3250.82527        41.70027  23729705.86126      2427.82626        36.20026
G26  20485635.18425       721.79325        32.90025  20483248.23725       539.18525        32.00025
G29  22410095.00827     -2494.78427        45.60027                                                
R10  19339913.25124        80.40024        25.40024
R09  20613797.06025     -3315.55425        35.30025
R19  21765438.39525     -3560.13025        30.90025
R03  23853803.75025      1221.69525        31.40025
C45  23069262.17725     -2496.19025        34.20025                                                  23069300.85026     -2518.56726        38.70026
C38  39248689.99226      -234.69926        38.00026  39246811.49225      -176.61425        35.10025  39248722.66926      -236.21826        39.40026
C35  22276606.42125      1539.34425        33.70025  22274729.12024      1160.38224        24.40024  22276640.89726      1554.06426        35.50026
C32  26733274.03424       660.40024        26.90024                                                                                                
C30  26510784.56024     -2966.05024        29.10024                                                  26510827.73025     -2991.89925        31.10025
C29  22201942.50927     -1637.65427        47.40027  22200058.01425     -1233.76625        30.90025  22201973.98828     -1652.09528        47.70028
C26  22588848.96026       694.11426        36.80026  22586962.36624       523.42224        25.60024  22588877.44026       701.08826        37.30026
C13  38236995.07427       731.80727        41.70027                                                                                                
C08  38595898.81026       225.24326        37.20026                                                                                                
E10  25069312.57026      2457.89226        37.00026  25067399.29524      1835.39124        27.60024
E12  24115648.47825      1362.39725        35.20025  24113729.80724      1017.85024        23.80024
E16  24770800.82625      1979.63425        34.40025  24768887.55025      1478.27825        29.50025
E24  23860809.60024       806.69924        27.90024  23858895.12525       602.41125        31.00025
E26  28757409.45425     -2967.27025        30.60025  28755494.68024     -2215.92924        24.80024
E31  24440341.09825     -1745.28925        31.60025  24438433.51924     -1303.26624        29.20024
E33  24613336.93627     -1663.60527        43.40027  24611424.86026     -1242.23926        35.70026
G28                                                  23862599.96024     -2597.58824        27.20024
> 2025 05 03 09 20 26.4181452  0 31                      
G05  23598501.39327     -1043.09927        41.50027                                                
G16  21532911.27126      2524.08826        37.40026                                                
G18  20624835.11927       200.15927        41.50027  20622485.04627       149.39327        44.00027
G23  23731432.36727      3247.80427        43.20027  23729087.39026      2425.28426        39.10026
G26  20485486.48826       718.74526        37.10026  20483112.43225       536.63025        34.90025
G29  22410569.28127     -2497.48427        46.20027                                                
R10  19339851.49525        76.93925        32.00025
R09  20614439.51626     -3319.05326        38.20026
R11  21770403.55923      3655.25023        20.40023
R20  19295316.72524       459.10024        23.50024
R19  21766082.05025     -3562.76625        32.30025
R03  23853587.60026      1218.64426        36.60026
C45  23069746.04226     -2499.16726        39.70026  23067863.34624     -1882.75024        24.80024  23069781.41827     -2522.20727        43.70027
C38  39248737.06026      -237.23026        40.30026  39246857.66126      -178.85426        39.90026  39248769.73727      -239.65227        42.40027
C35  22276310.22725      1537.45025        29.70025  22274433.22624      1157.82024        27.80024  22276349.49925      1550.85625        32.60025
C32  26733151.42025       659.03725        29.50025  26731275.61823       496.45023        22.70023  26733197.28824       664.55024        23.70024
C30  26511354.46724     -2968.10024        29.10024                                                  26511398.23625     -2995.09425        33.20025
C29  22202256.39328     -1640.38628        49.50028  22200373.39725     -1236.12125        34.70025  22202289.37028     -1655.59428        49.70028
C26  22588712.85526       691.32226        37.00026  22586828.65924       521.13224        28.70024  22588742.23426       697.48826        38.50026
C13  38236853.57226       729.07726        41.10026                                                                                                
C08  38595857.13926       222.62726        40.70026                                                                                                
C05  39802346.70425        75.50025        34.70025                                                                                                
E10  25068844.89526      2454.55526        40.00026  25066932.81925      1832.97225        32.40025
E12  24115390.35826      1359.08026        38.50026  24113474.08524      1014.74324        26.40024
E16  24770421.58926      1976.61126        37.40026  24768510.41225      1476.16025        31.00025
E24  23860660.30425       803.55025        34.80025  23858742.83125       600.12425        34.90025
E26  28757972.76525     -2970.36725        33.60025  28756060.38924     -2217.88824        27.20024
E31  24440676.56726     -1748.67826        36.60026  24438767.48925     -1305.69725        33.70025
E33  24613653.21827     -1666.88027        44.70027  24611742.94027     -1244.61527        41.90027
G28                                                  23863262.50225     -2600.17925        32.00025
C24                                                                                                  25510033.26723      2958.05023        20.70023
> 2025 05 03 09 20 27.4181452  0 30                      
G05  23598702.83827     -1041.55227        42.40027                                                
G16  21532423.49426      2525.84426        39.40026                                                
G18  20624796.73127       201.73027        41.80027  20622446.95727       150.58027        43.30027
G23  23730814.17927      3250.05027        44.80027  23728469.50326      2426.94326        39.40026
G26  20485353.66526       720.31326        37.00026  20482975.71124       537.69524        29.40024
G29  22411048.33427     -2495.43627        45.70027                                                
R10  19339834.69125        78.38825        32.90025
R09  20615060.67126     -3317.14526        40.70026
R11  21769624.38323      3666.15023        23.20023
R20  19295234.86724       459.20024        28.50024
R19  21766755.66925     -3560.95625        33.70025
R03  23853352.84826      1219.93226        40.20026
C45  23070232.29126     -2497.28726        37.50026  23068343.59824     -1882.15124        25.10024  23070259.27226     -2520.28426        40.90026
C38  39248780.21527      -235.38327        43.00027  39246903.51426      -177.46826        40.30026  39248814.09227      -237.61127        44.80027
C35  22276014.01724      1538.60024        27.90024                                                  22276047.59325      1552.68625        30.60025
C32  26733019.79624       660.40024        26.50024  26731148.49124       497.62124        24.90024  26733067.46324       666.46224        26.30024
C30  26511908.16824     -2965.70024        26.60024                                                  26511967.52725     -2992.87725        33.10025
C29  22202571.16028     -1638.47828        49.20028  22200688.76325     -1234.85825        33.20025  22202604.13728     -1653.57628        49.50028
C26  22588581.83026       692.93926        36.30026  22586695.53624       522.19624        29.00024  22588610.91026       699.25426        37.10026
C13  38236715.05326       731.06826        40.40026                                                                                                
C08  38595815.15327       224.45227        42.20027                                                                                                
C05  39802330.50026        79.57926        38.00026                                                                                                
E10  25068379.30226      2456.66026        40.40026  25066465.12825      1834.49225        32.10025
E12  24115130.72326      1360.99426        37.50026                                                
E16  24770046.53426      1978.64526        37.70026  24768135.65724      1477.55124        28.30024
E24  23860504.39725       805.54525        34.20025  23858589.02325       601.55925        33.70025
E26  28758537.55925     -2968.01125        35.40025  28756625.18324     -2216.50024        24.20024
E31  24441009.62126     -1746.46026        37.50026  24439098.74425     -1304.32925        33.30025
E33  24613970.38327     -1664.90027        45.60027  24612059.50627     -1243.31427        42.60027
G28                                                  23863924.42925     -2598.40925        33.30025
> 2025 05 03 09 20 28.4181452  0 29                      
G05  23598902.98826     -1040.83626        41.20026                                                
G16  21531947.61126      2526.78126        38.20026                                                
G18  20624756.14726       202.39826        41.20026  20622408.47227       151.11027        43.40027
G23  23730197.09427      3251.22527        42.90027  23727851.21926      2427.83626        38.90026
G26  20485214.44926       721.23326        35.90026  20482837.99424       538.16424        26.50024
G29  22411523.39327     -2494.28827        44.20027                                                
R10  19339825.28625        78.84525        33.30025
R09  20615670.93626     -3316.35526        39.10026
R20  19295117.83624       460.40024        28.10024
R19  21767418.69825     -3559.65325        33.00025
R03  23853125.79326      1220.50026        38.80026
C45  23070712.14626     -2496.24826        38.50026                                                  23070741.22626     -2519.30126        41.00026
C38  39248825.37227      -234.21727        41.60027  39246948.37126      -176.61326        39.70026  39248861.04727      -236.53627        43.50027
C35  22275723.70524      1541.90024        24.60024                                                  22275758.18224      1553.53624        27.40024
C32  26732889.27424       659.30024        24.40024  26731022.76624       498.34124        25.30024  26732918.65424       667.14424        26.00024
C30  26512471.06624     -2965.85024        25.00024                                                  26512533.12325     -2991.60525        31.90025
C29  22202886.72928     -1637.42028        48.30028  22201004.03325     -1233.87525        31.60025  22202917.90828     -1652.54828        48.60028
C26  22588448.31126       693.72426        35.80026  22586564.71524       522.68524        29.40024  22588478.29026       700.02026        37.60026
C13  38236575.23826       732.21626        39.50026                                                                                                
C08  38595770.37226       225.57126        40.70026                                                                                                
C05  39802313.90026        73.90026        36.20026                                                                                                
E10  25067912.41326      2457.62026        40.00026  25065997.93925      1835.39025        31.30025
E12  24114871.29026      1361.83826        37.20026                                                
E16  24769668.98326      1979.74626        36.90026                                                
E24  23860347.19325       806.57925        34.00025  23858436.31625       602.21225        32.90025
E26  28759104.05525     -2966.80125        34.60025                                                
E31  24441344.97726     -1745.42026        36.40026  24439431.40225     -1303.43025        33.70025
E33  24614286.25227     -1663.91327        42.90027  24612376.57427     -1242.53127        42.40027
G28                                                  23864588.05825     -2597.40725        32.80025
> 2025 05 03 09 20 29.4181453  0 31                      
G05  23599126.84326     -1040.87326        39.50026                                                
G16  21531492.13725      2527.14325        35.40025                                                
G18  20624746.46426       202.43426        39.30026  20622399.98926       151.20426        40.80026
G23  23729610.91127      3251.72427        42.20027  23727262.33726      2428.25526        38.50026
G26  20485097.14125       721.24625        35.40025  20482729.98025       538.62325        30.20025
G29  22412030.25327     -2493.82627        43.20027                                                
R10  19339822.49825        78.67525        32.90025
R09  20616326.19326     -3316.29026        37.00026
R20  19295056.28924       457.10024        26.20024
R19  21768103.03525     -3559.22825        31.00025
R21  22192461.35822      3448.35022        17.30022
R03  23852924.54326      1220.43626        37.00026
C45  23071220.80526     -2495.98726        38.40026                                                  23071251.98426     -2518.81526        41.30026
C38  39248900.83026      -233.75926        39.80026  39247023.83026      -176.14226        37.70026  39248936.20626      -235.75626        41.10026
C35  22275438.51423      1536.35023        23.40023                                                  22275471.49124      1554.15024        24.20024
C30  26513081.35524     -2963.40024        24.40024                                                  26513135.01825     -2990.50525        30.50025
C29  22203231.10227     -1637.04627        47.30027  22201347.80625     -1233.60525        30.80025  22203262.28027     -1651.91627        47.20027
C26  22588342.39526       693.78726        37.00026  22586460.29824       524.22024        23.50024  22588377.47126       700.21526        38.90026
C13  38236464.82526       732.64426        37.30026                                                                                                
C08  38595759.19126       226.01526        39.60026                                                                                                
C05  39802327.90125       103.75025        35.40025                                                                                                
E10  25067474.32826      2458.12326        38.70026  25065559.55324      1835.58724        28.70024
E12  24114642.45925      1362.12625        35.30025  24112724.98724      1017.20024        24.00024
E16  24769325.33225      1980.25925        35.30025  24767411.45724      1479.40024        25.00024
E24  23860229.58625       807.00125        33.80025  23858312.41325       602.63525        32.30025
E26  28759698.15425     -2966.04325        32.30025  28757785.17923     -2215.50023        22.80023
E31  24441708.53626     -1745.06026        35.50026  24439794.06225     -1303.15225        32.80025
E33  24614632.12426     -1663.53426        40.30026  24612722.74626     -1242.21426        40.30026
G28                                                  23865278.39124     -2597.10324        29.30024
C32                                                  26730927.64324       498.59624        25.50024  26732826.22924       667.68424        26.20024
C24                                                                                                  25508375.49823      2956.50023        20.80023
> 2025 05 03 09 20 30.4181453  0 31                      
G05  23599323.83927     -1042.01927        43.70027                                                
G16  21531013.70026      2526.24526        35.60026                                                
G18  20624712.62027       201.58227        43.00027  20622362.24727       150.43527        42.20027
G23  23728992.47127      3251.57927        43.70027  23726644.19726      2428.06726        40.20026
G26  20484951.47425       720.25125        32.70025  20482596.00525       537.83825        34.80025
G29  22412499.46127     -2494.53827        45.80027                                                
G31  22509604.33624     -2711.80024        25.60024                                                
R10  19339813.83725        77.46425        32.80025
R09  20616952.19227     -3316.93327        43.30027
R11  21767659.37423      3661.35023        19.00023
R20  19295044.33024       459.00024        24.30024
R19  21768786.29425     -3559.97225        34.80025
R03  23852701.82926      1219.23526        37.00026
C45  23071705.00227     -2496.53227        42.50027  23069810.61424     -1881.30024        29.10024  23071731.68427     -2519.56327        42.80027
C38  39248947.63026      -234.58826        41.10026  39247068.23126      -176.74626        38.40026  39248978.20927      -236.66327        42.10027
C35  22275168.43325      1539.61425        30.20025  22273283.63824      1159.93524        24.90024  22275185.52125      1552.96925        32.70025
C32  26732674.26624       659.05024        26.50024  26730800.86324       497.72024        27.60024  26732707.84324       666.10924        28.50024
C30  26513664.78324     -2964.65024        27.70024                                                  26513704.95525     -2991.62425        29.70025
C29  22203542.91828     -1637.78628        49.60028  22201661.72125     -1234.08225        30.60025  22203577.09528     -1652.85528        49.80028
C26  22588211.11826       692.89826        38.30026  22586327.82225       522.21825        32.00025  22588245.59426       699.19526        40.30026
C13  38236324.85427       731.93527        42.00027                                                                                                
C08  38595712.45526       225.29826        39.60026                                                                                                
C05  39802314.44225        94.65025        35.10025                                                                                                
E10  25067004.58526      2457.37026        39.40026  25065092.50924      1835.14824        28.30024
E12  24114381.37226      1361.42126        36.30026  24112465.39924      1016.58424        25.20024
E16  24768945.22726      1979.61526        37.30026  24767034.95025      1478.01825        33.30025
E24  23860069.52925       805.98825        31.30025  23858159.85125       602.33225        32.90025
E26  28760264.49425     -2966.41525        31.20025  28758349.12024     -2215.94924        24.60024
E31  24442039.53925     -1745.39725        34.80025  24440125.96425     -1303.22025        31.30025
E33  24614948.43727     -1664.46927        42.70027  24613040.55826     -1242.83726        41.10026
G28                                                  23865942.46325     -2597.31025        30.00025
> 2025 05 03 09 20 31.4181453  0 30                      
G05  23599519.52827     -1043.64427        44.40027                                                
G16  21530524.06425      2524.84525        33.80025                                                
G18  20624679.26727       199.84727        41.80027  20622323.79826       149.18626        40.30026
G23  23728376.62227      3250.06227        45.30027  23726025.35026      2426.94026        37.60026
G26  20484805.40026       718.71726        38.70026  20482459.22426       536.63626        37.00026
G29  22412974.25627     -2495.57327        45.20027                                                
R10  19339784.38125        75.67125        35.40025
R09  20617573.88627     -3318.68827        42.60027
R20  19294905.45024       452.60024        26.40024
R19  21769450.85826     -3560.98326        36.10026
R03  23852484.10425      1217.52325        34.80025
C45  23072182.49627     -2498.09427        42.90027  23070290.20625     -1882.47625        34.90025  23072215.17327     -2520.98927        41.80027
C38  39248995.22127      -235.54727        42.40027  39247112.82426      -177.52626        36.70026  39249018.60526      -237.73126        40.50026
C35  22274871.56225      1537.90625        35.40025  22272987.06724      1159.17024        24.10024  22274899.44326      1552.06726        38.80026
C32  26732544.38025       658.84625        30.50025  26730674.27425       496.52725        29.70025  26732578.25625       664.95725        34.60025
C30  26514237.91024     -2964.55024        26.70024                                                  26514260.99424     -2992.05424        27.00024
C29  22203857.02527     -1638.95727        47.10027  22201974.02824     -1235.38624        27.20024  22203893.00028     -1653.96428        47.70028
C26  22588079.13326       691.42626        41.10026  22586195.23825       521.06625        33.90025  22588110.01227       697.81327        43.50027
C13  38236183.27627       730.84027        42.40027                                                                                                
C08  38595669.20926       224.13326        40.00026                                                                                                
C05  39802300.87625        71.35025        33.40025                                                                                                
E10  25066537.73225      2456.27625        32.80025  25064624.45724      1834.50024        23.50024
E12  24114118.67826      1359.97626        37.30026  24112204.20424      1015.53824        26.20024
E16  24768570.11126      1978.56226        35.90026  24766657.73526      1477.41326        35.50026
E24  23859911.76225       804.91725        32.40025  23858006.28125       601.05125        31.90025
E26  28760830.42723     -2967.45023        21.40023  28758911.75524     -2216.14024        24.30024
E31  24442370.13426     -1746.96126        38.10026  24440458.95824     -1304.65524        28.70024
E33  24615264.34226     -1665.64026        39.80026  24613357.06326     -1243.98226        40.30026
G28                                                  23866605.22825     -2598.26625        31.30025
C44                                                                                                  25685700.29522      2945.30022        16.60022
> 2025 05 03 09 20 32.4181453  0 30                      
G05  23599718.10327     -1042.85027        41.60027                                                
G18  20624639.50727       200.60327        42.50027  20622285.83626       149.74926        37.90026
G23  23727754.96527      3251.10227        45.20027  23725405.79125      2427.72625        32.90025
G26  20484664.31025       719.48925        34.30025  20482322.93126       537.19326        36.60026
G29  22413444.14327     -2494.41227        43.40027                                                
R10  19339771.00325        76.18225        34.80025
R09  20618178.97926     -3317.92326        35.90026
R11  21766278.26723      3659.40023        22.40023
R20  19294837.21024       455.85024        24.10024
R19  21770121.60626     -3559.77326        36.00026
R03  23852267.16724      1220.85024        28.40024
C45  23072664.67426     -2497.17226        38.30026  23070770.28625     -1881.80425        35.10025  23072691.95526     -2520.30126        36.20026
C38  39249037.90427      -234.42127        42.60027  39247158.50526      -176.67426        35.80026  39249064.28627      -236.72127        41.80027
C35  22274571.58326      1538.89726        38.00026  22272692.18423      1159.60023        22.50023  22274603.66026      1552.84626        40.10026
C32  26732427.27324       662.90024        24.50024  26730548.47425       497.26025        32.30025  26732461.75025       665.78625        30.30025
C30  26514811.52624     -2963.45024        28.80024                                                  26514837.90724     -2990.93024        27.10024
C29  22204171.62027     -1637.89427        46.30027                                                  22204209.09427     -1653.10727        46.00027
C26  22587944.93927       692.25427        42.60027  22586062.24225       521.75025        32.40025  22587975.51827       698.44527        44.40027
C13  38236045.18426       731.97526        40.40026                                                                                                
C08  38595623.45426       225.24126        37.60026                                                                                                
C05  39802284.20025        61.75025        32.90025                                                                                                
E10  25066073.16625      2457.17025        34.50025                                                
E12  24113859.47026      1360.85426        37.30026  24111946.19524      1016.16324        27.00024
E16  24768192.18525      1979.79825        29.60025  24766281.60825      1478.27725        30.50025
E24  23859756.58225       805.98825        30.20025  23857852.60025       601.86025        31.20025
E26  28761393.54923     -2966.95023        20.60023  28759477.27625     -2215.17725        30.30025
E31  24442703.61627     -1746.02327        42.40027  24440790.94024     -1303.85524        26.70024
E33  24615580.13626     -1664.61826        37.90026  24613674.65526     -1243.10426        39.10026
G28                                                  23867266.98324     -2597.00024        27.00024
C24                                                                                                  25506733.30423      2956.45023        20.80023
> 2025 05 03 09 20 33.4181453  0 30                      
G05  23599924.48727     -1044.84127        42.60027                                                
G18  20624599.76227       198.57927        41.90027  20622246.99126       148.58426        37.80026
G23  23727139.01927      3249.70827        44.50027  23724785.64825      2427.09925        32.00025
G26  20484539.72326       717.58626        37.70026  20482184.55426       536.10926        37.50026
G29  22413921.54027     -2495.99427        43.90027                                                
G31  22511134.94125     -2714.71725        33.30025                                                
R10  19339777.12625        73.91925        35.40025
R09  20618805.07325     -3319.90325        34.40025
R11  21765590.07124      3664.20024        23.90024
R20  19294743.20224       452.15024        25.20024
R19  21770786.07425     -3561.45425        35.40025
R03  23852026.26125      1216.16325        33.40025
C45  23073138.17426     -2498.93926        39.70026  23071250.08125     -1883.07825        34.60025  23073165.75525     -2521.41625        35.20025
C38  39249081.50127      -235.96327        41.60027  39247203.00226      -177.59926        35.50026  39249108.78326      -237.63526        40.00026
C35  22274281.21126      1537.12526        35.70026  22272397.31523      1156.55023        21.50023  22274308.79226      1551.65226        36.90026
C32  26732299.38924       655.50024        28.80024  26730421.19025       496.40325        32.10025  26732326.37125       664.69025        33.10025
C30  26515378.56124     -2966.20024        29.00024                                                  26515409.43924     -2991.42724        29.00024
C29  22204485.33027     -1639.49627        44.40027  22202604.43223     -1234.75023        23.20023  22204527.00127     -1654.02427        42.30027
C26  22587811.35927       690.18927        41.80027  22585929.56225       520.44425        30.10025  22587842.83727       697.04427        43.70027
C13  38235905.30926       730.36726        40.00026                                                                                                
C08  38595579.81126       223.70126        37.70026                                                                                                
C05  39802270.53725        92.15025        33.00025                                                                                                
E10  25065604.71826      2455.66426        37.40026  25063695.04024      1833.91624        24.70024
E12  24113601.77626      1359.27126        36.80026  24111685.50324      1015.27324        25.00024
E16  24767824.46724      1978.11924        28.50024  24765903.69724      1477.52624        28.70024
E24  23859610.41126       804.53726        36.50026  23857698.93425       600.87525        31.50025
E31  24443034.71426     -1747.40426        37.90026  24441121.43924     -1304.52324        26.70024
E33  24615901.04226     -1666.22826        39.70026  24613991.36426     -1244.08626        40.50026
G28                                                  23867927.55324     -2598.25924        26.10024
E26                                                  28760041.91224     -2215.89124        29.40024
> 2025 05 03 09 20 34.4181453  0 31                      
G05  23600124.89027     -1046.46727        42.70027                                                
G16  21529089.63825      2522.44025        32.60025                                                
G18  20624562.12927       197.10527        42.20027  20622209.35825       147.21525        35.20025
G23  23726521.58727      3248.67727        44.40027  23724169.11625      2425.90225        32.70025
G26  20484410.05427       716.03727        42.10027  20482049.48826       534.78626        38.80026
G29  22414396.25327     -2497.11227        43.30027                                                
G31  22511657.32025     -2715.88825        33.60025                                                
R10  19339763.47726        72.18726        36.80026
R09  20619413.19325     -3321.56925        33.20025
R20  19294643.81224       452.95024        28.60024
R19  21771451.15425     -3562.62525        33.60025
R03  23851807.55325      1214.45725        33.40025
C45  23073619.48226     -2499.95826        38.60026  23071729.89025     -1884.21925        32.50025  23073646.46325     -2522.83325        35.00025
C38  39249128.11026      -237.13926        39.20026  39247248.41225      -178.78925        33.80025  39249158.08926      -239.43926        38.00026
C35  22273982.45926      1535.95426        35.80026  22272100.96224      1157.34424        28.30024  22274009.74026      1549.89626        37.50026
C32  26732171.81925       656.77525        30.30025  26730296.61725       494.68125        30.40025  26732198.80025       662.55525        35.40025
C30  26515943.51024     -2966.65024        28.60024                                                  26515959.39924     -2994.55024        24.50024
C29  22204800.55327     -1640.67127        45.50027                                                  22204838.92627     -1655.89027        45.00027
C26  22587679.29127       688.85327        41.90027  22585798.39325       518.92725        34.20025  22587711.06927       695.11427        43.60027
C13  38235763.34826       729.19626        37.60026                                                                                                
C08  38595537.38226       222.53426        37.10026                                                                                                
C05  39802253.29025        47.85025        32.40025                                                                                                
E10  25065135.68426      2454.40026        38.80026  25063229.90324      1832.71024        24.90024
E11  27607301.97923      3105.30023        18.90023                                                
E12  24113343.79626      1357.80226        36.60026  24111431.12024      1014.03124        28.50024
E16  24767441.17326      1977.21726        37.40026  24765527.89825      1476.47525        35.20025
E24  23859460.05626       803.24926        40.40026  23857544.98125       599.74225        31.90025
E31  24443365.82626     -1748.62026        40.50026  24441454.34924     -1310.83724        26.00024
E33  24616221.66126     -1667.50726        36.60026  24614307.48626     -1245.31926        38.00026
G28                                                  23868590.83524     -2599.12524        26.50024
E26                                                  28760606.86224     -2216.77424        26.70024
> 2025 05 03 09 20 35.4181453  0 32                      
G05  23600323.25826     -1044.81826        41.10026                                                
G16  21528615.57125      2525.12325        31.80025                                                
G18  20624523.36127       198.92127        41.60027  20622171.19025       148.58025        33.70025
G23  23725900.02327      3250.75327        44.60027  23723550.54925      2427.51725        32.70025
G26  20484270.55627       718.05627        42.30027  20481912.98826       536.12926        37.60026
G28  23871597.65925     -3478.55425        30.70025  23869250.88323     -2596.80023        21.10023
G29  22414871.02927     -2494.81027        42.90027                                                
G31  22512175.86725     -2713.94525        30.60025                                                
R10  19339734.30226        73.85026        35.50026
R09  20620073.24224     -3321.78324        29.40024
R20  19294559.47624       455.20024        27.80024
R19  21772134.28725     -3560.22125        34.30025
R03  23851572.42225      1215.96225        29.70025
C45  23074102.95326     -2498.14626        38.80026  23072209.46325     -1882.62225        35.00025  23074134.13126     -2521.02126        41.30026
C38  39249170.28726      -234.83726        39.00026  39247294.78525      -176.93225        34.30025  39249204.46326      -236.95126        39.50026
C35  22273688.26826      1537.95126        38.00026  22271806.47124      1159.24624        25.30024  22273717.34826      1552.13626        38.80026
C32  26732042.81424       655.20024        26.60024  26730170.31025       496.33025        30.70025  26732072.49325       664.47625        33.60025
C30  26516524.41424     -2966.50024        27.50024                                                  26516548.39724     -2991.20024        25.80024
C29  22205111.94327     -1638.47427        41.80027  22203233.14324     -1235.25024        28.40024  22205156.01227     -1653.55427        41.80027
C26  22587548.18726       690.78626        41.20026  22585665.79125       520.65425        33.60025  22587579.06627       697.13827        42.80027
C13  38235622.95126       731.56226        36.30026                                                                                                
C08  38595497.41526       224.58126        37.60026                                                                                                
C05  39802240.00425        78.75025        34.70025                                                                                                
E10  25064670.01226      2456.23426        39.30026  25062755.83724      1834.20524        27.00024
E11  27606711.59323      3104.20023        20.20023                                                
E12  24113085.88025      1359.57825        33.90025  24111172.60425      1015.35725        31.80025
E16  24767064.54026      1979.22426        37.80026  24765152.16425      1478.09625        34.60025
E24  23859307.36726       805.17426        41.20026  23857392.89225       601.48625        31.80025
E31  24443697.30226     -1746.85226        38.80026  24441787.92424     -1303.10024        28.80024
E33  24616539.04626     -1665.54826        38.50026  24614624.87126     -1243.79726        37.90026
E26                                                  28761170.67824     -2214.96424        27.80024
C24                                                                                                  25505065.73223      2957.10023        21.40023
> 2025 05 03 09 20 36.4181453  0 32                      
G05  23600517.66627     -1046.23227        41.70027                                                
G16  21528129.75125      2523.50525        31.20025                                                
G18  20624486.03026       197.19126        39.50026  20622133.85926       147.34526        36.10026
G23  23725283.79327      3249.75827        43.40027  23722932.52025      2426.75025        32.40025
G26  20484138.79126       716.23126        40.70026  20481776.12625       534.98125        35.40025
G29  22415347.54326     -2495.87126        40.60026                                                
G31  22512676.36324     -2715.44524        28.90024                                                
R10  19339729.64925        71.77925        33.70025
R09  20620671.47125     -3320.44125        31.40025
R11  21763589.14623      3659.55023        18.90023
R20  19294430.70824       456.60024        24.60024
R19  21772807.76425     -3561.36725        33.20025
R03  23851360.01225      1214.39725        34.80025
C45  23074575.26926     -2499.85026        36.40026  23072689.87425     -1883.61525        35.20025  23074607.64626     -2522.63626        37.70026
C38  39249218.69626      -235.97626        39.10026  39247339.59725      -177.64225        33.80025  39249245.97726      -237.94826        39.20026
C35  22273394.01526      1536.50326        36.10026  22271511.01924      1158.28024        25.50024  22273422.19526      1550.86026        37.30026
C32  26731911.04825       657.67725        29.60025  26730044.54024       495.38324        28.50024  26731951.22025       663.34525        33.50025
C30  26517095.96124     -2965.25024        28.50024                                                  26517112.75024     -2991.03924        27.40024
C29  22205430.16527     -1639.77727        43.00027  22203550.16725     -1235.72625        31.00025  22205467.93926     -1654.74726        39.60026
C26  22587411.92526       688.96326        40.80026  22585532.82625       519.37725        30.80025  22587447.90027       695.58327        43.00027
C13  38235483.99026       730.24726        36.60026                                                                                                
C08  38595451.69026       223.66426        36.00026                                                                                                
C05  39802227.25625        65.40025        32.80025                                                                                                
E10  25064202.17925      2454.91325        34.30025  25062288.90324      1833.43024        29.10024
E11  27606116.34823      3104.05023        20.90023                                                
E12  24112827.60225      1358.16725        35.00025  24110912.52725      1014.26825        31.20025
E16  24766687.84426      1977.93626        36.90026  24764774.26825      1477.19525        32.40025
E24  23859153.71626       803.92326        39.50026  23857238.94224       600.36724        26.70024
E26  28763650.10422     -2967.00022        15.20022  28761738.32824     -2215.58424        25.20024
E31  24444026.91725     -1747.85825        34.40025  24442120.83724     -1305.41524        25.40024
E33  24616854.87126     -1667.06526        38.70026  24614942.19526     -1244.60326        39.80026
G28                                                  23869915.06624     -2598.50124        24.30024
> 2025 05 03 09 20 37.4181453  0 30                      
G05  23600717.30727     -1046.96127        43.50027                                                
G16  21527641.96725      2523.27725        32.60025                                                
G18  20624449.43426       196.76126        41.30026  20622096.36326       147.08726        38.60026
G23  23724660.50327      3249.41827        42.70027  23722314.02726      2426.62826        36.20026
G26  20484013.15626       716.00326        36.90026  20481639.69926       534.82426        36.50026
G29  22415828.98827     -2496.17827        44.70027                                                
G31  22513159.60724     -2716.20024        28.20024                                                
R10  19339713.13826        71.15726        35.50026
R09  20621306.11026     -3321.49626        40.60026
R20  19294373.12724       452.90024        24.70024
R19  21773453.19525     -3561.61925        30.70025
R03  23851110.56326      1213.44926        35.90026
C45  23075053.71626     -2499.81726        39.50026  23073170.71925     -1884.33125        33.20025  23075087.89226     -2522.70326        40.10026
C38  39249267.84026      -236.16626        38.70026  39247385.14425      -178.00825        33.80025  39249291.52426      -238.30826        39.80026
C35  22273096.00026      1536.40026        36.10026  22271215.70124      1158.23424        27.50024  22273126.27926      1550.64726        39.00026
C32  26731787.21224       656.56924        29.40024  26729916.80724       494.82624        26.80024  26731820.48925       662.70925        30.20025
C30  26517655.95224     -2965.75024        28.80024                                                  26517695.22524     -2991.46624        28.00024
C29  22205747.62427     -1640.08727        46.80027  22203864.92725     -1235.64825        30.50025  22205779.10227     -1655.02827        46.00027
C26  22587281.79326       688.78026        37.90026  22585398.49725       519.22325        30.00025  22587316.27027       695.15927        41.60027
C13  38235342.76626       730.11026        40.40026                                                                                                
C08  38595408.79826       223.26726        38.70026                                                                                                
E10  25063739.57725      2454.88925        30.60025  25061823.00425      1833.06925        29.50025
E11  27605524.83623      3103.30023        20.40023                                                
E12  24112570.65826      1357.97426        38.10026  24110653.18524      1013.76124        28.00024
E16  24766313.08126      1978.02626        36.00026  24764399.20625      1477.27025        31.30025
E24  23858999.30225       803.76125        34.90025  23857087.52525       600.40825        29.90025
E26  28764213.99224     -2967.17424        27.80024                                                
E31  24444357.86625     -1748.28025        33.10025  24442455.68324     -1305.41224        27.20024
E33  24617173.22926     -1667.15426        41.20026  24615259.65426     -1244.90126        39.40026
G28                                                  23870577.88625     -2598.34625        30.50025
> 2025 05 03 09 20 38.4181453  0 32                      
G05  23600918.71527     -1049.98627        43.90027                                                
G16  21527164.64525      2521.87025        30.30025                                                
G18  20624412.20826       193.91226        39.00026  20622059.73626       144.94426        39.20026
G23  23724045.27627      3247.14127        44.90027  23721697.00226      2425.01426        39.30026
G26  20483860.50926       713.11026        38.30026  20481503.84126       532.50326        35.80026
G29  22416300.50927     -2498.70727        44.70027                                                
G31  22513681.49424     -2718.65024        26.80024                                                
R10  19339696.59825        68.38025        34.10025
R09  20621916.13626     -3324.47626        36.30026
R20  19294292.43024       448.10024        27.20024
R19  21774124.97825     -3564.13925        33.80025
R21  22186406.76122      3440.70022        16.00022
R03  23850882.06925      1210.66625        34.60025
C45  23075531.83326     -2502.46826        38.10026  23073651.23525     -1885.99825        34.80025  23075570.20626     -2525.44526        38.30026
C38  39249311.25826      -238.74926        36.70026  39247431.85925      -179.87325        34.60025  39249341.53726      -240.96426        39.10026
C35  22272805.14925      1533.75325        33.00025  22270921.55324      1155.59924        28.20024  22272832.43025      1547.93925        34.60025
C32  26731665.44425       653.78925        30.50025  26729791.44123       492.35023        22.90023  26731702.91825       659.63225        29.80025
C30  26518230.00224     -2964.75024        28.60024                                                  26518259.38224     -2993.84524        26.80024
C29  22206062.95427     -1642.41727        45.40027  22204181.15625     -1237.88825        32.10025  22206092.93327     -1657.50927        44.40027
C26  22587148.63326       685.78326        36.70026  22585268.63524       516.36824        27.90024  22587185.80826       692.10426        40.80026
C13  38235204.51026       727.43126        40.10026                                                                                                
C08  38595367.67426       220.75426        36.00026                                                                                                
C05  39802189.10925        80.65025        31.00025                                                                                                
E10  25063266.15325      2452.06525        33.20025  25061355.57625      1831.54925        30.20025
E11  27604933.29323      3102.90023        19.90023                                                
E12  24112311.58526      1355.06126        37.50026  24110397.11025      1011.58225        29.70025
E16  24765936.79025      1975.41025        34.80025  24764022.31525      1475.08525        32.00025
E24  23858847.25526       801.01926        37.90026  23856936.37825       597.70325        31.10025
E26  28764774.55224     -2969.91924        26.40024                                                
E31  24444693.58226     -1750.63126        40.00026  24442787.50125     -1306.92525        33.10025
E33  24617489.15826     -1669.94326        37.50026  24615577.98126     -1246.83326        40.70026
G28                                                  23871240.07525     -2600.34225        30.60025
> 2025 05 03 09 20 39.4181454  0 29                      
G05  23601149.57727     -1050.90627        41.50027                                                
G18  20624392.44327       193.00027        42.40027  20622052.26327       144.20227        41.80027
G23  23723454.40728      3246.94328        49.40028  23721108.23227      2424.67127        42.30027
G26  20483729.82225       712.04925        34.80025  20481398.33625       532.19025        33.20025
G28  23874308.47325     -3484.36425        32.00025  23871932.31825     -2600.27925        30.00025
G29  22416803.28327     -2498.89927        42.50027                                                
R10  19339729.59725        67.46725        34.20025
R09  20622573.60326     -3325.23826        41.20026
R20  19294248.68324       448.95024        26.20024
R19  21774822.31726     -3564.74726        35.80026
R03  23850683.62925      1209.69025        33.60025
C45  23076045.39926     -2502.99126        40.20026  23074160.60425     -1886.04025        32.80025  23076082.27427     -2525.76527        42.50027
C38  39249389.22626      -239.32626        40.00026  39247507.72925      -180.00525        34.00025  39249415.30826      -240.99626        40.80026
C35  22272540.15425      1533.13925        34.10025  22270656.85825      1155.44125        29.50025  22272570.43425      1547.55725        34.00025
C32  26731570.13224       655.65024        28.60024  26729696.42924       492.92624        27.70024  26731608.80624       660.03824        29.00024
C30  26518829.01024     -2966.45024        25.50024                                                  26518882.67324     -2993.29424        27.80024
C29  22206414.33227     -1643.12027        44.00027  22204526.53925     -1238.02125        33.20025  22206438.61627     -1657.80427        43.40027
C26  22587048.82526       685.01226        35.70026  22585166.42825       516.21025        30.30025  22587085.39926       691.72826        39.40026
C13  38235086.41426       727.30326        38.30026                                                                                                
C08  38595354.80525       221.11425        32.50025                                                                                                
C05  39802204.42026        78.43426        40.40026                                                                                                
E10  25062830.87626      2451.90426        37.20026  25060920.29925      1829.94025        30.50025
E11  27604370.30523      3103.20023        19.80023                                                
E12  24112085.26426      1354.68726        38.30026  24110169.29025      1011.67425        30.10025
E16  24765589.05325      1976.19425        30.70025  24763676.37726      1475.00426        36.50026
E24  23858722.26325       800.51025        34.30025  23856812.88525       598.04725        34.60025
E26  28765373.85924     -2969.66624        26.00024  28763459.08523     -2216.75023        22.10023
E31  24445055.45327     -1750.94627        42.50027  24443150.57226     -1307.53426        39.30026
E33  24617836.64026     -1670.13726        40.50026  24615924.86326     -1247.23726        36.80026
> 2025 05 03 09 20 40.4181454  0 29                      
G05  23601356.92325     -1052.35225        35.20025                                                
G18  20624360.25527       191.49027        41.60027  20622015.57826       142.89926        40.80026
G23  23722835.22628      3245.65028        48.60028  23720490.54927      2423.67127        41.80027
G26  20483621.18726       710.71726        40.20026  20481263.61926       530.71526        38.70026
G29  22417279.54327     -2500.24727        42.60027                                                
R10  19339712.39925        63.91825        30.80025
R09  20623206.05427     -3326.75427        43.40027
R20  19294164.33124       451.25024        26.00024
R19  21775454.17024     -3566.95024        25.20024
R03  23850464.07024      1209.20024        27.50024
C45  23076526.75626     -2504.31126        38.80026  23074641.66125     -1887.21325        34.00025  23076557.93426     -2527.34026        39.80026
C38  39249428.98926      -240.33326        36.70026  39247552.88725      -181.23225        33.60025  39249465.56326      -242.60426        39.90026
C35  22272241.75126      1532.06326        36.30026  22270361.75225      1154.44025        30.30025  22272276.22726      1545.92326        39.00026
C32  26731447.70724       650.85024        26.20024  26729572.20524       490.90524        27.00024  26731486.08025       657.79025        32.80025
C30  26519383.21624     -2969.05024        27.50024                                                  26519433.28124     -2995.10024        25.60024
C29  22206729.00427     -1645.33327        43.50027  22204842.71025     -1239.21325        33.70025  22206763.18127     -1659.40527        45.10027
C26  22586918.00527       683.61727        41.90027  22585036.50725       515.07025        35.10025  22586948.88327       689.74427        43.40027
C13  38234949.89827       725.96527        43.20027                                                                                                
C08  38595314.22325       217.45525        32.00025                                                                                                
C05  39802187.22227        77.27627        41.70027                                                                                                
E10  25062362.79026      2450.47726        37.60026  25060455.21124      1829.60624        28.70024
E11  27603779.90423      3102.35023        20.10023                                                
E12  24111826.13326      1353.26126        35.60026  24109910.45924      1010.47424        27.80024
E16  24765211.50425      1974.09225        33.10025  24763301.82625      1474.08325        34.10025
E24  23858572.55726       799.84926        38.10026  23856661.38025       596.97725        35.00025
E26  28765936.45923     -2969.20023        21.60023  28764027.68124     -2218.46324        25.00024
E31  24445392.90927     -1752.48927        41.80027  24443483.23126     -1308.66326        39.40026
E33  24618159.10626     -1671.59726        40.00026  24616242.83225     -1248.65025        35.40025
G28                                                  23872595.64924     -2601.61624        25.20024
> 2025 05 03 09 20 41.4181454  0 32                      
G05  23601549.59926     -1052.94326        37.30026                                                
G16  21525749.44626      2518.59926        36.20026                                                
G18  20624320.29226       190.84026        40.30026  20621979.81226       142.53426        41.20026
G23  23722219.96128      3245.20928        48.50028  23719873.78526      2423.20426        40.60026
G26  20483506.57526       710.34126        39.50026  20481128.62225       530.46425        34.90025
G29  22417757.32127     -2500.18427        46.80027                                                
R10  19339693.12125        64.30425        33.00025
R09  20623834.32827     -3327.46527        44.60027
R20  19294066.20824       447.00024        26.80024
R19  21776141.80324     -3567.25024        26.40024
R21  22184630.91223      3439.85023        19.70023
R03  23850219.64824      1207.20024        28.70024
C45  23077009.33126     -2504.98326        40.10026  23075123.63625     -1887.88325        34.60025  23077041.10926     -2528.09526        41.20026
C38  39249481.06226      -240.21226        38.40026  39247599.26425      -181.20325        33.30025  39249506.24426      -242.45226        39.10026
C35  22271951.76126      1531.63926        36.70026  22270068.76425      1154.02225        30.20025  22271981.44026      1545.59126        39.40026
C32  26731338.79124       652.75024        24.60024  26729448.30024       490.51824        26.00024  26731351.98225       656.51925        30.60025
C30  26519962.32425     -2967.29625        31.40025                                                  26520001.89724     -2994.75024        29.00024
C29  22207040.99728     -1644.32528        48.30028  22205157.40125     -1239.09225        32.60025  22207076.97228     -1659.55128        50.00028
C26  22586787.50426       683.22426        39.90026  22584904.50825       514.75825        34.30025  22586818.98227       689.46927        42.10027
C13  38234811.30327       725.98427        44.40027                                                                                                
C08  38595268.86325       219.03025        35.30025                                                                                                
