     4.01           OBSERVATION DATA    M                   RINEX VERSION / TYPE
GnssLogger          Xiaomi 12           20250503 090148 UTC PGM / RUN BY / DATE
Google GnssLogger                                           MARKER NAME
Unknown                                                     MARKER NUMBER
Unknown             Unknown                                 OBSERVER / AGENCY
Unknown             GnssLogger          v3.1.0.4            REC # / TYPE / VERS
Unknown             Unknown                                 ANT # / TYPE
        0.0000        0.0000        0.0000                  ANTENNA: DELTA H/E/N
G    3 C1C D1C S1C                                          SYS / # / OBS TYPES
R    3 C1C D1C S1C                                          SYS / # / OBS TYPES
C    3 C2I D2I S2I                                          SYS / # / OBS TYPES
  2025    05    03    09    01   48.0000000     GPS         TIME OF FIRST OBS
 8 R02 -4 R03  5 R09 -2 R10 -7 R11  0 R19  3 R20  2 R21  4  GLONASS SLOT / FRQ #
Xiaomi 2107113SG (Android 12) HW Year: 2018 HW Model:       COMMENT
qcom;MPSS.HI.4.3.c2-00084-LC_ALL_PACK-1.4500.49.6980.77;    COMMENT
                                                            END OF HEADER
> 2025 05 03 09 01 48.5955357  0 19                      
G16  22106169.96327      3210.58127        42.80027
G18  20737081.66326      1210.03126        40.50026
G31  21979328.37426     -1876.52226        40.80026
R10  19448847.38926      1313.40026        37.50026
R02  24212583.12423      -496.60023        23.20023
R09  19986283.53027     -2306.80027        45.10027
R11  22569698.86926      4323.75026        41.30026
R20  19469995.94925      1579.22925        34.10025
R19  21046342.16724     -2921.15024        23.60024
R21  22950302.78227      4140.72027        41.50027
R03  24188006.13825      2329.94325        31.90025
C45  22577369.05927     -1728.83727        44.40027
C38  39218531.82225       317.06125        30.40025
C30  25869254.53425     -2650.40025        29.80025
C29  21880697.85426      -990.30026        39.10026
C26  22796505.65426      1591.81126        41.10026
C13  38415289.19524      1286.05024        27.70024
C08  38668254.07124       809.20024        27.10024
C05  39815808.93525       408.80025        30.00025
> 2025 05 03 09 01 50.4155361  0 21                      
G16  22105174.21726      3210.31926        37.20026
G18  20736782.93426      1208.51926        39.80026
G31  21980099.90427     -1878.01127        43.00027
R10  19448534.57025      1311.37225        35.00025
R02  24212876.48524      -502.80024        25.40024
R09  19987180.37327     -2308.07627        41.60027
R11  22568358.96126      4323.63426        38.80026
R20  19469565.61125      1577.39325        30.80025
R19  21047444.96724     -2931.55024        25.50024
R21  22949014.73826      4139.76326        40.50026
R03  24187320.07725      2329.60325        34.10025
C45  22578092.02327     -1729.92027        42.60027
C38  39218519.69424       316.85024        27.70024
C36  25892467.92825     -3095.10425        34.00025
C30  25870295.27825     -2649.68225        31.40025
C29  21881159.69926      -991.77926        40.70026
C26  22796067.82127      1590.18827        44.00027
C24  26157194.26223      3457.00023        22.60023
C13  38414949.99424      1288.20024        26.50024
C08  38668074.95924       811.50024        27.60024
C05  39815789.01324       407.20024        27.70024
> 2025 05 03 09 01 51.4155363  0 31                      
G05  23453163.70924        42.50024        29.30024
G16  22104629.18026      3211.26926        36.80026
G18  20736609.94026      1209.30326        36.80026
G20  25246763.82524     -2028.10024        24.50024
G23  24431645.22025      3680.25025        34.80025
G25  24066169.13425     -3218.70025        33.70025
G26  20698540.19526      1637.85026        37.80026
G27  24260747.93025      3615.10025        34.20025
G28  23145299.93826     -2933.20026        41.30026
G29  21900260.06125     -1946.15025        34.90025
G31  21980517.20126     -1876.95126        41.20026
R10  19448340.29025      1311.88825        35.30025
R02  24213018.87224      -500.55024        25.30024
R09  19987682.81126     -2307.39326        39.90026
R11  22567592.37726      4324.96226        36.90026
R20  19469344.94924      1576.95024        27.90024
R19  21048036.44424     -2929.00024        24.90024
R21  22948299.11926      4140.91626        38.20026
R03  24186970.80525      2329.27125        30.10025
C45  22578483.23726     -1729.06026        40.10026
C38  39218514.58324       312.45024        25.30024
C36  25893111.86826     -3088.25026        35.70026
C35  22641952.89827      2230.60027        44.10027
C32  26929633.49924      1522.60024        26.50024
C30  25870876.86124     -2647.60024        26.60024
C29  21881410.31126      -990.47826        37.70026
C26  22795822.87626      1591.32926        40.20026
C24  26156595.86123      3458.90023        20.60023
C13  38414780.89724      1284.90024        25.10024
C08  38668002.69524       808.15024        25.20024
C05  39815764.71624       413.80024        26.90024
> 2025 05 03 09 01 52.4155366  0 30                      
G05  23453222.29224        36.14624        28.60024
G16  22104104.66726      3212.00926        38.80026
G18  20736467.66226      1209.14626        38.20026
G20  25247237.32224     -2028.35024        26.10024
G23  24431032.86825      3680.72925        33.80025
G25  24066867.77425     -3217.82025        32.40025
G26  20698314.87526      1639.10326        41.10026
G27  24260152.06626      3615.77126        37.20026
G28  23145950.01226     -2933.06526        39.00026
G29  21900719.16826     -1946.87126        37.30026
G31  21980962.81627     -1876.77927        42.60027
R10  19448185.12226      1311.56726        35.60026
R02  24213208.16524      -503.35024        24.70024
R09  19988214.46725     -2307.99525        33.80025
R11  22566870.00126      4325.59526        40.80026
R20  19469127.72425      1578.30525        30.10025
R19  21048682.92024     -2926.90024        24.60024
R21  22947619.91426      4141.05226        36.60026
R03  24186597.68725      2331.40225        34.40025
C45  22578905.46926     -1728.94726        40.90026
C38  39218539.59024       314.50024        29.20024
C36  25893794.91925     -3089.06125        35.10025
C35  22641613.65727      2230.23727        41.50027
C32  26929419.27125      1523.65025        30.30025
C30  25871478.96825     -2649.41425        31.50025
C29  21881693.73926      -989.96526        38.90026
C26  22795605.35127      1591.53727        42.20027
C13  38414608.94024      1286.80024        28.40024
C08  38667931.76824       808.10024        29.00024
C05  39815780.42924       407.30024        26.50024
> 2025 05 03 09 01 53.4155368  0 30                      
G05  23453260.38424        39.00024        28.40024
G16  22103557.56326      3213.16226        39.30026
G18  20736308.79025      1209.52625        34.70025
G20  25247702.01824     -2028.70024        28.40024
G23  24430382.03625      3679.57325        31.80025
G25  24067534.83025     -3213.47125        32.10025
G26  20698069.06326      1639.96826        39.20026
G27  24259527.61626      3617.10626        38.40026
G28  23146570.30126     -2932.06226        37.80026
G29  21901150.88725     -1948.50325        31.10025
G31  21981378.04726     -1876.02626        38.80026
R10  19448005.56425      1312.18125        30.70025
R02  24213358.37924      -502.70024        24.40024
R09  19988703.44625     -2306.85125        32.20025
R11  22566122.03726      4326.74626        37.20026
R20  19468881.61224      1576.95024        28.80024
R19  21049290.01824     -2931.70024        24.50024
R21  22946902.82825      4142.87625        33.70025
R03  24186240.35224      2330.45024        27.40024
C45  22579297.01626     -1728.41626        38.50026
C38  39218544.10524       314.55024        28.80024
C36  25894446.38626     -3088.76426        36.00026
C35  22641244.93027      2231.31227        43.00027
C32  26929182.15324      1526.50024        26.80024
C30  25872034.80124     -2646.85024        28.90024
C29  21881941.98526      -990.09626        36.30026
C26  22795361.93726      1592.25626        40.20026
C13  38414426.98324      1289.95024        26.70024
C08  38667850.84224       810.50024        24.10024
C05  39815757.06324       420.50024        26.40024
> 2025 05 03 09 01 54.4155370  0 30                      
G05  23453317.99725        41.81325        29.90025
G16  22103000.00326      3212.69026        40.70026
G18  20736129.56826      1209.17626        38.80026
G20  25248163.15224     -2029.55024        26.40024
G23  24429741.73325      3679.67025        29.90025
G25  24068204.92025     -3218.34825        35.10025
G26  20697816.39127      1639.41927        43.60027
G27  24258897.80626      3616.82126        38.30026
G28  23147184.62926     -2932.32726        40.20026
G29  21901579.34325     -1946.15125        34.90025
G31  21981793.01327     -1876.65127        41.60027
R10  19447808.95326      1311.59926        37.50026
R02  24213510.72724      -503.65024        23.80024
R09  19989181.66927     -2307.86127        41.70027
R11  22565375.60726      4326.38626        36.00026
R20  19468668.21325      1578.25225        31.60025
R19  21049888.45724     -2930.75024        24.10024
R21  22946182.78026      4142.08626        38.10026
R03  24185861.16825      2332.50725        30.20025
C45  22579689.49827     -1728.64527        42.80027
C38  39218545.95725       319.22825        29.90025
C36  25895101.78526     -3088.08726        40.00026
C35  22640876.83827      2230.98827        42.70027
C32  26928959.76024      1525.25024        28.80024
C30  25872611.65524     -2645.80224        29.40024
C29  21882192.96427      -990.13127        41.80027
C26  22795109.26626      1592.24526        36.90026
C13  38414237.86825      1287.65825        30.30025
C08  38667744.46924       811.45024        27.30024
C05  39815737.33024       426.25024        26.30024
> 2025 05 03 09 01 55.4155372  0 30                      
G05  23453365.42825        42.85925        31.10025
G16  22102451.14727      3212.65327        44.10027
G18  20735964.74626      1209.15526        40.20026
G20  25248582.62524     -2032.10024        28.10024
G23  24429103.83925      3681.48925        33.80025
G25  24068877.41825     -3218.00325        34.50025
G26  20697561.33227      1639.08827        45.00027
G27  24258270.40427      3617.02627        41.50027
G28  23147804.96426     -2932.11526        39.40026
G29  21902021.60125     -1944.85725        35.30025
G31  21982215.78427     -1876.76327        42.90027
R10  19447635.43826      1311.11126        39.00026
R02  24213675.67724      -504.20024        24.10024
R09  19989676.39027     -2307.92327        44.20027
R11  22564627.38926      4326.51426        40.40026
R20  19468433.53925      1578.09225        34.80025
R19  21050506.99324     -2930.00024        23.50024
R21  22945484.62726      4142.50526        36.80026
R03  24185488.89024      2332.05024        28.50024
C45  22580080.19127     -1728.52927        44.00027
C38  39218538.52624       314.85024        28.40024
C36  25895752.09926     -3087.61726        39.30026
C35  22640509.65727      2231.07427        44.60027
C32  26928750.86925      1528.35525        30.50025
C30  25873169.63325     -2646.01225        33.20025
C29  21882441.55627      -989.90427        42.50027
C26  22794867.09726      1591.33226        41.40026
C13  38414049.06324      1289.05024        29.10024
C08  38667635.70824       811.55024        26.70024
C05  39815729.59924       414.30024        26.50024
> 2025 05 03 09 01 56.4155375  0 30                      
G05  23453454.49824        34.22924        29.40024
G16  22101934.63627      3212.68327        42.50027
G18  20735821.17726      1208.49026        41.20026
G20  25249058.42825     -2030.18325        30.10025
G23  24428494.09226      3684.21426        35.80026
G25  24069582.86226     -3218.02826        35.50026
G26  20697339.81727      1639.15627        44.80027
G27  24257669.65226      3617.79226        41.40026
G28  23148449.54927     -2931.87327        42.40027
G29  21902470.12226     -1945.92026        37.60026
G31  21982659.50827     -1876.83227        44.70027
R10  19447474.18126      1310.57926        38.30026
R02  24213857.08324      -506.20024        23.80024
R09  19990204.35627     -2308.45627        42.10027
R11  22563906.71926      4326.81826        40.80026
R20  19468208.72725      1578.02325        31.60025
R19  21051135.68924     -2926.45024        23.50024
R21  22944791.23926      4142.84526        40.40026
R03  24185161.24825      2330.90525        30.40025
C45  22580503.82927     -1728.67827        43.30027
C38  39218585.02625       319.07425        30.30025
C36  25896436.85725     -3087.23725        35.30025
C35  22640170.02327      2231.05727        44.70027
C32  26928526.65625      1529.19625        30.40025
C30  25873760.25625     -2645.48825        32.40025
C29  21882720.39527      -990.35127        41.70027
C26  22794652.47727      1591.47127        42.80027
C13  38413893.50224      1291.45024        29.00024
C08  38667587.77324       811.85024        28.30024
C05  39815740.42324       418.90024        26.70024
> 2025 05 03 09 01 57.4155377  0 31                      
G05  23453493.30626        35.18126        38.90026
G16  22101379.25626      3211.17726        39.00026
G18  20735652.22926      1208.29926        37.80026
G20  25249514.54725     -2031.81825        30.30025
G23  24427855.37025      3683.36225        34.90025
G25  24070259.92825     -3216.98625        32.30025
G26  20697087.82627      1636.42327        43.10027
G27  24257040.82226      3615.49726        39.80026
G28  23149072.65226     -2933.87326        36.90026
G29  21902898.36127     -1946.09227        42.70027
G31  21983077.25426     -1879.18426        41.10026
R10  19447286.04626      1307.51626        36.70026
R02  24214016.70724      -507.55024        23.60024
R09  19990685.05926     -2309.84426        35.60026
R11  22563153.47626      4325.42626        40.10026
R20  19467989.41324      1575.50024        28.50024
R19  21051744.40324     -2924.00024        23.50024
R21  22944079.06725      4141.44425        35.30025
R03  24184760.56124      2332.95024        28.00024
C45  22580897.59226     -1729.41526        39.60026
C38  39218564.77526       316.03826        37.80026
C36  25897090.83925     -3086.80725        34.60025
C35  22639800.81427      2230.07227        42.10027
C32  26928288.15624      1526.40024        28.70024
C30  25874334.79325     -2648.14825        34.10025
C29  21882971.15627      -991.70027        43.80027
C26  22794407.38227      1588.79027        45.60027
C24  26153043.14723      3459.45023        18.50023
C13  38413699.07226      1288.01826        37.60026
C08  38667468.89025       810.01725        35.10025
C05  39815724.37024       415.20024        27.20024
> 2025 05 03 09 01 58.4155379  0 30                      
G05  23453550.89825        32.46225        34.70025
G16  22100825.27126      3208.67926        39.40026
G18  20735483.47725      1204.72525        30.30025
G20  25249950.17725     -2035.12325        32.20025
G23  24427212.94626      3680.55926        40.00026
G25  24070926.09825     -3218.45125        35.10025
G26  20696834.83327      1634.88227        42.70027
G27  24256414.28726      3614.04226        40.00026
G28  23149695.95225     -2934.60525        34.40025
G29  21903332.19226     -1949.31326        40.80026
G31  21983496.39626     -1879.69226        39.60026
R10  19447105.60226      1306.04126        37.80026
R02  24214166.93523      -506.80023        22.90023
R09  19991192.33925     -2310.39525        34.20025
R11  22562418.71626      4321.27426        37.90026
R20  19467771.79624      1570.85024        27.80024
R19  21052365.90425     -2935.95025        30.90025
R21  22943361.39526      4137.97226        36.50026
R03  24184393.64625      2326.66925        31.20025
C45  22581291.25125     -1729.30725        32.00025
C38  39218562.40825       312.99425        34.60025
C36  25897741.72026     -3089.52126        39.30026
C35  22639434.79926      2225.93526        36.90026
C32  26928083.12924      1524.25024        28.00024
C30  25874909.22725     -2647.35025        32.20025
C29  21883220.91526      -994.07126        40.80026
C26  22794161.28427      1587.21627        45.40027
C24  26152433.10123      3457.75023        19.10023
C13  38413509.63425      1285.07425        35.30025
C08  38667381.68225       806.44425        32.80025
> 2025 05 03 09 01 59.4155381  0 30                      
G05  23453600.96225        26.73025        33.10025
G16  22100277.54926      3204.95726        40.00026
G18  20735314.39326      1199.44426        36.40026
G20  25250416.05324     -2038.35024        27.70024
G23  24426571.38926      3671.18126        40.40026
G25  24071596.43326     -3227.03926        37.90026
G26  20696584.50527      1629.40127        43.50027
G27  24255781.72426      3609.01526        36.30026
G28  23150315.92225     -2937.50525        31.20025
G29  21903776.78326     -1951.85926        35.60026
G31  21983916.10427     -1885.99427        41.50027
R10  19446913.73426      1299.73026        39.80026
R09  19991677.10226     -2318.43526        39.20026
R11  22561656.94226      4319.06326        40.50026
R20  19467507.97725      1567.90525        30.00025
R19  21052991.27024     -2944.25024        23.90024
R21  22942667.37426      4133.95026        35.50026
R03  24183992.82225      2324.92025        32.10025
C45  22581679.48126     -1736.77126        36.20026
C38  39218566.60425       313.31625        31.80025
C36  25898395.56626     -3096.35426        39.60026
C35  22639066.35326      2221.99126        38.10026
C32  26927862.18125      1517.30625        29.80025
C30  25875478.83125     -2653.41825        31.50025
C29  21883473.63926      -998.55826        39.80026
C26  22793916.05327      1583.42727        43.70027
C24  26151827.21923      3455.95023        19.90023
C13  38413321.06325      1277.90025        31.80025
C08  38667289.34524       802.60024        28.70024
C05  39815698.01825       399.85025        33.10025
> 2025 05 03 09 02 00.4155382  0 30                      
G05  23453663.82725        25.36925        34.10025
G16  22099729.13726      3199.86526        37.40026
G18  20735146.71726      1194.44326        36.60026
G20  25250838.06925     -2044.18325        31.70025
G23  24425931.84026      3669.30826        41.40026
G25  24072273.57326     -3228.96426        39.10026
G26  20696334.68627      1625.40827        44.10027
G27  24255159.56326      3605.28826        39.10026
G28  23150937.30025     -2943.05825        33.00025
G29  21904201.79726     -1958.77326        36.00026
G31  21984332.42427     -1890.13527        44.00027
R10  19446730.17026      1295.24626        36.40026
R09  19992170.16926     -2320.86126        39.60026
R11  22560917.56326      4313.29426        39.00026
R20  19467270.15024      1564.26324        29.40024
R19  21053621.34224     -2949.30024        27.40024
R21  22941948.98026      4130.55026        38.20026
R03  24183643.17325      2318.16925        31.70025
C45  22582081.71125     -1741.51025        34.80025
C38  39218569.51026       306.03926        37.20026
C36  25899050.52126     -3097.43026        41.40026
C35  22638701.11427      2218.73227        42.80027
C32  26927590.77824      1517.45024        27.90024
C30  25876052.54225     -2655.11125        33.20025
C29  21883729.27026     -1002.10826        40.90026
C26  22793674.02927      1579.06427        44.10027
C24  26151217.05023      3457.75023        19.30023
C13  38413147.09225      1275.68825        33.90025
C08  38667186.12525       797.53525        30.20025
C05  39815680.23925       366.55025        34.80025
> 2025 05 03 09 02 01.4155385  0 31                      
G05  23453719.27726        22.40626        36.10026
G16  22099179.00626      3197.84326        38.20026
G18  20734980.62025      1192.03825        34.80025
G20  25251285.04825     -2044.96125        31.40025
G23  24425294.17026      3668.05226        39.80026
G25  24072948.69326     -3231.33726        39.00026
G26  20696087.34627      1623.10527        46.80027
G27  24254533.58527      3603.01527        41.70027
G28  23151550.96425     -2945.55825        34.40025
G29  21904635.28526     -1959.84126        39.80026
G31  21984753.62126     -1892.29826        39.60026
R10  19446550.88225      1292.93125        35.30025
R02  24214710.35423      -527.25023        19.20023
R09  19992673.20926     -2322.05726        37.00026
R11  22560160.57526      4310.99626        40.10026
R20  19467049.19124      1561.20024        28.80024
R19  21054205.62624     -2945.95024        27.60024
R21  22941234.26326      4128.09126        35.60026
R03  24183279.51325      2317.39325        35.10025
C45  22582474.72725     -1743.16025        34.90025
C38  39218565.60126       303.71426        35.70026
C36  25899708.55426     -3099.89126        39.10026
C35  22638336.25527      2216.43327        44.20027
C32  26927388.10625      1513.51325        29.70025
C30  25876622.43625     -2659.24025        33.40025
C29  21883977.48627     -1004.81127        42.70027
C26  22793429.98627      1575.51027        45.40027
C24  26150615.35523      3454.10023        19.40023
C13  38412957.01225      1274.90325        33.40025
C08  38667097.37425       798.04825        31.20025
C05  39815667.03626       389.25026        35.60026
> 2025 05 03 09 02 02.4155387  0 30                      
G05  23453772.49726        16.25026        36.10026
G16  22098628.14325      3193.60725        32.10025
G18  20734810.19526      1190.81826        36.90026
G20  25251743.28725     -2045.83125        30.30025
G23  24424652.77027      3664.93027        43.20027
G25  24073625.18127     -3235.64327        41.60027
G26  20695840.77327      1619.32627        46.90027
G27  24253908.67426      3600.93826        40.50026
G28  23152167.79326     -2949.43926        37.80026
G29  21905059.34826     -1962.48026        39.00026
G31  21985175.88526     -1895.49426        36.40026
R10  19446378.95726      1289.58526        37.10026
R09  19993167.12426     -2328.10926        38.70026
R11  22559420.84326      4308.56526        38.50026
R20  19466778.33524      1558.05024        24.30024
R19  21054807.46524     -2951.70024        28.40024
R21  22940536.20325      4125.59525        35.40025
R03  24182895.03625      2311.99925        33.90025
C45  22582870.31026     -1747.38726        36.40026
C38  39218572.35325       301.26925        35.30025
C36  25900361.35827     -3103.99027        42.70027
C35  22637970.66426      2212.82726        40.40026
C32  26927131.64025      1507.69425        30.90025
C30  25877193.39725     -2665.29225        34.20025
C29  21884232.46727     -1008.18527        43.50027
C26  22793186.41127      1572.56727        45.90027
C24  26150009.63023      3454.80023        19.10023
C13  38412777.29325      1270.08025        34.40025
C08  38667006.09425       796.26425        29.70025
C05  39815646.20726       385.30026        35.80026
> 2025 05 03 09 02 03.4155390  0 30                      
G05  23453857.14526        12.48326        36.50026
G16  22098115.30625      3190.03325        33.50025
G18  20734683.19026      1187.48226        35.60026
G20  25252221.86325     -2050.85425        30.90025
G23  24424046.39727      3659.58127        41.80027
G25  24074329.20126     -3237.99426        40.60026
G26  20695621.73227      1614.52027        45.40027
G27  24253316.99126      3595.87726        40.30026
G28  23152824.74625     -2953.05125        34.10025
G29  21905525.63326     -1964.89826        36.90026
G31  21985620.58426     -1900.03726        39.90026
R10  19446217.47726      1283.97726        39.50026
R09  19993690.96926     -2332.52426        38.80026
R11  22558700.25026      4304.35426        37.70026
R20  19466621.65124      1554.30024        26.30024
R19  21055449.42824     -2958.15024        28.30024
R21  22939836.29526      4120.80426        38.00026
R03  24182551.88025      2307.15725        32.40025
C45  22583296.42226     -1751.22826        37.60026
C38  39218603.03925       294.60325        34.20025
C36  25901047.09126     -3107.39426        39.50026
C35  22637633.80527      2209.06327        41.80027
C32  26926927.88924      1504.80024        27.00024
C30  25877793.98925     -2668.65825        33.80025
C29  21884515.27826     -1012.11226        40.70026
C26  22792975.76427      1567.61327        42.80027
C24  26149437.73423      3452.90023        19.20023
C13  38412614.91325      1266.95625        30.50025
C08  38666942.04625       788.86925        30.20025
C05  39815671.49725       388.35025        34.90025
> 2025 05 03 09 02 04.4155391  0 30                      
G05  23453911.52726        11.80026        36.00026
G16  22097561.70825      3191.03225        30.80025
G18  20734516.02525      1182.74925        35.40025
G20  25252671.97125     -2057.79425        33.70025
G23  24423410.35726      3660.69926        39.20026
G25  24075010.74925     -3239.53325        35.40025
G26  20695374.82227      1613.87427        43.40027
G27  24252686.64626      3596.00126        39.70026
G28  23153447.53425     -2952.51125        32.60025
G29  21905957.15326     -1967.85126        36.70026
G31  21986045.50926     -1900.47626        37.80026
R10  19446035.32226      1283.03026        38.10026
R09  19994190.54226     -2333.11526        37.10026
R11  22557968.57525      4302.75725        35.00025
R20  19466379.23824      1550.59424        29.40024
R19  21056054.52924     -2956.70024        28.30024
R21  22939121.10926      4119.49726        36.90026
R03  24182185.35325      2304.14525        33.90025
C45  22583691.36826     -1751.69226        36.90026
C38  39218608.85425       296.97925        34.80025
C36  25901708.55226     -3109.35026        37.90026
C35  22637272.37427      2207.27127        41.70027
C32  26926708.55925      1500.62925        29.90025
C30  25878362.21525     -2659.21525        32.90025
C29  21884768.12226     -1013.32426        40.80026
C26  22792734.55027      1566.11027        42.60027
C24  26148831.97223      3452.80023        19.10023
C13  38412439.95325      1266.36125        34.30025
C08  38666856.42425       787.02725        31.10025
C05  39815658.12525       363.05025        32.50025
> 2025 05 03 09 02 05.4155394  0 29                      
G05  23453982.46425         1.48625        34.40025
G16  22097026.16625      3183.38825        35.00025
G18  20734347.72826      1178.95026        37.50026
G20  25253125.44425     -2061.75025        30.50025
G23  24422777.38226      3656.26426        39.80026
G25  24075690.26526     -3246.76426        37.40026
G26  20695125.88127      1608.12427        46.10027
G27  24252064.46427      3589.72927        42.90027
G28  23154070.08926     -2958.53726        36.60026
G29  21906396.53626     -1972.88226        37.10026
G31  21986472.90027     -1906.85927        41.70027
R10  19445844.84026      1276.81326        36.60026
R02  24215396.24923      -530.70023        18.10023
R09  19994686.28526     -2338.51526        39.70026
R11  22557212.08626      4294.71626        37.90026
R20  19466150.98324      1544.25024        28.30024
R19  21056685.47824     -2963.65024        27.10024
R21  22938422.17926      4112.80026        37.00026
R03  24181813.19825      2299.79825        32.40025
C45  22584087.58026     -1756.75826        38.60026
C38  39218615.33626       291.25426        36.10026
C36  25902367.08325     -3112.89325        35.10025
C35  22636906.51427      2202.46327        43.10027
C32  26926497.09225      1498.93625        30.80025
C30  25878939.50125     -2671.00025        33.90025
C29  21885024.03227     -1019.01927        41.50027
C26  22792493.70327      1560.80327        42.70027
C13  38412257.86625      1260.70025        34.20025
C08  38666767.57224       783.80024        28.80024
> 2025 05 03 09 02 06.4155396  0 29                      
G05  23454032.82326         3.99126        35.70026
G16  22096484.43425      3180.20025        30.00025
G18  20734181.03726      1174.73326        37.70026
G20  25253568.23025     -2062.11925        30.60025
G23  24422139.41626      3653.97926        41.00026
G25  24076365.99026     -3246.38926        37.30026
G26  20694879.14527      1606.01127        43.70027
G27  24251444.78626      3586.61826        40.80026
G28  23154691.85225     -2962.04725        34.90025
G29  21906830.92826     -1976.21126        37.80026
G31  21986892.90227     -1910.68227        43.30027
R10  19445672.15326      1273.26126        36.00026
R09  19995201.62225     -2342.77225        34.70025
R11  22556469.79326      4295.50726        37.60026
R20  19465933.92624      1543.25024        28.50024
R19  21057297.94824     -2966.95024        27.30024
R21  22937726.65425      4109.20025        31.10025
R03  24181452.24125      2295.04625        33.90025
C45  22584484.49826     -1759.91626        39.50026
C38  39218622.52426       287.55826        36.60026
C36  25903026.61926     -3112.25026        39.00026
C35  22636543.45926      2199.61626        40.60026
C32  26926284.53325      1495.72425        30.90025
C30  25879516.29525     -2674.05125        32.10025
C29  21885280.64726     -1022.01026        41.20026
C26  22792254.76227      1558.48327        44.10027
C13  38412069.28925      1257.60725        33.50025
C08  38666680.62625       781.19625        31.30025
C05  39815634.92125       372.60025        33.90025
> 2025 05 03 09 02 07.4155398  0 31                      
G05  23454096.98625         5.29925        33.40025
G16  22095928.92625      3185.00925        31.60025
G18  20734020.35626      1173.53626        39.00026
G20  25254028.12025     -2061.89125        30.20025
G23  24421502.66526      3653.75026        39.60026
G25  24077033.63626     -3249.32126        36.40026
G26  20694637.22027      1607.50327        44.60027
G27  24250819.72625      3589.86325        34.80025
G28  23155314.52925     -2961.40125        35.10025
G29  21907266.53426     -1971.69626        37.20026
G31  21987314.71827     -1909.73927        42.30027
R10  19445504.27726      1275.23126        36.00026
R09  19995684.59526     -2343.86026        38.90026
R11  22555730.21225      4292.70925        30.60025
R20  19465687.20524      1544.15024        27.70024
R19  21057949.10524     -2962.65024        25.80024
R21  22937007.75925      4110.40025        32.00025
R03  24181052.02525      2301.22825        33.30025
C45  22584882.03126     -1759.68126        37.90026
C44  26314130.82623      3337.15023        19.00023
C38  39218621.03325       289.46425        33.40025
C36  25903681.97426     -3114.80026        39.10026
C35  22636182.21726      2202.06326        40.70026
C32  26926025.52024      1496.57424        29.30024
C30  25880100.59925     -2670.57025        35.00025
C29  21885536.97727     -1020.88527        41.60027
C26  22792014.33627      1559.22427        42.10027
C24  26147022.61224      3430.20024        24.40024
C13  38411893.31925      1258.44725        34.10025
C08  38666592.49425       782.17125        29.60025
C05  39815621.43825       353.60025        33.10025
> 2025 05 03 09 02 08.4155400  0 30                      
G05  23454160.74926        -5.63426        36.80026
G16  22095389.80725      3179.66625        30.10025
G18  20733852.97926      1171.06226        39.40026
G20  25254480.11425     -2060.98625        32.50025
G23  24420872.10926      3649.93926        41.00026
G25  24077720.96826     -3258.76226        39.50026
G26  20694390.09927      1604.05827        42.10027
G27  24250202.66125      3584.79725        34.70025
G28  23155935.90626     -2963.70226        35.50026
G29  21907703.83926     -1979.90426        40.00026
G31  21987734.63527     -1911.96527        41.80027
R10  19445300.92525      1271.96425        35.30025
R09  19996179.76026     -2347.57826        41.00026
R11  22555000.12525      4289.85925        29.60025
R20  19465458.67024      1538.15024        28.90024
R19  21058496.13324     -2971.35024        27.40024
R21  22936290.56326      4109.69226        35.60026
R03  24180696.97925      2292.84125        33.30025
C45  22585279.46327     -1764.78027        42.60027
C38  39218625.73725       287.25325        34.60025
C36  25904337.82727     -3118.55027        41.50027
C35  22635819.97527      2199.00327        42.10027
C32  26925807.17924      1488.60024        26.50024
C30  25880665.91525     -2677.92325        35.00025
C29  21885789.91026     -1023.53526        38.70026
C26  22791777.40827      1558.74927        43.60027
C24  26146421.13624      3430.15024        23.90024
C13  38411713.95125      1259.49125        34.10025
C08  38666498.56725       777.28325        31.80025
C05  39815613.85125       351.65025        34.30025
> 2025 05 03 09 02 09.4155402  0 30                      
G05  23454209.26425        -6.17525        35.30025
G16  22094849.82925      3173.43025        34.30025
G18  20733694.33726      1166.08526        38.90026
G20  25254939.04525     -2070.43325        30.50025
G23  24420238.59627      3638.81227        43.40027
G25  24078397.84726     -3252.45026        39.50026
G26  20694143.91827      1599.60327        43.30027
G27  24249574.84425      3584.00025        33.40025
G28  23156560.92225     -2969.48825        35.30025
G29  21908138.18726     -1982.08326        36.70026
G31  21988163.88626     -1917.23826        40.20026
R10  19445150.37826      1267.10226        37.70026
R09  19996698.04926     -2351.77026        39.20026
R11  22554222.71224      4289.50024        28.90024
R20  19465248.46425      1533.68825        31.50025
R19  21059139.13724     -2972.55024        28.00024
R21  22935586.89925      4104.26325        32.90025
R03  24180329.98125      2286.98425        33.80025
C45  22585679.03526     -1767.77526        40.70026
C38  39218631.98126       279.77626        35.90026
C36  25904996.12026     -3122.13526        40.50026
C35  22635458.37427      2193.88627        42.10027
C32  26925575.98725      1484.52025        31.20025
C30  25881233.67025     -2682.83025        35.10025
C29  21886051.57726     -1027.47226        40.30026
C26  22791539.32127      1552.59027        43.00027
C24  26145825.99724      3429.05024        23.90024
C13  38411530.12626      1253.47226        36.70026
C08  38666407.67825       771.58225        31.70025
C05  39815597.31125       361.70025        33.40025
> 2025 05 03 09 02 10.4155404  0 30                      
G05  23454272.68025        -4.91425        35.00025
G16  22094297.77125      3175.46725        34.50025
G18  20733534.40826      1165.14626        36.90026
G20  25255405.38225     -2069.33125        31.20025
G23  24419602.29627      3645.05027        44.10027
G25  24079074.63926     -3256.24126        38.50026
G26  20693901.54527      1597.85427        42.80027
G27  24248958.93025      3581.80025        33.10025
G28  23157185.25026     -2966.56826        37.00026
G29  21908576.04426     -1978.45026        40.70026
G31  21988588.25226     -1919.94826        40.70026
R10  19444964.66626      1266.15626        37.20026
R09  19997180.87526     -2352.26826        38.40026
R11  22553522.85624      4287.95024        28.30024
R20  19465019.88225      1534.40425        29.90025
R19  21059731.98624     -2972.85024        27.10024
R21  22934882.84625      4104.20025        30.10025
R03  24179966.79325      2286.26925        34.40025
C45  22586077.91926     -1768.03226        40.70026
C38  39218641.73525       278.19125        33.70025
C36  25905656.42326     -3120.29226        40.20026
C35  22635096.08426      2193.33526        39.60026
C32  26925347.10525      1485.31125        30.30025
C30  25881824.42125     -2680.69425        34.40025
C29  21886309.25926     -1028.16326        40.80026
C26  22791300.24627      1551.27727        45.50027
C24  26145224.47323      3428.80023        23.30023
C13  38411348.61226      1253.40026        35.80026
C08  38666314.30325       773.60425        32.70025
C05  39815586.97825       373.85025        35.20025
> 2025 05 03 09 02 11.4155406  0 30                      
G05  23454337.84925        -8.33025        34.30025
G16  22093752.56325      3172.24725        34.60025
G18  20733369.33726      1162.14026        40.10026
G20  25255840.79524     -2076.20024        27.40024
G23  24418969.54927      3644.20427        41.80027
G25  24079754.68226     -3258.00026        39.30026
G26  20693654.03127      1592.45027        43.80027
G27  24248340.27325      3569.88425        31.00025
G28  23157811.33026     -2973.25626        38.10026
G29  21909017.15326     -1984.30226        40.20026
G31  21989012.87326     -1926.49926        39.70026
R10  19444784.00625      1259.71725        35.00025
R09  19997677.74526     -2356.21226        40.60026
R11  22552770.79125      4277.84125        31.00025
R20  19464808.34324      1527.50024        27.50024
R19  21060400.93724     -2979.60024        26.70024
R21  22934167.95625      4097.56125        31.90025
R03  24179606.25725      2284.60625        33.80025
C45  22586478.55626     -1771.90726        39.70026
C38  39218646.34626       275.69426        36.30026
C36  25906316.68026     -3124.79426        40.70026
C35  22634734.04927      2189.24827        42.20027
C32  26925139.46324      1478.65024        26.00024
C30  25882383.34825     -2685.69525        33.40025
C29  21886565.69527     -1032.01627        42.80027
C26  22791062.92527      1545.28827        45.30027
C24  26144632.79724      3424.20024        24.10024
C13  38411171.24926      1248.65026        37.30026
C08  38666233.77325       769.85925        32.20025
C05  39815580.19726       362.10026        36.10026
> 2025 05 03 09 02 12.4155408  0 29                      
G05  23454402.33525       -12.79425        34.30025
G16  22093205.17326      3167.20526        38.50026
G18  20733212.87626      1159.51126        39.70026
G20  25256333.08524     -2078.15024        26.50024
G23  24418335.81827      3644.03527        42.50027
G25  24080442.73726     -3258.90026        36.70026
G26  20693413.02827      1590.03627        44.10027
G27  24247721.53224      3576.45024        28.70024
G28  23158440.32626     -2974.06426        38.30026
G29  21909450.98326     -1988.10326        37.70026
G31  21989438.90827     -1924.40027        41.50027
R10  19444606.25926      1257.65626        37.20026
R09  19998188.32326     -2357.22826        39.70026
R11  22552023.73925      4283.40025        35.30025
R20  19464564.04324      1526.00024        27.20024
R19  21061011.34523     -2976.30023        23.40023
R21  22933477.86425      4097.53725        33.60025
R03  24179287.30824      2279.80024        27.40024
C45  22586878.21027     -1773.50027        42.10027
C38  39218661.36625       275.15025        31.20025
C36  25906979.55126     -3123.60026        38.20026
C35  22634375.82826      2186.06326        41.20026
C32  26924910.45324      1478.70024        24.00024
C30  25882967.07525     -2686.98125        31.80025
C29  21886823.54827     -1034.58027        41.70027
C26  22790822.52227      1543.28327        43.50027
C13  38410989.00626      1244.97826        36.70026
C08  38666134.57225       765.60925        31.10025
C05  39815573.93225       383.55025        34.70025
> 2025 05 03 09 02 13.4155410  0 26                      
G05  23454477.31925       -17.80025        30.60025
G16  22092666.18227      3165.83127        41.90027
G18  20733047.72626      1158.49426        38.20026
G23  24417710.48726      3639.62126        41.30026
G25  24081112.50926     -3260.19126        38.40026
G26  20693171.13227      1589.47827        43.50027
G27  24247095.00225      3572.48925        31.90025
G28  23159060.93225     -2977.96525        35.10025
G29  21909894.11225     -1987.34325        31.50025
G31  21989862.25126     -1926.27926        40.80026
R10  19444430.61726      1255.66026        38.30026
R09  19998686.31426     -2359.43326        38.00026
R11  22551262.00225      4279.53625        35.00025
R20  19464318.24924      1527.10024        27.20024
R21  22932761.39626      4095.49926        36.00026
R03  24178887.72124      2278.85024        26.30024
C45  22587281.16726     -1775.79326        37.60026
C38  39218674.59324       273.90024        28.50024
C36  25907638.83126     -3127.66026        38.80026
C35  22634013.11526      2185.11726        39.00026
C30  25883554.10525     -2687.90725        29.50025
C29  21887090.39925     -1035.46425        31.60025
C26  22790589.91927      1542.45427        46.40027
C13  38410816.66125      1240.51725        31.40025
C08  38666062.65824       769.85024        25.90024
C05  39815558.67825       370.80025        32.90025
> 2025 05 03 09 02 14.4155411  0 28                      
G05  23454493.94224       -19.70024        27.80024
G16  22092089.81526      3166.60426        41.40026
G18  20732851.79626      1154.73026        36.20026
G20  25257236.23023     -2078.80023        22.10023
G23  24417037.88726      3639.60726        40.30026
G25  24081768.58926     -3263.04726        36.50026
G26  20692898.75527      1587.33327        43.50027
G27  24246444.58624      3573.66024        29.10024
G28  23159662.15026     -2977.67626        37.10026
G29  21910321.15125     -1992.89025        29.50025
G31  21990257.81226     -1929.36626        40.80026
R10  19444230.78926      1253.70926        36.60026
R02  24216872.15922      -557.80022        16.10022
R09  19999163.41826     -2364.69926        39.10026
R11  22550499.76426      4279.38326        39.70026
R20  19464110.62724      1522.80024        25.80024
R21  22932045.62525      4096.61225        30.60025
R03  24178484.33424      2277.50024        27.50024
C45  22587650.94526     -1777.58226        39.80026
C38  39218654.04124       273.40024        25.70024
C36  25908271.52726     -3128.20026        38.40026
C35  22633626.81727      2183.34727        43.40027
C30  25884107.65524     -2693.54924        29.40024
C29  21887326.76924     -1036.90024        28.40024
C26  22790321.73927      1540.70527        43.80027
C24  26142813.55723      3421.55023        22.00023
C13  38410609.93824      1240.67824        29.30024
C08  38665944.67424       762.45024        24.60024
> 2025 05 03 09 02 15.4155413  0 29                      
G05  23454582.77025       -19.22025        30.00025
G16  22091550.27826      3165.90926        41.00026
G18  20732698.09126      1153.80426        39.00026
G20  25257669.51924     -2080.50024        26.90024
G23  24416413.20927      3636.76227        42.90027
G25  24082451.90526     -3263.22726        37.10026
G26  20692657.51127      1586.64127        42.70027
G28  23160290.00526     -2982.22726        37.00026
G29  21910746.04624     -1989.47924        29.00024
G31  21990694.09926     -1928.42426        41.10026
R10  19444047.40626      1253.44226        37.70026
R09  19999655.16726     -2364.75726        38.30026
R11  22549753.37027      4280.82027        41.90027
R20  19463880.47625      1519.73825        30.40025
R19  21062789.97423     -2980.75023        23.00023
R21  22931406.55724      4093.50024        28.50024
R03  24178118.97625      2273.15925        31.40025
C45  22588051.85727     -1780.61927        43.00027
C38  39218649.63425       271.00025        29.90025
C36  25908929.06126     -3128.91226        37.50026
C35  22633266.85527      2183.92027        41.90027
C32  26924247.87123      1479.70023        22.60023
C30  25884689.64225     -2694.72125        30.00025
C29  21887584.68025     -1037.15725        33.40025
C26  22790086.49127      1540.75927        43.00027
C24  26142222.15624      3412.80024        28.80024
C13  38410441.24524      1245.95024        25.10024
C08  38665864.11924       764.75024        25.20024
C05  39815516.03225       362.20025        35.00025
> 2025 05 03 09 02 16.4155415  0 29                      
G05  23454624.96525       -26.15025        35.30025
G16  22091004.88026      3160.60026        41.20026
G18  20732539.12626      1148.96426        37.80026
G20  25258094.84923     -2089.80023        22.80023
G23  24415776.97427      3630.67627        43.20027
G25  24083121.56626     -3270.29526        39.20026
G26  20692415.20326      1582.40626        41.30026
G28  23160915.59626     -2984.26626        36.50026
G29  21911198.35725     -1996.20125        34.20025
G31  21991120.62826     -1932.94226        40.60026
R10  19443886.34225      1247.74325        35.00025
R09  20000162.34026     -2371.06926        41.40026
R11  22549016.10527      4274.93227        43.40027
R20  19463638.16824      1518.85024        28.90024
R19  21063396.67824     -2985.15024        25.40024
R21  22930649.50625      4088.15925        31.20025
R03  24177760.94925      2266.58225        31.60025
C45  22588455.30227     -1785.01927        41.90027
C38  39218651.95725       264.76725        35.40025
C36  25909594.22626     -3136.33926        38.80026
C35  22632909.12727      2179.05027        42.30027
C32  26923974.98424      1465.75024        28.70024
C30  25885245.98125     -2694.02125        33.10025
C29  21887830.43526     -1043.75026        40.20026
C26  22789853.47726      1534.79326        40.30026
C24  26141613.80224      3414.05024        28.10024
C13  38410258.29624      1236.35024        26.10024
C08  38665764.21325       760.63725        32.60025
C05  39815504.86425       348.90025        34.70025
> 2025 05 03 09 02 17.4155417  0 29                      
G05  23454687.78026       -30.57626        38.90026
G16  22090463.91226      3157.94726        39.70026
G18  20732381.59326      1145.96226        39.30026
G23  24415152.06426      3629.41526        40.20026
G25  24083815.74426     -3273.15726        40.40026
G26  20692175.52727      1579.33527        42.20027
G28  23161551.31425     -2985.39125        35.10025
G29  21911616.12625     -1997.94525        34.30025
G31  21991547.09126     -1937.30326        38.80026
R10  19443703.92625      1244.68825        33.40025
R02  24217255.46523      -576.70023        20.70023
R09  20000679.34026     -2371.80126        36.40026
R11  22548275.17627      4271.56327        43.50027
R20  19463421.57624      1512.35024        27.60024
R19  21064051.58324     -2990.20024        25.80024
R21  22930069.86525      4084.92325        30.80025
R03  24177368.07925      2263.73125        31.30025
C45  22588856.58226     -1787.58726        38.60026
C38  39218659.60925       253.43425        34.90025
C36  25910254.52626     -3138.85026        39.50026
C35  22632548.93526      2176.44226        40.70026
C32  26923760.19125      1464.43925        30.20025
C30  25885813.34726     -2699.69926        35.70026
C29  21888089.91326     -1047.69626        40.90026
C26  22789617.99826      1532.28426        41.20026
C24  26141016.17325      3410.64525        31.60025
C13  38410079.77724      1231.65024        29.00024
C08  38665678.33025       755.68125        32.50025
C05  39815502.32425       346.65025        35.40025
> 2025 05 03 09 02 18.4155419  0 29                      
G05  23454751.77726       -32.72726        36.10026
G16  22089925.62626      3151.56926        39.10026
G18  20732224.04326      1140.41426        38.20026
G20  25259005.31823     -2093.10023        22.80023
G23  24414518.14426      3626.11626        40.00026
G25  24084500.01126     -3273.17126        36.90026
G26  20691932.53727      1573.45427        43.10027
G27  24243992.89624      3557.50024        27.60024
G28  23162169.32725     -2994.85425        35.40025
G29  21912061.45926     -2003.75026        38.10026
G31  21991972.93726     -1943.08926        39.50026
R10  19443537.38326      1237.80326        35.70026
R09  20001179.53526     -2378.55026        39.30026
R11  22547534.23027      4266.69027        44.90027
R20  19463191.47624      1505.15024        28.40024
R19  21064653.70724     -2996.50724        29.10024
R21  22929211.40125      4078.17025        30.00025
R03  24177031.85325      2262.30425        31.80025
C45  22589264.14126     -1791.70226        40.40026
C38  39218672.04226       259.70026        38.90026
C36  25910916.30926     -3145.04626        41.30026
C35  22632191.12426      2169.35726        39.20026
C32  26923544.48225      1460.29425        30.20025
C30  25886390.88826     -2699.95826        39.00026
C29  21888351.77326     -1050.78926        40.10026
C26  22789384.00127      1526.38527        42.60027
C24  26140419.42824      3404.10024        25.70024
C13  38409892.24825      1231.38425        34.20025
C08  38665593.63025       751.64625        33.50025
> 2025 05 03 09 02 19.4155421  0 30                      
G05  23454824.92326       -39.10926        36.90026
G16  22089393.49226      3147.89026        39.10026
G18  20732070.24725      1138.11525        35.40025
G20  25259461.59923     -2095.60023        22.30023
G23  24413883.18126      3623.25026        39.70026
G25  24085172.74226     -3277.24126        40.50026
G26  20691695.39827      1568.24327        43.30027
G27  24243351.03824      3552.80024        27.80024
G28  23162803.68525     -2995.19125        34.00025
G29  21912498.85326     -2009.65426        37.80026
G31  21992408.83326     -1947.30326        39.70026
R10  19443374.29325      1232.38725        34.10025
R09  20001685.58226     -2382.29926        39.30026
R11  22546799.73627      4261.81527        43.90027
R20  19462980.12024      1501.05024        27.70024
R19  21065282.06924     -3001.05024        28.30024
R21  22928552.45424      4075.55024        28.60024
R03  24176648.11525      2254.16525        31.20025
C45  22589666.16026     -1795.37226        38.90026
C38  39218683.73126       254.26126        37.60026
C36  25911581.54626     -3144.70026        39.10026
C35  22631837.96526      2166.24826        38.80026
C32  26923337.32224      1458.35024        29.20024
C30  25886982.37626     -2707.62726        37.00026
C29  21888616.18726     -1055.33826        40.00026
C26  22789149.26127      1522.13027        42.00027
C24  26139838.42724      3397.45024        26.30024
C13  38409711.77025      1228.01425        31.30025
C08  38665508.78625       744.45625        33.90025
C05  39815486.57325       344.70025        33.20025
> 2025 05 03 09 02 20.4155423  0 31                      
G05  23454895.13526       -40.05026        36.80026
G16  22088850.92826      3144.92626        39.40026
G18  20731917.11426      1135.45026        37.70026
G20  25259961.71423     -2100.00023        23.10023
G23  24413256.97526      3624.40026        40.40026
G25  24085867.72226     -3278.95526        38.00026
G26  20691460.42127      1566.67827        43.30027
G27  24242730.22824      3553.50024        27.70024
G28  23163436.90826     -2995.28826        39.60026
G29  21912945.60526     -2009.73226        36.80026
G31  21992833.40026     -1949.66826        37.90026
R10  19443189.08225      1230.47925        34.60025
R02  24217778.50223      -590.30023        20.50023
R09  20002191.99226     -2381.92826        38.00026
R11  22546064.10627      4258.95027        41.80027
R20  19462757.73524      1500.95024        28.60024
R19  21065911.69424     -3001.00024        27.60024
R21  22927821.62124      4072.35024        27.30024
R03  24176296.81925      2253.50925        30.40025
C45  22590068.84226     -1795.77526        40.70026
C38  39218695.48325       253.56625        33.00025
C36  25912245.64726     -3143.39426        41.10026
C35  22631477.67526      2164.54426        39.10026
C32  26923103.84425      1452.48925        32.50025
C30  25887552.04225     -2709.42925        34.70025
C29  21888880.06526     -1057.68826        38.90026
C26  22788917.28227      1519.78627        41.60027
C24  26139235.90524      3393.65024        26.60024
C13  38409540.65025      1223.62525        33.60025
C08  38665427.00325       741.68625        32.10025
C05  39815479.43925       332.75025        33.50025
> 2025 05 03 09 02 21.4155425  0 29                      
G05  23454957.02026       -47.19026        37.50026
G16  22088308.13126      3141.34126        39.20026
G18  20731756.55226      1128.95226        38.00026
G20  25260391.44324     -2106.35024        28.10024
G23  24412636.53227      3617.58627        42.20027
G25  24086553.47526     -3285.28326        36.90026
G26  20691216.81727      1562.29827        43.10027
G27  24242128.67224      3549.75024        28.40024
G28  23164063.90125     -3002.30125        35.40025
G29  21913390.62426     -2013.40826        38.80026
G31  21993261.33126     -1957.66326        38.70026
R10  19443022.22426      1225.73026        38.30026
R09  20002697.86926     -2390.26426        36.80026
R11  22545326.14427      4255.34527        45.60027
R20  19462537.51424      1491.90024        27.80024
R19  21066528.19524     -3006.62424        29.30024
R21  22927131.92525      4070.43125        29.50025
R03  24175965.97625      2248.37225        30.50025
C45  22590475.18826     -1803.15026        38.90026
C38  39218706.40326       249.11726        38.50026
C36  25912911.91326     -3154.15326        39.90026
C35  22631126.14626      2159.84826        39.10026
C32  26922881.22625      1450.44625        33.90025
C30  25888135.86526     -2711.63726        38.30026
C29  21889140.11226     -1062.39626        40.50026
C26  22788687.16927      1515.65127        42.70027
C24  26138643.94224      3391.30024        28.00024
C13  38409377.99026      1219.67026        35.70026
C08  38665348.58525       739.33425        34.00025
> 2025 05 03 09 02 22.4155426  0 29                      
G05  23454994.57626       -50.04026        37.70026
G16  22087743.70426      3139.89326        38.60026
G18  20731566.56626      1125.93126        38.80026
G20  25260848.70924     -2106.55024        25.50024
G23  24411966.27827      3610.10027        42.70027
G25  24087208.30326     -3290.75526        35.70026
G26  20690953.68127      1560.00527        42.50027
G28  23164670.76325     -3005.65925        35.40025
G29  21913800.22226     -2019.77726        37.70026
G31  21993669.43026     -1955.20026        40.00026
R10  19442818.74725      1221.35925        35.40025
R09  20003175.52026     -2393.15126        37.50026
R11  22544557.25827      4254.07127        45.60027
R20  19462252.19424      1491.65024        28.30024
R19  21067122.76524     -3009.70024        26.40024
R21  22926417.60224      4068.09324        29.00024
R03  24175554.14325      2243.12425        29.70025
C45  22590853.90826     -1806.16226        39.10026
C38  39218688.19825       244.32625        32.40025
C36  25913545.75626     -3155.45026        40.30026
C35  22630740.39526      2156.59726        40.90026
C32  26922642.37325      1446.36425        29.70025
C30  25888693.56125     -2713.13425        35.30025
C29  21889374.03226     -1064.59526        39.00026
C26  22788424.03326      1513.33626        41.30026
C24  26138027.35124      3392.45024        27.20024
C13  38409164.31925      1215.95025        31.60025
C08  38665231.74824       735.65024        28.10024
C05  39815440.97425       318.50025        31.70025
> 2025 05 03 09 02 23.4155428  0 28                      
G05  23455075.08625       -54.33725        34.70025
G16  22087203.94326      3140.40626        38.80026
G18  20731416.83526      1123.08126        39.90026
G20  25261281.47524     -2110.45024        26.90024
G23  24411343.17527      3607.00027        42.70027
G25  24087891.39626     -3294.15026        36.20026
G26  20690713.71326      1558.89626        41.20026
G28  23165300.79226     -3006.32226        36.50026
G29  21914253.07526     -2021.42326        38.40026
G31  21994095.90126     -1957.31526        37.90026
R10  19442642.63525      1221.00025        34.60025
R09  20003683.83426     -2397.50826        38.40026
R11  22543816.63727      4252.20327        44.10027
R20  19462055.69624      1488.55024        28.70024
R19  21067751.89524     -3014.45024        26.50024
R21  22925707.26024      4065.45024        26.90024
R03  24175233.23124      2245.05024        27.70024
C45  22591258.49426     -1808.75526        41.10026
C38  39218699.15625       242.57025        34.50025
C36  25914210.26226     -3159.80026        40.10026
C35  22630386.80626      2153.05426        40.50026
C32  26922414.39725      1438.06925        29.80025
C30  25889269.62826     -2719.35026        36.40026
C29  21889640.11426     -1066.05026        40.20026
C26  22788195.45726      1513.24226        41.20026
C24  26137436.62624      3387.65024        24.70024
C13  38408997.50125      1212.04525        33.00025
C08  38665151.86925       732.62025        31.70025
> 2025 05 03 09 02 24.4155430  0 30                      
G05  23455146.21326       -54.29426        35.80026
G16  22086668.59126      3135.57226        38.80026
G18  20731262.21926      1121.11426        38.70026
G20  25261737.23624     -2111.70024        28.00024
G23  24410718.48426      3607.66926        38.10026
G25  24088574.70026     -3296.98626        35.80026
G26  20690480.85127      1555.27027        42.50027
G27  24240252.89524      3541.25024        28.00024
G28  23165931.03326     -3010.38826        36.00026
G29  21914694.44626     -2024.90326        37.10026
G31  21994534.87426     -1961.72226        38.70026
R10  19442471.83025      1216.83425        33.00025
R09  20004192.95926     -2399.63426        36.60026
R11  22543090.61627      4249.89827        45.70027
R20  19461845.31824      1486.65024        27.20024
R19  21068351.25724     -3015.38924        29.30024
R21  22924970.44624      4057.05024        24.60024
R03  24174817.49525      2241.85425        29.70025
C45  22591667.48726     -1811.83726        39.30026
C38  39218717.22025       233.61725        30.60025
C36  25914876.47827     -3161.12827        42.20027
C35  22630034.92626      2153.02426        39.30026
C32  26922198.62324      1443.01624        29.40024
C30  25889851.60226     -2722.34726        37.50026
C29  21889903.10926     -1068.95426        40.20026
C26  22787963.79426      1508.85526        40.90026
C24  26136852.70723      3390.80023        22.70023
C13  38408828.79425      1212.01325        32.50025
C08  38665066.50525       732.30925        33.10025
C05  39815435.52125       320.95025        32.40025
> 2025 05 03 09 02 25.4155432  0 29                      
G05  23455215.18226       -61.35626        36.60026
G16  22086134.67726      3128.80526        39.10026
G18  20731109.94126      1114.02226        38.90026
G20  25262195.93525     -2118.29225        31.60025
G23  24410086.53826      3602.68026        40.00026
G25  24089267.23726     -3298.97526        36.80026
G26  20690246.13027      1548.44227        43.40027
G28  23166560.61326     -3016.45426        35.60026
G29  21915140.85326     -2030.31726        35.60026
G31  21994974.08626     -1968.64026        37.60026
R10  19442315.05526      1210.96526        35.60026
R09  20004698.42526     -2405.30526        36.20026
R11  22542352.84327      4243.41327        45.50027
R20  19461620.19024      1481.30024        27.10024
R19  21068953.25725     -3022.03925        29.70025
R21  22924299.52724      4058.95024        28.00024
R03  24174505.72725      2234.62625        32.50025
C45  22592074.32226     -1816.93826        39.70026
C38  39218731.62625       232.47625        32.30025
C36  25915545.63026     -3166.04226        40.70026
C35  22629677.88926      2146.83826        37.50026
C32  26921984.88724      1431.95024        28.70024
C30  25890432.31626     -2723.00926        36.80026
C29  21890169.34126     -1074.42826        40.00026
C26  22787738.06727      1501.69927        42.70027
C24  26136252.23824      3390.95024        26.20024
C13  38408647.13625      1205.14325        30.60025
C08  38664992.47225       727.70225        33.50025
C05  39815430.74025       329.75025        32.70025
> 2025 05 03 09 02 26.4155433  0 30                      
G05  23455248.37626       -62.74226        38.00026
G16  22085563.78926      3125.34626        38.80026
G18  20730930.28226      1113.30626        38.20026
G20  25262640.74425     -2119.16825        30.50025
G23  24409434.10726      3603.60026        41.40026
G25  24089927.89626     -3298.27226        35.60026
G26  20689984.32827      1545.26427        42.70027
G28  23167174.50526     -3014.92326        37.70026
G29  21915548.48826     -2028.00726        38.40026
G31  21995374.82526     -1969.87726        39.10026
