NMEA,$GPGSV,3,1,12,16,34,305,43,18,71,147,41,31,42,231,41,04,00,000,,1*69,1746262891922
NMEA,$GPGSV,3,2,12,05,21,057,,20,04,028,,23,12,145,,25,16,129,,1*66,1746262891922
NMEA,$GPGSV,3,3,12,26,62,297,,27,11,265,,28,27,204,,29,42,064,,1*69,1746262891922
NMEA,$GLGSV,3,1,09,74,73,307,38,66,05,355,23,73,53,158,45,75,20,324,41,1*73,1746262891922
NMEA,$GLGSV,3,2,09,84,69,237,34,83,38,035,24,85,17,226,42,67,04,044,32,1*7D,1746262891922
NMEA,$GLGSV,3,3,09,80,01,148,,1*45,1746262891922
NMEA,$GAGSV,3,1,12,03,04,308,,05,01,262,,10,35,195,,11,10,204,,7*71,1746262891922
NMEA,$GAGSV,3,2,12,12,57,176,,16,38,305,,23,06,122,,24,66,307,,7*7E,1746262891922
NMEA,$GAGSV,3,3,12,25,15,304,,26,07,037,,31,56,119,,33,52,059,,7*70,1746262891922
NMEA,$GBGSV,4,1,15,45,54,181,44,38,23,043,30,30,11,057,30,29,64,053,39,1*76,1746262891922
NMEA,$GBGSV,4,2,15,26,51,293,41,13,34,072,28,08,31,053,27,05,17,120,30,1*79,1746262891922
NMEA,$GBGSV,4,3,15,02,00,000,,24,07,319,,32,04,052,,35,50,241,,1*7B,1746262891922
NMEA,$GBGSV,4,4,15,36,10,154,,44,05,239,,60,04,101,,1*49,1746262891922
NMEA,$GNGSA,A,3,16,18,31,,,,,,,,,,1.3,1.0,0.8,1*36,1746262891941
NMEA,$GNGSA,A,3,05,08,13,26,29,30,38,45,,,,,1.3,1.0,0.8,4*36,1746262891941
NMEA,$GNVTG,304.0,T,300.7,M,1.9,N,3.5,K,A*30,1746262891941
NMEA,$GNDTM,P90,,0000.000026,S,00000.000000,E,0.978,W84*5C,1746262891941
NMEA,$GNRMC,090132.00,A,4503.492857,N,00741.498564,E,1.9,304.0,030525,3.3,E,A,V*51,1746262891941
NMEA,$GNGNS,090132.00,4503.492857,N,00741.498564,E,ANNANN,11,1.0,234.9,48.0,,,V*2D,1746262891941
NMEA,$GNGGA,090132.00,4503.492857,N,00741.498564,E,1,11,1.0,234.9,M,48.0,M,,*7D,1746262891941
NMEA,$GPGSV,3,1,12,16,34,305,37,18,71,147,40,31,42,231,43,04,00,000,,1*69,1746262893009
NMEA,$GPGSV,3,2,12,05,21,057,,20,04,028,,23,12,145,,25,16,129,,1*66,1746262893009
NMEA,$GPGSV,3,3,12,26,62,297,,27,11,265,,28,27,204,,29,42,064,,1*69,1746262893009
NMEA,$GLGSV,3,1,09,74,73,306,35,66,05,355,25,73,53,158,42,75,20,324,39,1*71,1746262893009
NMEA,$GLGSV,3,2,09,84,69,237,31,83,38,035,26,85,17,226,41,67,05,044,34,1*7E,1746262893009
NMEA,$GLGSV,3,3,09,80,01,148,,1*45,1746262893009
NMEA,$GAGSV,3,1,12,03,04,308,,05,01,262,,10,35,195,,11,10,204,,7*71,1746262893009
NMEA,$GAGSV,3,2,12,12,57,176,,16,38,305,,23,06,122,,24,66,307,,7*7E,1746262893009
NMEA,$GAGSV,3,3,12,25,15,304,,26,07,037,,31,56,119,,33,52,059,,7*70,1746262893009
NMEA,$GBGSV,4,1,15,45,54,181,43,38,23,043,28,36,10,154,34,30,11,057,31,1*7F,1746262893009
NMEA,$GBGSV,4,2,15,29,64,053,41,26,51,293,44,24,07,319,23,13,34,072,27,1*78,1746262893009
NMEA,$GBGSV,4,3,15,08,31,053,28,05,17,120,28,02,00,000,,32,04,052,,1*79,1746262893009
NMEA,$GBGSV,4,4,15,35,50,241,,44,05,239,,60,04,101,,1*49,1746262893009
NMEA,$GNGSA,A,3,16,18,31,,,,,,,,,,1.1,0.8,0.7,1*32,1746262893041
NMEA,$GNGSA,A,3,05,08,13,24,26,29,30,36,38,45,,,1.1,0.8,0.7,4*31,1746262893041
NMEA,$GNVTG,304.5,T,301.2,M,2.0,N,3.8,K,A*36,1746262893041
NMEA,$GNDTM,P90,,0000.000026,S,00000.000000,E,0.978,W84*5C,1746262893041
NMEA,$GNRMC,090133.00,A,4503.494140,N,00741.498705,E,2.0,304.5,030525,3.3,E,A,V*53,1746262893041
NMEA,$GNGNS,090133.00,4503.494140,N,00741.498705,E,ANNANN,13,0.8,230.9,48.0,,,V*2F,1746262893041
NMEA,$GNGGA,090133.00,4503.494140,N,00741.498705,E,1,12,0.8,230.9,M,48.0,M,,*7E,1746262893041
NMEA,$GPGSV,3,1,12,05,21,057,29,16,34,305,37,18,71,147,37,20,04,028,25,1*6A,1746262894005
NMEA,$GPGSV,3,2,12,23,12,145,35,25,16,129,34,26,62,297,38,27,11,265,34,1*6B,1746262894005
NMEA,$GPGSV,3,3,12,28,27,204,41,29,42,064,35,31,42,231,41,04,00,000,,1*67,1746262894005
NMEA,$GLGSV,3,1,09,74,73,306,35,66,05,355,25,73,53,158,40,75,20,324,37,1*7D,1746262894005
NMEA,$GLGSV,3,2,09,84,69,237,28,83,38,035,25,85,17,226,38,67,05,044,30,1*7F,1746262894005
NMEA,$GLGSV,3,3,09,80,01,148,,1*45,1746262894005
NMEA,$GAGSV,3,1,12,03,04,308,,05,01,262,,10,35,195,,11,10,204,,7*71,1746262894005
NMEA,$GAGSV,3,2,12,12,57,176,,16,38,305,,23,06,122,,24,66,307,,7*7E,1746262894005
NMEA,$GAGSV,3,3,12,25,15,304,,26,07,037,,31,56,119,,33,52,059,,7*70,1746262894005
NMEA,$GBGSV,4,1,15,45,54,181,40,38,23,043,25,36,10,154,36,35,50,241,44,1*74,1746262894005
NMEA,$GBGSV,4,2,15,32,04,052,27,30,11,057,27,29,64,053,38,26,51,293,40,1*7F,1746262894005
NMEA,$GBGSV,4,3,15,24,07,319,21,13,34,072,25,08,31,053,25,05,17,120,27,1*75,1746262894005
NMEA,$GBGSV,4,4,15,02,00,000,,44,05,239,,60,04,101,,1*4F,1746262894005
NMEA,$GNGSA,A,3,05,16,18,23,25,26,27,28,29,31,,,0.9,0.6,0.6,1*37,1746262894011
NMEA,$GNGSA,A,3,05,08,13,24,26,29,30,35,36,38,45,,0.9,0.6,0.6,4*31,1746262894011
NMEA,$GNVTG,304.5,T,301.2,M,2.3,N,4.2,K,A*38,1746262894011
NMEA,$GNDTM,P90,,0000.000026,S,00000.000000,E,0.978,W84*5C,1746262894011
NMEA,$GNRMC,090134.00,A,4503.493866,N,00741.497670,E,2.3,304.5,030525,3.3,E,A,V*51,1746262894011
NMEA,$GNGNS,090134.00,4503.493866,N,00741.497670,E,ANNANN,21,0.6,230.8,48.0,,,V*20,1746262894011
NMEA,$GNGGA,090134.00,4503.493866,N,00741.497670,E,1,12,0.6,230.8,M,48.0,M,,*70,1746262894011
NMEA,$GPGSV,3,1,12,05,21,057,29,16,34,305,39,18,71,147,38,20,04,028,26,1*68,1746262895004
NMEA,$GPGSV,3,2,12,23,12,145,34,25,16,129,32,26,62,297,41,27,11,265,37,1*61,1746262895004
NMEA,$GPGSV,3,3,12,28,27,204,39,29,42,064,37,31,42,231,43,04,00,000,,1*68,1746262895004
NMEA,$GLGSV,3,1,09,74,73,306,36,66,05,355,25,73,53,158,34,75,20,324,41,1*7C,1746262895004
NMEA,$GLGSV,3,2,09,84,69,237,30,83,38,035,25,85,17,226,37,67,05,044,34,1*7D,1746262895004
NMEA,$GLGSV,3,3,09,80,01,148,,1*45,1746262895004
NMEA,$GAGSV,3,1,12,03,04,308,,05,01,262,,10,35,195,,11,10,204,,7*71,1746262895004
NMEA,$GAGSV,3,2,12,12,57,176,,16,38,305,,23,06,122,,24,66,307,,7*7E,1746262895004
NMEA,$GAGSV,3,3,12,25,15,304,,26,07,037,,31,56,119,,33,52,059,,7*70,1746262895004
NMEA,$GBGSV,4,1,15,45,54,181,41,38,23,043,29,36,10,154,35,35,50,241,42,1*7C,1746262895004
NMEA,$GBGSV,4,2,15,32,04,052,30,30,11,057,32,29,64,053,39,26,51,293,42,1*7E,1746262895004
NMEA,$GBGSV,4,3,15,13,34,072,28,08,31,053,29,05,17,120,27,02,00,000,,1*7F,1746262895004
NMEA,$GBGSV,4,4,15,24,07,319,,44,05,239,,60,04,101,,1*47,1746262895004
NMEA,$GNGSA,A,3,05,16,18,23,25,26,27,28,29,31,,,0.9,0.6,0.6,1*37,1746262895009
NMEA,$GNGSA,A,3,05,08,13,24,26,29,30,35,36,38,45,,0.9,0.6,0.6,4*31,1746262895009
NMEA,$GNVTG,296.1,T,292.8,M,2.5,N,4.7,K,A*34,1746262895009
NMEA,$GNDTM,P90,,0000.000026,S,00000.000000,E,0.978,W84*5C,1746262895009
NMEA,$GNRMC,090135.00,A,4503.494108,N,00741.496797,E,2.5,296.1,030525,3.3,E,A,V*57,1746262895009
NMEA,$GNGNS,090135.00,4503.494108,N,00741.496797,E,ANNANN,21,0.6,231.1,48.0,,,V*26,1746262895009
NMEA,$GNGGA,090135.00,4503.494108,N,00741.496797,E,1,12,0.6,231.1,M,48.0,M,,*76,1746262895009
NMEA,$GPGSV,3,1,12,05,21,057,28,16,34,305,39,18,71,147,35,20,04,028,28,1*6A,1746262896005
NMEA,$GPGSV,3,2,12,23,12,145,32,25,16,129,32,26,62,297,39,27,11,265,38,1*67,1746262896005
NMEA,$GPGSV,3,3,12,28,27,204,38,29,42,064,31,31,42,231,39,04,00,000,,1*62,1746262896005
NMEA,$GLGSV,3,1,09,74,73,306,31,66,05,355,24,73,53,158,32,75,20,324,37,1*7D,1746262896005
NMEA,$GLGSV,3,2,09,84,69,237,29,83,38,035,25,85,17,226,34,67,05,044,27,1*74,1746262896005
NMEA,$GLGSV,3,3,09,80,01,148,,1*45,1746262896005
NMEA,$GAGSV,3,1,12,03,04,308,,05,01,262,,10,35,195,,11,10,204,,7*71,1746262896005
NMEA,$GAGSV,3,2,12,12,57,176,,16,38,305,,23,06,122,,24,66,307,,7*7E,1746262896005
NMEA,$GAGSV,3,3,12,25,15,304,,26,07,037,,31,56,119,,33,52,059,,7*70,1746262896005
NMEA,$GBGSV,4,1,15,45,54,181,39,38,23,043,29,36,10,154,36,35,50,241,43,1*71,1746262896005
NMEA,$GBGSV,4,2,15,32,04,052,27,30,11,057,29,29,64,053,36,26,51,293,40,1*7F,1746262896005
NMEA,$GBGSV,4,3,15,13,34,072,27,08,31,053,24,05,17,120,26,02,00,000,,1*7C,1746262896005
NMEA,$GBGSV,4,4,15,24,07,319,,44,05,239,,60,04,101,,1*47,1746262896005
NMEA,$GNGSA,A,3,05,16,18,23,25,26,27,28,29,31,,,0.9,0.6,0.6,1*37,1746262896010
NMEA,$GNGSA,A,3,05,08,13,24,26,29,30,35,36,38,45,,0.9,0.6,0.6,4*31,1746262896010
NMEA,$GNVTG,298.7,T,295.4,M,2.6,N,4.8,K,A*3B,1746262896010
NMEA,$GNDTM,P90,,0000.000026,S,00000.000000,E,0.978,W84*5C,1746262896010
NMEA,$GNRMC,090136.00,A,4503.493968,N,00741.496248,E,2.6,298.7,030525,3.3,E,A,V*51,1746262896010
NMEA,$GNGNS,090136.00,4503.493968,N,00741.496248,E,ANNANN,21,0.6,229.7,48.0,,,V*24,1746262896010
NMEA,$GNGGA,090136.00,4503.493968,N,00741.496248,E,1,12,0.6,229.7,M,48.0,M,,*74,1746262896010
NMEA,$GPGSV,3,1,12,05,21,057,30,16,34,305,41,18,71,147,39,20,04,028,26,1*6E,1746262897003
NMEA,$GPGSV,3,2,12,23,12,145,30,25,16,129,35,26,62,297,44,27,11,265,38,1*68,1746262897003
NMEA,$GPGSV,3,3,12,28,27,204,40,29,42,064,35,31,42,231,42,04,00,000,,1*65,1746262897003
NMEA,$GLGSV,3,1,09,74,73,306,38,66,05,355,24,73,53,158,42,75,20,324,36,1*72,1746262897003
NMEA,$GLGSV,3,2,09,84,69,237,32,83,38,035,24,85,17,226,38,67,05,044,30,1*75,1746262897003
NMEA,$GLGSV,3,3,09,80,01,148,,1*45,1746262897003
NMEA,$GAGSV,3,1,12,03,04,308,,05,01,262,,10,35,195,,11,10,204,,7*71,1746262897003
NMEA,$GAGSV,3,2,12,12,57,176,,16,38,305,,23,06,122,,24,66,307,,7*7E,1746262897003
NMEA,$GAGSV,3,3,12,25,15,304,,26,07,037,,31,56,119,,33,52,059,,7*70,1746262897003
NMEA,$GBGSV,4,1,15,45,54,181,43,38,23,043,30,36,10,154,40,35,50,241,43,1*75,1746262897003
NMEA,$GBGSV,4,2,15,32,04,052,29,30,11,057,29,29,64,053,42,26,51,293,37,1*72,1746262897003
NMEA,$GBGSV,4,3,15,13,34,072,30,08,31,053,27,05,17,120,26,02,00,000,,1*79,1746262897003
NMEA,$GBGSV,4,4,15,24,07,319,,44,05,239,,60,04,101,,1*47,1746262897003
NMEA,$GNGSA,A,3,05,16,18,23,25,26,27,28,29,31,,,0.9,0.6,0.6,1*37,1746262897006
NMEA,$GNGSA,A,3,05,08,13,24,26,29,30,35,36,38,45,,0.9,0.6,0.6,4*31,1746262897006
NMEA,$GNVTG,300.3,T,297.0,M,2.4,N,4.5,K,A*36,1746262897006
NMEA,$GNDTM,P90,,0000.000026,S,00000.000000,E,0.978,W84*5C,1746262897006
NMEA,$GNRMC,090137.00,A,4503.494110,N,00741.495365,E,2.4,300.3,030525,3.3,E,A,V*5B,1746262897006
NMEA,$GNGNS,090137.00,4503.494110,N,00741.495365,E,ANNANN,21,0.6,229.2,48.0,,,V*2D,1746262897006
NMEA,$GNGGA,090137.00,4503.494110,N,00741.495365,E,1,12,0.6,229.2,M,48.0,M,,*7D,1746262897006
NMEA,$GPGSV,3,1,12,05,21,057,31,16,34,305,44,18,71,147,40,20,04,028,28,1*6A,1746262898011
NMEA,$GPGSV,3,2,12,23,12,145,34,25,16,129,35,26,62,297,45,27,11,265,42,1*60,1746262898011
NMEA,$GPGSV,3,3,12,28,27,204,39,29,42,064,35,31,42,231,43,04,00,000,,1*6A,1746262898011
NMEA,$GLGSV,3,1,09,74,73,306,39,66,05,355,24,73,53,158,44,75,20,324,40,1*74,1746262898011
NMEA,$GLGSV,3,2,09,84,69,237,35,83,38,035,24,85,17,226,37,67,05,044,29,1*75,1746262898011
NMEA,$GLGSV,3,3,09,80,01,148,,1*45,1746262898011
NMEA,$GAGSV,3,1,12,03,04,308,,05,01,262,,10,35,195,,11,10,204,,7*71,1746262898011
NMEA,$GAGSV,3,2,12,12,57,176,,16,38,305,,23,06,122,,24,66,307,,7*7E,1746262898011
NMEA,$GAGSV,3,3,12,25,15,304,,26,07,037,,31,56,119,,33,52,059,,7*70,1746262898011
NMEA,$GBGSV,4,1,15,45,54,181,44,38,23,043,28,36,10,154,39,35,50,241,45,1*73,1746262898011
NMEA,$GBGSV,4,2,15,32,04,052,31,30,11,057,33,29,64,053,43,26,51,293,41,1*70,1746262898011
NMEA,$GBGSV,4,3,15,13,34,072,29,08,31,053,27,05,17,120,27,02,00,000,,1*70,1746262898011
NMEA,$GBGSV,4,4,15,24,07,319,,44,05,239,,60,04,101,,1*47,1746262898011
NMEA,$GNGSA,A,3,05,16,18,23,25,26,27,28,29,31,,,0.9,0.6,0.6,1*37,1746262898025
NMEA,$GNGSA,A,3,05,08,13,24,26,29,30,35,36,38,45,,0.9,0.6,0.6,4*31,1746262898025
NMEA,$GNVTG,302.1,T,298.8,M,2.3,N,4.2,K,A*31,1746262898025
NMEA,$GNDTM,P90,,0000.000026,S,00000.000000,E,0.978,W84*5C,1746262898025
NMEA,$GNRMC,090138.00,A,4503.494386,N,00741.494649,E,2.3,302.1,030525,3.3,E,A,V*54,1746262898025
NMEA,$GNGNS,090138.00,4503.494386,N,00741.494649,E,ANNANN,21,0.6,228.1,48.0,,,V*27,1746262898025
NMEA,$GNGGA,090138.00,4503.494386,N,00741.494649,E,1,12,0.6,228.1,M,48.0,M,,*77,1746262898025
NMEA,$GPGSV,3,1,12,05,21,057,29,16,34,305,43,18,71,147,41,20,04,028,30,1*6C,1746262899004
NMEA,$GPGSV,3,2,12,23,12,145,36,25,16,129,36,26,62,297,45,27,11,265,41,1*62,1746262899004
NMEA,$GPGSV,3,3,12,28,27,204,42,29,42,064,38,31,42,231,45,04,00,000,,1*6D,1746262899004
NMEA,$GLGSV,3,1,09,74,73,306,38,66,05,355,24,73,53,158,42,75,20,324,41,1*72,1746262899004
NMEA,$GLGSV,3,2,09,84,69,237,32,83,38,035,24,85,17,226,40,67,05,044,30,1*7A,1746262899004
NMEA,$GLGSV,3,3,09,80,01,148,,1*45,1746262899004
NMEA,$GAGSV,3,1,12,03,04,308,,05,01,262,,10,35,195,,11,10,204,,7*71,1746262899004
NMEA,$GAGSV,3,2,12,12,57,176,,16,38,305,,23,06,122,,24,66,307,,7*7E,1746262899004
NMEA,$GAGSV,3,3,12,25,15,304,,26,07,037,,31,56,119,,33,52,059,,7*70,1746262899004
NMEA,$GBGSV,4,1,15,45,54,181,43,38,23,043,30,36,10,154,35,35,50,241,45,1*71,1746262899004
NMEA,$GBGSV,4,2,15,32,04,052,30,30,11,057,32,29,64,053,42,26,51,293,43,1*73,1746262899004
NMEA,$GBGSV,4,3,15,13,34,072,29,08,31,053,28,05,17,120,27,02,00,000,,1*7F,1746262899004
NMEA,$GBGSV,4,4,15,24,07,319,,44,05,239,,60,04,101,,1*47,1746262899004
NMEA,$GNGSA,A,3,05,16,18,23,25,26,27,28,29,31,,,0.9,0.6,0.6,1*37,1746262899009
NMEA,$GNGSA,A,3,05,08,13,24,26,29,30,35,36,38,45,,0.9,0.6,0.6,4*31,1746262899009
NMEA,$GNVTG,299.2,T,295.9,M,2.4,N,4.5,K,A*3D,1746262899009
NMEA,$GNDTM,P90,,0000.000026,S,00000.000000,E,0.978,W84*5C,1746262899009
NMEA,$GNRMC,090139.00,A,4503.494673,N,00741.493945,E,2.4,299.2,030525,3.3,E,A,V*59,1746262899009
NMEA,$GNGNS,090139.00,4503.494673,N,00741.493945,E,ANNANN,21,0.6,227.6,48.0,,,V*25,1746262899009
NMEA,$GNGGA,090139.00,4503.494673,N,00741.493945,E,1,12,0.6,227.6,M,48.0,M,,*75,1746262899009
NMEA,$GPGSV,3,1,12,05,21,057,39,16,34,305,39,18,71,147,38,20,04,028,30,1*6E,1746262900009
NMEA,$GPGSV,3,2,12,23,12,145,35,25,16,129,32,26,62,297,43,27,11,265,40,1*62,1746262900009
NMEA,$GPGSV,3,3,12,28,27,204,37,29,42,064,43,31,42,231,41,04,00,000,,1*67,1746262900009
NMEA,$GLGSV,3,1,09,74,73,306,37,66,05,355,24,73,53,158,36,75,20,324,40,1*7F,1746262900009
NMEA,$GLGSV,3,2,09,84,69,237,29,83,38,035,24,85,17,226,35,67,05,044,28,1*7B,1746262900009
NMEA,$GLGSV,3,3,09,80,01,148,,1*45,1746262900009
NMEA,$GAGSV,3,1,12,03,04,308,,05,01,262,,10,35,195,,11,10,204,,7*71,1746262900009
NMEA,$GAGSV,3,2,12,12,57,176,,16,38,305,,23,06,122,,24,66,307,,7*7E,1746262900009
NMEA,$GAGSV,3,3,12,25,15,304,,26,07,037,,31,56,119,,33,52,059,,7*70,1746262900009
NMEA,$GBGSV,4,1,15,45,54,181,40,38,23,043,38,36,10,154,35,35,50,241,42,1*7D,1746262900009
NMEA,$GBGSV,4,2,15,32,04,052,29,30,11,057,34,29,64,053,44,26,51,293,46,1*7E,1746262900009
NMEA,$GBGSV,4,3,15,24,07,319,19,13,34,072,38,08,31,053,35,05,17,120,27,1*73,1746262900009
NMEA,$GBGSV,4,4,15,02,00,000,,44,05,239,,60,04,101,,1*4F,1746262900009
NMEA,$GNGSA,A,3,05,16,18,23,25,26,27,28,29,31,,,0.9,0.6,0.6,1*37,1746262900023
NMEA,$GNGSA,A,3,05,08,13,24,26,29,30,35,36,38,45,,0.9,0.6,0.6,4*31,1746262900023
NMEA,$GNVTG,305.0,T,301.7,M,2.4,N,4.4,K,A*38,1746262900023
NMEA,$GNDTM,P90,,0000.000026,S,00000.000000,E,0.978,W84*5C,1746262900023
NMEA,$GNRMC,090140.00,A,4503.495148,N,00741.493331,E,2.4,305.0,030525,3.3,E,A,V*56,1746262900023
NMEA,$GNGNS,090140.00,4503.495148,N,00741.493331,E,ANNANN,21,0.6,227.1,48.0,,,V*2B,1746262900023
NMEA,$GNGGA,090140.00,4503.495148,N,00741.493331,E,1,12,0.6,227.1,M,48.0,M,,*7B,1746262900023
NMEA,$GPGSV,3,1,12,05,21,057,35,16,34,305,39,18,71,147,30,20,04,028,32,1*68,1746262901014
NMEA,$GPGSV,3,2,12,23,12,145,40,25,16,129,35,26,62,297,43,27,11,265,40,1*67,1746262901014
NMEA,$GPGSV,3,3,12,28,27,204,34,29,42,064,41,31,42,231,40,04,00,000,,1*67,1746262901014
NMEA,$GLGSV,3,1,09,74,73,306,38,66,05,355,23,73,53,158,34,75,20,324,38,1*7A,1746262901014
NMEA,$GLGSV,3,2,09,84,69,237,28,83,38,035,31,85,17,226,37,67,05,044,31,1*74,1746262901014
NMEA,$GLGSV,3,3,09,80,01,148,,1*45,1746262901014
NMEA,$GAGSV,3,1,12,03,04,308,,05,01,262,,10,35,195,,11,10,204,,7*71,1746262901014
NMEA,$GAGSV,3,2,12,12,57,176,,16,38,305,,23,06,122,,24,66,307,,7*7E,1746262901014
NMEA,$GAGSV,3,3,12,25,15,304,,26,07,037,,31,56,119,,33,52,059,,7*70,1746262901014
NMEA,$GBGSV,4,1,15,45,54,181,32,38,23,043,35,36,10,154,39,35,50,241,37,1*7B,1746262901014
NMEA,$GBGSV,4,2,15,32,04,052,28,30,11,057,32,29,64,053,41,26,51,293,45,1*7F,1746262901014
NMEA,$GBGSV,4,3,15,24,07,319,19,13,34,072,35,08,31,053,33,05,17,120,27,1*78,1746262901014
NMEA,$GBGSV,4,4,15,02,00,000,,44,05,239,,60,04,101,,1*4F,1746262901014
NMEA,$GNGSA,A,3,05,16,18,23,25,26,27,28,29,31,,,0.9,0.6,0.6,1*37,1746262901032
NMEA,$GNGSA,A,3,05,08,13,24,26,29,30,35,36,38,45,,0.9,0.6,0.6,4*31,1746262901032
NMEA,$GNVTG,305.9,T,302.6,M,2.3,N,4.2,K,A*32,1746262901032
NMEA,$GNDTM,P90,,0000.000026,S,00000.000000,E,0.978,W84*5C,1746262901032
NMEA,$GNRMC,090141.00,A,4503.495661,N,00741.492768,E,2.3,305.9,030525,3.3,E,A,V*5C,1746262901032
NMEA,$GNGNS,090141.00,4503.495661,N,00741.492768,E,ANNANN,21,0.6,226.6,48.0,,,V*29,1746262901032
NMEA,$GNGGA,090141.00,4503.495661,N,00741.492768,E,1,12,0.6,226.6,M,48.0,M,,*79,1746262901032
NMEA,$GPGSV,3,1,12,05,21,057,33,16,34,305,40,18,71,147,36,20,04,028,28,1*6D,1746262902009
NMEA,$GPGSV,3,2,12,23,12,145,40,25,16,129,38,26,62,297,44,27,11,265,36,1*6C,1746262902009
NMEA,$GPGSV,3,3,12,28,27,204,31,29,42,064,36,31,42,231,42,04,00,000,,1*60,1746262902009
NMEA,$GLGSV,3,1,09,74,73,306,40,66,05,355,23,73,53,158,39,75,20,324,41,1*76,1746262902009
NMEA,$GLGSV,3,2,09,84,69,237,30,83,38,035,24,85,17,226,36,67,05,044,32,1*7B,1746262902009
NMEA,$GLGSV,3,3,09,80,01,148,,1*45,1746262902009
NMEA,$GAGSV,3,1,12,03,04,308,,05,01,262,,10,35,195,,11,10,204,,7*71,1746262902009
NMEA,$GAGSV,3,2,12,12,57,176,,16,38,305,,23,06,122,,24,66,307,,7*7E,1746262902009
NMEA,$GAGSV,3,3,12,25,15,304,,26,07,037,,31,56,119,,33,52,059,,7*70,1746262902009
NMEA,$GBGSV,4,1,15,45,54,181,36,38,23,043,32,36,10,154,40,35,50,241,38,1*79,1746262902009
NMEA,$GBGSV,4,2,15,32,04,052,30,30,11,057,32,29,64,053,40,26,51,293,44,1*76,1746262902009
NMEA,$GBGSV,4,3,15,24,07,319,20,13,34,072,32,08,31,053,29,05,17,120,33,1*7B,1746262902009
NMEA,$GBGSV,4,4,15,02,00,000,,44,05,239,,60,04,101,,1*4F,1746262902009
NMEA,$GNGSA,A,3,05,16,18,23,25,26,27,28,29,31,,,0.9,0.6,0.6,1*37,1746262902021
NMEA,$GNGSA,A,3,05,08,13,24,26,29,30,35,36,38,45,,0.9,0.6,0.6,4*31,1746262902021
NMEA,$GNVTG,302.4,T,299.1,M,2.2,N,4.1,K,A*3E,1746262902021
NMEA,$GNDTM,P90,,0000.000026,S,00000.000000,E,0.978,W84*5C,1746262902021
NMEA,$GNRMC,090142.00,A,4503.496057,N,00741.492160,E,2.2,302.4,030525,3.3,E,A,V*5A,1746262902021
NMEA,$GNGNS,090142.00,4503.496057,N,00741.492160,E,ANNANN,21,0.6,226.1,48.0,,,V*23,1746262902021
NMEA,$GNGGA,090142.00,4503.496057,N,00741.492160,E,1,12,0.6,226.1,M,48.0,M,,*73,1746262902021
NMEA,$GPGSV,3,1,12,05,21,057,34,16,34,305,37,18,71,147,37,20,04,028,32,1*60,1746262903009
NMEA,$GPGSV,3,2,12,23,12,145,41,25,16,129,39,26,62,297,44,27,11,265,39,1*63,1746262903009
NMEA,$GPGSV,3,3,12,28,27,204,33,29,42,064,36,31,42,231,44,04,00,000,,1*64,1746262903009
NMEA,$GLGSV,3,1,09,74,73,306,36,66,05,355,23,73,53,158,40,75,20,324,39,1*76,1746262903009
NMEA,$GLGSV,3,2,09,84,69,237,29,83,38,035,27,85,17,226,38,67,05,044,32,1*7E,1746262903009
NMEA,$GLGSV,3,3,09,80,01,148,,1*45,1746262903009
NMEA,$GAGSV,3,1,12,03,04,308,,05,01,262,,10,35,195,,11,10,204,,7*71,1746262903009
NMEA,$GAGSV,3,2,12,12,57,176,,16,38,305,,23,06,122,,24,66,307,,7*7E,1746262903009
NMEA,$GAGSV,3,3,12,25,15,304,,26,07,037,,31,56,119,,33,52,059,,7*70,1746262903009
NMEA,$GBGSV,4,1,15,45,54,181,35,38,23,043,37,36,10,154,41,35,50,241,43,1*72,1746262903009
NMEA,$GBGSV,4,2,15,32,04,052,28,30,11,057,33,29,64,053,41,26,51,293,44,1*7F,1746262903009
NMEA,$GBGSV,4,3,15,24,07,319,19,13,34,072,34,08,31,053,30,05,17,120,35,1*79,1746262903009
NMEA,$GBGSV,4,4,15,02,00,000,,44,05,239,,60,04,101,,1*4F,1746262903009
NMEA,$GNGSA,A,3,05,16,18,23,25,26,27,28,29,31,,,0.9,0.6,0.6,1*37,1746262903020
NMEA,$GNGSA,A,3,05,08,13,24,26,29,30,35,36,38,45,,0.9,0.6,0.6,4*31,1746262903020
NMEA,$GNVTG,295.4,T,292.1,M,2.2,N,4.1,K,A*3A,1746262903020
NMEA,$GNDTM,P90,,0000.000026,S,00000.000000,E,0.978,W84*5C,1746262903020
NMEA,$GNRMC,090143.00,A,4503.496308,N,00741.491403,E,2.2,295.4,030525,3.3,E,A,V*5E,1746262903020
NMEA,$GNGNS,090143.00,4503.496308,N,00741.491403,E,ANNANN,21,0.6,225.8,48.0,,,V*22,1746262903020
NMEA,$GNGGA,090143.00,4503.496308,N,00741.491403,E,1,12,0.6,225.8,M,48.0,M,,*72,1746262903020
NMEA,$GPGSV,3,1,12,05,21,057,36,16,34,305,38,18,71,147,35,20,04,028,31,1*6C,1746262904011
NMEA,$GPGSV,3,2,12,23,12,145,40,25,16,129,39,26,62,297,47,27,11,265,42,1*6D,1746262904011
NMEA,$GPGSV,3,3,12,28,27,204,34,29,42,064,40,31,42,231,40,04,00,000,,1*66,1746262904011
NMEA,$GLGSV,3,1,09,74,73,306,35,66,05,355,19,73,53,158,37,75,20,324,40,1*72,1746262904011
NMEA,$GLGSV,3,2,09,84,69,237,29,83,38,035,28,85,17,226,36,67,05,044,35,1*78,1746262904011
NMEA,$GLGSV,3,3,09,80,01,148,,1*45,1746262904011
NMEA,$GAGSV,3,1,12,03,04,308,,05,01,262,,10,35,195,,11,10,204,,7*71,1746262904011
NMEA,$GAGSV,3,2,12,12,57,176,,16,38,305,,23,06,122,,24,66,307,,7*7E,1746262904011
NMEA,$GAGSV,3,3,12,25,15,304,,26,07,037,,31,56,119,,33,52,059,,7*70,1746262904011
NMEA,$GBGSV,4,1,15,45,54,181,35,38,23,043,36,36,10,154,39,35,50,241,44,1*7B,1746262904011
NMEA,$GBGSV,4,2,15,32,04,052,30,30,11,057,33,29,64,053,43,26,51,293,45,1*75,1746262904011
NMEA,$GBGSV,4,3,15,24,07,319,19,13,34,072,33,08,31,053,31,05,17,120,36,1*7C,1746262904011
NMEA,$GBGSV,4,4,15,02,00,000,,44,05,239,,60,04,101,,1*4F,1746262904011
NMEA,$GNGSA,A,3,05,16,18,23,25,26,27,28,29,31,,,0.9,0.6,0.6,1*37,1746262904021
NMEA,$GNGSA,A,3,05,08,13,24,26,29,30,35,36,38,45,,0.9,0.6,0.6,4*31,1746262904021
NMEA,$GNVTG,293.1,T,289.8,M,2.1,N,3.9,K,A*36,1746262904021
NMEA,$GNDTM,P90,,0000.000026,S,00000.000000,E,0.978,W84*5C,1746262904021
NMEA,$GNRMC,090144.00,A,4503.496536,N,00741.490630,E,2.1,293.1,030525,3.3,E,A,V*51,1746262904021
NMEA,$GNGNS,090144.00,4503.496536,N,00741.490630,E,ANNANN,21,0.6,225.6,48.0,,,V*23,1746262904021
NMEA,$GNGGA,090144.00,4503.496536,N,00741.490630,E,1,12,0.6,225.6,M,48.0,M,,*73,1746262904021
NMEA,$GPGSV,3,1,12,05,21,057,36,16,34,305,32,18,71,147,37,20,04,028,30,1*65,1746262905013
NMEA,$GPGSV,3,2,12,23,12,145,43,25,16,129,42,26,62,297,47,27,11,265,41,1*61,1746262905013
NMEA,$GPGSV,3,3,12,28,27,204,38,29,42,064,39,31,42,231,36,04,00,000,,1*65,1746262905013
NMEA,$GLGSV,3,1,09,74,73,306,37,66,05,355,19,73,53,158,39,75,20,324,39,1*70,1746262905013
NMEA,$GLGSV,3,2,09,84,69,237,24,83,38,035,28,85,17,226,35,67,05,044,34,1*77,1746262905013
NMEA,$GLGSV,3,3,09,80,01,148,,1*45,1746262905013
NMEA,$GAGSV,3,1,12,03,04,308,,05,01,262,,10,35,195,,11,10,204,,7*71,1746262905013
NMEA,$GAGSV,3,2,12,12,57,176,,16,38,305,,23,06,122,,24,66,307,,7*7E,1746262905013
NMEA,$GAGSV,3,3,12,25,15,304,,26,07,037,,31,56,119,,33,52,059,,7*70,1746262905013
NMEA,$GBGSV,4,1,15,45,54,181,36,38,23,043,35,36,10,154,43,35,50,241,40,1*72,1746262905013
NMEA,$GBGSV,4,2,15,32,04,052,31,30,11,057,34,29,64,053,44,26,51,293,46,1*77,1746262905013
NMEA,$GBGSV,4,3,15,24,07,319,19,13,34,072,34,08,31,053,30,05,17,120,36,1*7A,1746262905013
NMEA,$GBGSV,4,4,15,02,00,000,,44,05,239,,60,04,101,,1*4F,1746262905013
NMEA,$GNGSA,A,3,05,16,18,23,25,26,27,28,29,31,,,0.9,0.6,0.6,1*37,1746262905031
NMEA,$GNGSA,A,3,05,08,13,24,26,29,30,35,36,38,45,,0.9,0.6,0.6,4*31,1746262905031
NMEA,$GNVTG,292.7,T,289.4,M,2.3,N,4.2,K,A*33,1746262905031
NMEA,$GNDTM,P90,,0000.000026,S,00000.000000,E,0.978,W84*5C,1746262905031
NMEA,$GNRMC,090145.00,A,4503.496763,N,00741.489799,E,2.3,292.7,030525,3.3,E,A,V*5D,1746262905031
NMEA,$GNGNS,090145.00,4503.496763,N,00741.489799,E,ANNANN,21,0.6,225.5,48.0,,,V*29,1746262905031
NMEA,$GNGGA,090145.00,4503.496763,N,00741.489799,E,1,12,0.6,225.5,M,48.0,M,,*79,1746262905031
NMEA,$GPGSV,3,1,12,05,21,057,37,16,34,305,34,18,71,147,36,20,04,028,31,1*62,1746262906012
NMEA,$GPGSV,3,2,12,23,12,145,42,25,16,129,41,26,62,297,45,27,11,265,40,1*60,1746262906012
NMEA,$GPGSV,3,3,12,28,27,204,34,29,42,064,37,31,42,231,40,04,00,000,,1*66,1746262906012
NMEA,$GLGSV,3,1,09,74,73,306,40,66,05,355,19,73,53,158,39,75,20,324,38,1*71,1746262906012
NMEA,$GLGSV,3,2,09,84,69,237,26,83,38,035,28,85,17,226,38,67,05,044,32,1*7E,1746262906012
NMEA,$GLGSV,3,3,09,80,01,148,,1*45,1746262906012
NMEA,$GAGSV,3,1,12,03,04,308,,05,01,262,,10,35,195,,11,10,204,,7*71,1746262906012
NMEA,$GAGSV,3,2,12,12,57,176,,16,38,305,,23,06,122,,24,66,307,,7*7E,1746262906012
NMEA,$GAGSV,3,3,12,25,15,304,,26,07,037,,31,56,119,,33,52,059,,7*70,1746262906012
NMEA,$GBGSV,4,1,15,45,54,181,38,38,23,043,34,36,10,154,40,35,50,241,42,1*7C,1746262906012
NMEA,$GBGSV,4,2,15,32,04,052,27,30,11,057,34,29,64,053,41,26,51,293,43,1*70,1746262906012
NMEA,$GBGSV,4,3,15,24,07,319,19,13,34,072,31,08,31,053,30,05,17,120,35,1*7C,1746262906012
NMEA,$GBGSV,4,4,15,02,00,000,,44,05,239,,60,04,101,,1*4F,1746262906012
NMEA,$GNGSA,A,3,05,16,18,23,25,26,27,28,29,31,,,0.9,0.6,0.6,1*37,1746262906023
NMEA,$GNGSA,A,3,05,08,13,24,26,29,30,35,36,38,45,,0.9,0.6,0.6,4*31,1746262906023
NMEA,$GNVTG,296.1,T,292.8,M,2.2,N,4.1,K,A*35,1746262906023
NMEA,$GNDTM,P90,,0000.000026,S,00000.000000,E,0.978,W84*5C,1746262906023
NMEA,$GNRMC,090146.00,A,4503.497026,N,00741.489054,E,2.2,296.1,030525,3.3,E,A,V*5C,1746262906023
NMEA,$GNGNS,090146.00,4503.497026,N,00741.489054,E,ANNANN,21,0.6,225.3,48.0,,,V*2D,1746262906023
NMEA,$GNGGA,090146.00,4503.497026,N,00741.489054,E,1,12,0.6,225.3,M,48.0,M,,*7D,1746262906023
NMEA,$GPGSV,3,1,12,05,21,057,36,16,34,305,31,18,71,147,35,20,04,028,34,1*60,1746262907014
NMEA,$GPGSV,3,2,12,23,12,145,39,25,16,129,35,26,62,297,43,27,11,265,40,1*69,1746262907014
NMEA,$GPGSV,3,3,12,28,27,204,33,29,42,064,37,31,42,231,38,04,00,000,,1*6E,1746262907014
NMEA,$GLGSV,3,1,09,74,73,306,38,66,05,355,19,73,53,158,37,75,20,324,35,1*7D,1746262907014
NMEA,$GLGSV,3,2,09,84,69,237,29,83,38,035,28,85,17,226,37,67,05,044,34,1*78,1746262907014
NMEA,$GLGSV,3,3,09,80,01,148,,1*45,1746262907014
NMEA,$GAGSV,3,1,12,03,04,308,,05,01,262,,10,35,195,,11,10,204,,7*71,1746262907014
NMEA,$GAGSV,3,2,12,12,57,176,,16,38,305,,23,06,122,,24,66,307,,7*7E,1746262907014
NMEA,$GAGSV,3,3,12,25,15,304,,26,07,037,,31,56,119,,33,52,059,,7*70,1746262907014
NMEA,$GBGSV,4,1,15,45,54,181,37,38,23,043,35,36,10,154,38,35,50,241,42,1*7D,1746262907014
NMEA,$GBGSV,4,2,15,32,04,052,30,30,11,057,33,29,64,053,41,26,51,293,43,1*71,1746262907014
NMEA,$GBGSV,4,3,15,24,07,319,19,13,34,072,34,08,31,053,31,05,17,120,33,1*7E,1746262907014
NMEA,$GBGSV,4,4,15,02,00,000,,44,05,239,,60,04,101,,1*4F,1746262907014
NMEA,$GNGSA,A,3,05,16,18,23,25,26,27,28,29,31,,,0.9,0.6,0.6,1*37,1746262907024
NMEA,$GNGSA,A,3,05,08,13,24,26,29,30,35,36,38,45,,0.9,0.6,0.6,4*31,1746262907024
NMEA,$GNVTG,306.1,T,302.8,M,2.4,N,4.5,K,A*37,1746262907024
NMEA,$GNDTM,P90,,0000.000026,S,00000.000000,E,0.978,W84*5C,1746262907024
NMEA,$GNRMC,090147.00,A,4503.497543,N,00741.488326,E,2.4,306.1,030525,3.3,E,A,V*52,1746262907024
NMEA,$GNGNS,090147.00,4503.497543,N,00741.488326,E,ANNANN,21,0.6,224.3,48.0,,,V*2C,1746262907024
NMEA,$GNGGA,090147.00,4503.497543,N,00741.488326,E,1,12,0.6,224.3,M,48.0,M,,*7C,1746262907024
NMEA,$GPGSV,3,1,12,05,21,057,34,16,34,305,35,18,71,147,38,20,04,028,31,1*6E,1746262908010
NMEA,$GPGSV,3,2,12,23,12,145,40,25,16,129,37,26,62,297,46,27,11,265,43,1*63,1746262908010
NMEA,$GPGSV,3,3,12,28,27,204,37,29,42,064,37,31,42,231,42,04,00,000,,1*67,1746262908010
NMEA,$GLGSV,3,1,09,74,73,306,37,66,05,355,18,73,53,158,40,75,20,324,38,1*7E,1746262908010
NMEA,$GLGSV,3,2,09,84,69,237,28,83,38,035,27,85,17,226,37,67,05,044,32,1*70,1746262908010
NMEA,$GLGSV,3,3,09,80,01,148,,1*45,1746262908010
NMEA,$GAGSV,3,1,12,03,04,308,,05,01,262,,10,35,195,,11,10,204,,7*71,1746262908010
NMEA,$GAGSV,3,2,12,12,57,176,,16,38,305,,23,06,122,,24,66,307,,7*7E,1746262908010
NMEA,$GAGSV,3,3,12,25,15,304,,26,07,037,,31,56,119,,33,52,059,,7*70,1746262908010
NMEA,$GBGSV,4,1,15,45,54,181,39,38,23,043,36,36,10,154,35,35,50,241,43,1*7C,1746262908010
NMEA,$GBGSV,4,2,15,32,04,052,31,30,11,057,34,29,64,053,42,26,51,293,43,1*74,1746262908010
NMEA,$GBGSV,4,3,15,24,07,319,19,13,34,072,34,08,31,053,29,05,17,120,33,1*77,1746262908010
NMEA,$GBGSV,4,4,15,02,00,000,,44,05,239,,60,04,101,,1*4F,1746262908010
NMEA,$GNGSA,A,3,05,16,18,23,25,26,27,28,29,31,,,0.9,0.6,0.6,1*37,1746262908019
NMEA,$GNGSA,A,3,05,08,13,24,26,29,30,35,36,38,45,,0.9,0.6,0.6,4*31,1746262908019
NMEA,$GNVTG,296.8,T,293.5,M,2.4,N,4.5,K,A*32,1746262908019
NMEA,$GNDTM,P90,,0000.000026,S,00000.000000,E,0.978,W84*5C,1746262908019
NMEA,$GNRMC,090148.00,A,4503.497965,N,00741.487529,E,2.4,296.8,030525,3.3,E,A,V*52,1746262908019
NMEA,$GNGNS,090148.00,4503.497965,N,00741.487529,E,ANNANN,21,0.6,224.5,48.0,,,V*2B,1746262908019
NMEA,$GNGGA,090148.00,4503.497965,N,00741.487529,E,1,12,0.6,224.5,M,48.0,M,,*7B,1746262908019
NMEA,$GPGSV,3,1,12,05,21,057,36,16,34,305,30,18,71,147,38,20,04,028,31,1*69,1746262909011
NMEA,$GPGSV,3,2,12,23,12,145,41,25,16,129,37,26,62,297,44,27,11,265,41,1*62,1746262909011
NMEA,$GPGSV,3,3,12,28,27,204,35,29,42,064,38,31,42,231,43,04,00,000,,1*6B,1746262909011
NMEA,$GLGSV,3,1,09,74,73,306,36,66,05,355,18,73,53,158,35,75,20,324,38,1*7D,1746262909011
NMEA,$GLGSV,3,2,09,84,69,237,29,83,38,035,27,85,17,226,31,67,05,044,34,1*71,1746262909011
NMEA,$GLGSV,3,3,09,80,01,148,,1*45,1746262909011
NMEA,$GAGSV,3,1,12,03,04,308,,05,01,262,,10,35,195,,11,10,204,,7*71,1746262909011
NMEA,$GAGSV,3,2,12,12,57,176,,16,38,305,,23,06,122,,24,66,307,,7*7E,1746262909011
NMEA,$GAGSV,3,3,12,25,15,304,,26,07,037,,31,56,119,,33,52,059,,7*70,1746262909011
NMEA,$GBGSV,4,1,15,45,54,181,40,38,23,043,37,36,10,154,39,35,50,241,41,1*7D,1746262909011
NMEA,$GBGSV,4,2,15,32,04,052,31,30,11,057,32,29,64,053,41,26,51,293,44,1*76,1746262909011
NMEA,$GBGSV,4,3,15,24,07,319,19,13,34,072,34,08,31,053,31,05,17,120,34,1*79,1746262909011
NMEA,$GBGSV,4,4,15,02,00,000,,44,05,239,,60,04,101,,1*4F,1746262909011
NMEA,$GNGSA,A,3,05,16,18,23,25,26,27,28,29,31,,,0.9,0.6,0.6,1*37,1746262909025
NMEA,$GNGSA,A,3,05,08,13,24,26,29,30,35,36,38,45,,0.9,0.6,0.6,4*31,1746262909025
NMEA,$GNVTG,284.9,T,281.6,M,2.3,N,4.3,K,A*31,1746262909025
NMEA,$GNDTM,P90,,0000.000026,S,00000.000000,E,0.978,W84*5C,1746262909025
NMEA,$GNRMC,090149.00,A,4503.498169,N,00741.486660,E,2.3,284.9,030525,3.3,E,A,V*52,1746262909025
NMEA,$GNGNS,090149.00,4503.498169,N,00741.486660,E,ANNANN,21,0.6,225.1,48.0,,,V*2B,1746262909025
NMEA,$GNGGA,090149.00,4503.498169,N,00741.486660,E,1,12,0.6,225.1,M,48.0,M,,*7B,1746262909025
NMEA,$GPGSV,3,1,12,05,21,057,33,16,34,305,32,18,71,147,39,20,04,028,30,1*6E,1746262910012
NMEA,$GPGSV,3,2,12,23,12,145,40,25,16,129,36,26,62,297,45,27,11,265,35,1*60,1746262910012
NMEA,$GPGSV,3,3,12,28,27,204,35,29,42,064,37,31,42,231,42,04,00,000,,1*65,1746262910012
NMEA,$GLGSV,3,1,09,74,73,306,36,66,05,355,18,73,53,158,39,75,20,324,31,1*78,1746262910012
NMEA,$GLGSV,3,2,09,84,69,237,28,83,38,035,26,85,17,226,32,67,05,044,33,1*75,1746262910012
NMEA,$GLGSV,3,3,09,80,01,148,,1*45,1746262910012
NMEA,$GAGSV,3,1,12,03,04,308,,05,01,262,,10,35,195,,11,10,204,,7*71,1746262910012
NMEA,$GAGSV,3,2,12,12,57,176,,16,38,305,,23,06,122,,24,66,307,,7*7E,1746262910012
NMEA,$GAGSV,3,3,12,25,15,304,,26,07,037,,31,56,119,,33,52,059,,7*70,1746262910012
NMEA,$GBGSV,4,1,15,45,54,181,38,44,05,239,19,38,23,043,33,36,10,154,39,1*72,1746262910012
NMEA,$GBGSV,4,2,15,35,50,241,41,32,04,052,29,30,11,057,35,29,64,053,42,1*72,1746262910012
NMEA,$GBGSV,4,3,15,26,51,293,42,24,07,319,24,13,34,072,34,08,31,053,30,1*7F,1746262910012
NMEA,$GBGSV,4,4,15,05,17,120,33,02,00,000,,60,04,101,,1*42,1746262910012
NMEA,$GNGSA,A,3,05,16,18,23,25,26,27,28,29,31,,,0.9,0.6,0.6,1*37,1746262910025
NMEA,$GNGSA,A,3,05,08,13,24,26,29,30,35,36,38,45,,0.9,0.6,0.6,4*31,1746262910025
NMEA,$GNVTG,284.0,T,280.7,M,2.6,N,4.9,K,A*37,1746262910025
NMEA,$GNDTM,P90,,0000.000026,S,00000.000000,E,0.978,W84*5C,1746262910025
NMEA,$GNRMC,090150.00,A,4503.498392,N,00741.485720,E,2.6,284.0,030525,3.3,E,A,V*56,1746262910025
NMEA,$GNGNS,090150.00,4503.498392,N,00741.485720,E,ANNANN,21,0.6,224.9,48.0,,,V*2A,1746262910025
NMEA,$GNGGA,090150.00,4503.498392,N,00741.485720,E,1,12,0.6,224.9,M,48.0,M,,*7A,1746262910025
NMEA,$GPGSV,3,1,12,05,21,057,37,16,34,305,30,18,71,147,39,20,04,028,33,1*6B,1746262911014
NMEA,$GPGSV,3,2,12,23,12,145,41,25,16,129,40,26,62,297,42,27,11,265,35,1*67,1746262911014
NMEA,$GPGSV,3,3,12,28,27,204,36,29,42,064,40,31,42,231,42,04,00,000,,1*66,1746262911014
NMEA,$GLGSV,3,1,09,74,73,306,35,66,05,355,18,73,53,158,41,75,20,324,30,1*75,1746262911014
NMEA,$GLGSV,3,2,09,84,69,237,29,83,38,035,27,85,17,226,36,67,05,044,33,1*71,1746262911014
NMEA,$GLGSV,3,3,09,80,01,148,,1*45,1746262911014
NMEA,$GAGSV,3,1,12,03,04,308,,05,01,262,,10,35,195,,11,10,204,,7*71,1746262911014
NMEA,$GAGSV,3,2,12,12,57,176,,16,38,305,,23,06,122,,24,66,307,,7*7E,1746262911014
NMEA,$GAGSV,3,3,12,25,15,304,,26,07,037,,31,56,119,,33,52,059,,7*70,1746262911014
NMEA,$GBGSV,4,1,15,45,54,181,43,38,23,043,35,36,10,154,42,35,50,241,42,1*73,1746262911014
NMEA,$GBGSV,4,2,15,32,04,052,27,30,11,057,35,29,64,053,39,26,51,293,44,1*79,1746262911014
NMEA,$GBGSV,4,3,15,24,07,319,24,13,34,072,34,08,31,053,32,05,17,120,34,1*74,1746262911014
NMEA,$GBGSV,4,4,15,02,00,000,,44,05,239,,60,04,101,,1*4F,1746262911014
NMEA,$GNGSA,A,3,05,16,18,23,25,26,27,28,29,31,,,0.9,0.6,0.6,1*37,1746262911030
NMEA,$GNGSA,A,3,05,08,13,24,26,29,30,35,36,38,45,,0.9,0.6,0.6,4*31,1746262911030
NMEA,$GNVTG,305.6,T,302.3,M,2.6,N,4.9,K,A*36,1746262911030
NMEA,$GNDTM,P90,,0000.000026,S,00000.000000,E,0.978,W84*5C,1746262911030
NMEA,$GNRMC,090151.00,A,4503.498751,N,00741.484910,E,2.6,305.6,030525,3.3,E,A,V*5E,1746262911030
NMEA,$GNGNS,090151.00,4503.498751,N,00741.484910,E,ANNANN,21,0.6,225.7,48.0,,,V*23,1746262911030
NMEA,$GNGGA,090151.00,4503.498751,N,00741.484910,E,1,12,0.6,225.7,M,48.0,M,,*73,1746262911030
NMEA,$GPGSV,3,1,12,05,21,057,35,16,34,305,34,18,71,147,39,20,04,028,31,1*6F,1746262912020
NMEA,$GPGSV,3,2,12,23,12,145,43,25,16,129,40,26,62,297,43,27,11,265,33,1*62,1746262912020
NMEA,$GPGSV,3,3,12,28,27,204,35,29,42,064,37,31,42,231,40,04,00,000,,1*67,1746262912020
NMEA,$GLGSV,3,1,09,74,73,306,38,66,05,355,18,73,53,158,39,75,20,324,29,1*7F,1746262912020
NMEA,$GLGSV,3,2,09,84,69,237,32,83,38,035,28,85,17,226,33,67,05,044,34,1*76,1746262912020
NMEA,$GLGSV,3,3,09,80,01,148,,1*45,1746262912020
NMEA,$GAGSV,3,1,12,03,04,308,,05,01,262,,10,35,195,,11,10,204,,7*71,1746262912020
NMEA,$GAGSV,3,2,12,12,57,176,,16,38,305,,23,06,122,,24,66,307,,7*7E,1746262912020
NMEA,$GAGSV,3,3,12,25,15,304,,26,07,037,,31,56,119,,33,52,059,,7*70,1746262912020
NMEA,$GBGSV,4,1,15,45,54,181,41,38,23,043,36,36,10,154,41,35,50,241,42,1*71,1746262912020
NMEA,$GBGSV,4,2,15,32,04,052,31,30,11,057,35,29,64,053,40,26,51,293,43,1*77,1746262912020
NMEA,$GBGSV,4,3,15,24,07,319,24,13,34,072,37,08,31,053,32,05,17,120,33,1*70,1746262912020
NMEA,$GBGSV,4,4,15,02,00,000,,44,05,239,,60,04,101,,1*4F,1746262912020
NMEA,$GNGSA,A,3,05,16,18,23,25,26,27,28,29,31,,,0.9,0.6,0.6,1*37,1746262912033
NMEA,$GNGSA,A,3,05,08,13,24,26,29,30,35,36,38,45,,0.9,0.6,0.6,4*31,1746262912033
NMEA,$GNVTG,303.5,T,300.2,M,2.5,N,4.6,K,A*3C,1746262912033
NMEA,$GNDTM,P90,,0000.000026,S,00000.000000,E,0.978,W84*5C,1746262912033
NMEA,$GNRMC,090152.00,A,4503.499173,N,00741.484208,E,2.5,303.5,030525,3.3,E,A,V*5E,1746262912033
NMEA,$GNGNS,090152.00,4503.499173,N,00741.484208,E,ANNANN,21,0.6,225.2,48.0,,,V*20,1746262912033
NMEA,$GNGGA,090152.00,4503.499173,N,00741.484208,E,1,12,0.6,225.2,M,48.0,M,,*70,1746262912033
NMEA,$GPGSV,3,1,12,05,21,057,35,16,34,305,35,18,71,147,37,20,04,028,31,1*60,1746262913017
NMEA,$GPGSV,3,2,12,23,12,145,44,25,16,129,39,26,62,297,43,27,11,265,33,1*6B,1746262913017
NMEA,$GPGSV,3,3,12,28,27,204,37,29,42,064,41,31,42,231,41,04,00,000,,1*65,1746262913017
NMEA,$GLGSV,3,1,09,74,73,306,37,66,05,355,18,73,53,158,38,75,20,324,28,1*70,1746262913017
NMEA,$GLGSV,3,2,09,84,69,237,30,83,38,035,27,85,17,226,30,67,05,044,34,1*78,1746262913017
NMEA,$GLGSV,3,3,09,80,01,148,,1*45,1746262913017
NMEA,$GAGSV,3,1,12,03,04,308,,05,01,262,,10,35,195,,11,10,204,,7*71,1746262913017
NMEA,$GAGSV,3,2,12,12,57,176,,16,38,305,,23,06,122,,24,66,307,,7*7E,1746262913017
NMEA,$GAGSV,3,3,12,25,15,304,,26,07,037,,31,56,119,,33,52,059,,7*70,1746262913017
NMEA,$GBGSV,4,1,15,45,54,181,41,38,23,043,34,36,10,154,40,35,50,241,40,1*70,1746262913017
NMEA,$GBGSV,4,2,15,32,04,052,30,30,11,057,34,29,64,053,41,26,51,293,46,1*73,1746262913017
NMEA,$GBGSV,4,3,15,24,07,319,23,13,34,072,36,08,31,053,33,05,17,120,35,1*71,1746262913017
NMEA,$GBGSV,4,4,15,02,00,000,,44,05,239,,60,04,101,,1*4F,1746262913017
NMEA,$GNGSA,A,3,05,16,18,23,25,26,27,28,29,31,,,0.9,0.6,0.6,1*37,1746262913035
NMEA,$GNGSA,A,3,05,08,13,24,26,29,30,35,36,38,45,,0.9,0.6,0.6,4*31,1746262913035
NMEA,$GNVTG,303.4,T,300.1,M,2.5,N,4.6,K,A*3E,1746262913035
NMEA,$GNDTM,P90,,0000.000026,S,00000.000000,E,0.978,W84*5C,1746262913035
NMEA,$GNRMC,090153.00,A,4503.499526,N,00741.483522,E,2.5,303.4,030525,3.3,E,A,V*52,1746262913035
NMEA,$GNGNS,090153.00,4503.499526,N,00741.483522,E,ANNANN,21,0.6,224.7,48.0,,,V*29,1746262913035
NMEA,$GNGGA,090153.00,4503.499526,N,00741.483522,E,1,12,0.6,224.7,M,48.0,M,,*79,1746262913035
NMEA,$GPGSV,3,1,12,05,21,057,34,16,34,305,35,18,71,147,40,20,04,028,27,1*66,1746262914027
NMEA,$GPGSV,3,2,12,23,12,145,42,25,16,129,39,26,62,297,44,27,11,265,31,1*68,1746262914027
NMEA,$GPGSV,3,3,12,28,27,204,38,29,42,064,40,31,42,231,40,04,00,000,,1*6A,1746262914027
NMEA,$GLGSV,3,1,09,74,73,306,35,66,05,355,18,73,53,158,41,75,20,324,31,1*74,1746262914027
NMEA,$GLGSV,3,2,09,84,69,237,28,83,38,035,27,85,17,226,32,67,05,044,34,1*73,1746262914027
NMEA,$GLGSV,3,3,09,80,01,148,,1*45,1746262914027
NMEA,$GAGSV,3,1,12,03,04,308,,05,01,262,,10,35,195,,11,10,204,,7*71,1746262914027
NMEA,$GAGSV,3,2,12,12,57,176,,16,38,305,,23,06,122,,24,66,307,,7*7E,1746262914027
NMEA,$GAGSV,3,3,12,25,15,304,,26,07,037,,31,56,119,,33,52,059,,7*70,1746262914027
NMEA,$GBGSV,4,1,15,45,54,181,40,38,23,043,36,36,10,154,41,35,50,241,42,1*70,1746262914027
NMEA,$GBGSV,4,2,15,32,04,052,26,30,11,057,33,29,64,053,43,26,51,293,45,1*72,1746262914027
NMEA,$GBGSV,4,3,15,24,07,319,24,13,34,072,37,08,31,053,32,05,17,120,36,1*75,1746262914027
NMEA,$GBGSV,4,4,15,02,00,000,,44,05,239,,60,04,101,,1*4F,1746262914027
NMEA,$GNGSA,A,3,05,16,18,23,25,26,27,28,29,31,,,0.9,0.6,0.6,1*37,1746262914042
NMEA,$GNGSA,A,3,05,08,13,24,26,29,30,35,36,38,45,,0.9,0.6,0.6,4*31,1746262914042
NMEA,$GNVTG,296.3,T,293.0,M,2.4,N,4.5,K,A*3C,1746262914042
NMEA,$GNDTM,P90,,0000.000026,S,00000.000000,E,0.978,W84*5C,1746262914042
NMEA,$GNRMC,090154.00,A,4503.499749,N,00741.482764,E,2.4,296.3,030525,3.3,E,A,V*54,1746262914042
NMEA,$GNGNS,090154.00,4503.499749,N,00741.482764,E,ANNANN,21,0.6,225.2,48.0,,,V*20,1746262914042
NMEA,$GNGGA,090154.00,4503.499749,N,00741.482764,E,1,12,0.6,225.2,M,48.0,M,,*70,1746262914042
NMEA,$GPGSV,3,1,12,05,21,057,34,16,34,305,39,18,71,147,40,20,04,028,27,1*6A,1746262915034
NMEA,$GPGSV,3,2,12,23,12,145,43,25,16,129,37,26,62,297,44,27,11,265,29,1*6E,1746262915034
NMEA,$GPGSV,3,3,12,28,27,204,38,29,42,064,38,31,42,231,42,04,00,000,,1*67,1746262915034
NMEA,$GLGSV,3,1,09,74,73,306,37,66,05,355,18,73,53,158,40,75,20,324,35,1*73,1746262915034
NMEA,$GLGSV,3,2,09,84,69,237,27,83,38,035,23,85,17,226,34,67,05,044,27,1*7C,1746262915034
NMEA,$GLGSV,3,3,09,80,01,148,,1*45,1746262915034
NMEA,$GAGSV,3,1,12,03,04,308,,05,01,262,,10,35,195,,11,10,204,,7*71,1746262915034
NMEA,$GAGSV,3,2,12,12,57,176,,16,38,305,,23,06,122,,24,66,307,,7*7E,1746262915034
NMEA,$GAGSV,3,3,12,25,15,304,,26,07,037,,31,56,119,,33,52,059,,7*70,1746262915034
NMEA,$GBGSV,4,1,15,45,54,181,42,38,23,043,31,36,10,154,38,35,50,241,41,1*78,1746262915034
NMEA,$GBGSV,4,2,15,32,04,052,24,30,11,057,32,29,64,053,42,26,51,293,44,1*71,1746262915034
NMEA,$GBGSV,4,3,15,24,07,319,24,13,34,072,37,08,31,053,31,05,17,120,35,1*75,1746262915034
NMEA,$GBGSV,4,4,15,02,00,000,,44,05,239,,60,04,101,,1*4F,1746262915034
NMEA,$GNGSA,A,3,05,16,18,23,25,26,27,28,29,31,,,0.9,0.6,0.7,1*36,1746262915046
NMEA,$GNGSA,A,3,05,08,13,24,26,29,30,35,36,38,45,,0.9,0.6,0.7,4*30,1746262915046
NMEA,$GNVTG,296.3,T,293.0,M,2.4,N,4.4,K,A*3D,1746262915046
NMEA,$GNDTM,P90,,0000.000026,S,00000.000000,E,0.978,W84*5C,1746262915046
NMEA,$GNRMC,090155.00,A,4503.500077,N,00741.481903,E,2.4,296.3,030525,3.3,E,A,V*52,1746262915046
NMEA,$GNGNS,090155.00,4503.500077,N,00741.481903,E,ANNANN,21,0.6,225.7,48.0,,,V*23,1746262915046
NMEA,$GNGGA,090155.00,4503.500077,N,00741.481903,E,1,12,0.6,225.7,M,48.0,M,,*73,1746262915046
NMEA,$GPGSV,3,1,12,05,21,057,31,16,34,305,42,18,71,147,38,20,04,028,27,1*6C,1746262916023
NMEA,$GPGSV,3,2,12,23,12,145,41,25,16,129,38,26,62,297,44,27,11,265,32,1*69,1746262916023
NMEA,$GPGSV,3,3,12,28,27,204,35,29,42,064,32,31,42,231,41,04,00,000,,1*63,1746262916023
NMEA,$GLGSV,3,1,09,74,73,306,38,66,05,355,18,73,53,158,38,75,20,324,35,1*73,1746262916023
NMEA,$GLGSV,3,2,09,84,69,237,27,83,38,035,23,85,17,226,36,67,05,044,26,1*7F,1746262916023
NMEA,$GLGSV,3,3,09,80,01,148,,1*45,1746262916023
NMEA,$GAGSV,3,1,12,03,04,308,,05,01,262,,10,35,195,,11,10,204,,7*71,1746262916023
NMEA,$GAGSV,3,2,12,12,57,176,,16,38,305,,23,06,122,,24,66,307,,7*7E,1746262916023
NMEA,$GAGSV,3,3,12,25,15,304,,26,07,037,,31,56,119,,33,52,059,,7*70,1746262916023
NMEA,$GBGSV,4,1,15,45,54,181,38,38,23,043,29,36,10,154,39,35,50,241,39,1*72,1746262916023
NMEA,$GBGSV,4,2,15,32,04,052,24,30,11,057,30,29,64,053,32,26,51,293,46,1*76,1746262916023
NMEA,$GBGSV,4,3,15,24,07,319,24,13,34,072,31,08,31,053,26,05,17,120,33,1*73,1746262916023
NMEA,$GBGSV,4,4,15,02,00,000,,44,05,239,,60,04,101,,1*4F,1746262916023
NMEA,$GNGSA,A,3,05,16,18,23,25,26,27,28,29,31,,,0.9,0.6,0.7,1*36,1746262916035
NMEA,$GNGSA,A,3,05,08,13,24,26,29,30,35,36,38,45,,0.9,0.6,0.7,4*30,1746262916035
NMEA,$GNVTG,293.2,T,289.9,M,2.4,N,4.4,K,A*3B,1746262916035
NMEA,$GNDTM,P90,,0000.000026,S,00000.000000,E,0.978,W84*5C,1746262916035
NMEA,$GNRMC,090156.00,A,4503.500315,N,00741.481015,E,2.4,293.2,030525,3.3,E,A,V*5C,1746262916035
NMEA,$GNGNS,090156.00,4503.500315,N,00741.481015,E,ANNANN,21,0.6,225.5,48.0,,,V*2B,1746262916035
NMEA,$GNGGA,090156.00,4503.500315,N,00741.481015,E,1,12,0.6,225.5,M,48.0,M,,*7B,1746262916035
NMEA,$GPGSV,3,1,12,05,21,057,28,16,34,305,41,18,71,147,36,20,04,028,22,1*6C,1746262917025
NMEA,$GPGSV,3,2,12,23,12,145,40,25,16,129,37,26,62,297,44,27,11,265,29,1*6D,1746262917025
NMEA,$GPGSV,3,3,12,28,27,204,37,29,42,064,30,31,42,231,41,04,00,000,,1*63,1746262917025
NMEA,$GLGSV,3,1,09,74,73,306,37,66,05,355,16,73,53,158,39,75,20,324,40,1*71,1746262917025
NMEA,$GLGSV,3,2,09,84,69,237,26,83,38,035,23,85,17,226,31,67,05,044,28,1*77,1746262917025
NMEA,$GLGSV,3,3,09,80,01,148,,1*45,1746262917025
NMEA,$GAGSV,3,1,12,03,04,308,,05,01,262,,10,35,195,,11,10,204,,7*71,1746262917025
NMEA,$GAGSV,3,2,12,12,57,176,,16,38,305,,23,06,122,,24,66,307,,7*7E,1746262917025
NMEA,$GAGSV,3,3,12,25,15,304,,26,07,037,,31,56,119,,33,52,059,,7*70,1746262917025
NMEA,$GBGSV,4,1,15,45,54,181,40,38,23,043,26,36,10,154,38,35,50,241,43,1*7E,1746262917025
NMEA,$GBGSV,4,2,15,32,04,052,24,30,11,057,29,29,64,053,28,26,51,293,44,1*77,1746262917025
NMEA,$GBGSV,4,3,15,24,07,319,22,13,34,072,29,08,31,053,25,05,17,120,33,1*7F,1746262917025
NMEA,$GBGSV,4,4,15,02,00,000,,44,05,239,,60,04,101,,1*4F,1746262917025
NMEA,$GNGSA,A,3,05,16,18,23,25,26,27,28,29,31,,,0.9,0.6,0.7,1*36,1746262917041
NMEA,$GNGSA,A,3,05,08,13,24,26,29,30,35,36,38,45,,0.9,0.6,0.7,4*30,1746262917041
NMEA,$GNVTG,266.5,T,263.2,M,2.6,N,4.9,K,A*36,1746262917041
NMEA,$GNDTM,P90,,0000.000026,S,00000.000000,E,0.978,W84*5C,1746262917041
NMEA,$GNRMC,090157.00,A,4503.500138,N,00741.479887,E,2.6,266.5,030525,3.3,E,A,V*5B,1746262917041
NMEA,$GNGNS,090157.00,4503.500138,N,00741.479887,E,ANNANN,21,0.6,225.4,48.0,,,V*22,1746262917041
NMEA,$GNGGA,090157.00,4503.500138,N,00741.479887,E,1,12,0.6,225.4,M,48.0,M,,*72,1746262917041
NMEA,$GPGSV,3,1,12,05,21,057,30,16,34,305,41,18,71,147,39,20,04,028,27,1*6F,1746262918019
NMEA,$GPGSV,3,2,12,23,12,145,43,25,16,129,37,26,62,297,43,28,27,204,37,1*6B,1746262918019
NMEA,$GPGSV,3,3,12,29,42,064,29,31,42,231,41,04,00,000,,27,11,265,,1*62,1746262918019
NMEA,$GLGSV,3,1,09,74,73,306,38,66,05,355,16,73,53,158,38,75,20,324,42,1*7D,1746262918019
NMEA,$GLGSV,3,2,09,84,69,237,30,83,38,035,23,85,17,226,29,67,05,044,31,1*71,1746262918019
NMEA,$GLGSV,3,3,09,80,01,148,,1*45,1746262918019
NMEA,$GAGSV,3,1,12,03,04,308,,05,01,262,,10,35,195,,11,10,204,,7*71,1746262918019
NMEA,$GAGSV,3,2,12,12,57,176,,16,38,305,,23,06,122,,24,66,307,,7*7E,1746262918019
NMEA,$GAGSV,3,3,12,25,15,304,,26,07,037,,31,56,119,,33,52,059,,7*70,1746262918019
NMEA,$GBGSV,4,1,15,45,54,181,43,38,23,043,30,36,10,154,38,35,50,241,42,1*7B,1746262918019
NMEA,$GBGSV,4,2,15,32,04,052,23,30,11,057,30,29,64,053,33,26,51,293,43,1*75,1746262918019
NMEA,$GBGSV,4,3,15,24,07,319,29,13,34,072,25,08,31,053,25,05,17,120,35,1*7E,1746262918019
NMEA,$GBGSV,4,4,15,02,00,000,,44,05,239,,60,04,101,,1*4F,1746262918019
NMEA,$GNGSA,A,3,05,16,18,23,25,26,27,28,29,31,,,0.9,0.6,0.7,1*36,1746262918031
NMEA,$GNGSA,A,3,05,08,13,24,26,29,30,35,36,38,45,,0.9,0.6,0.7,4*30,1746262918031
NMEA,$GNVTG,257.1,T,253.8,M,2.4,N,4.4,K,A*36,1746262918031
NMEA,$GNDTM,P90,,0000.000026,S,00000.000000,E,0.978,W84*5C,1746262918031
NMEA,$GNRMC,090158.00,A,4503.499813,N,00741.478848,E,2.4,257.1,030525,3.3,E,A,V*53,1746262918031
NMEA,$GNGNS,090158.00,4503.499813,N,00741.478848,E,ANNANN,21,0.6,225.1,48.0,,,V*2B,1746262918031
NMEA,$GNGGA,090158.00,4503.499813,N,00741.478848,E,1,12,0.6,225.1,M,48.0,M,,*7B,1746262918031
NMEA,$GPGSV,3,1,12,05,21,057,35,16,34,305,41,18,71,147,38,20,04,028,23,1*6F,1746262919025
NMEA,$GPGSV,3,2,12,23,12,145,43,25,16,129,39,26,62,297,41,28,27,204,37,1*67,1746262919025
NMEA,$GPGSV,3,3,12,29,42,064,34,31,42,231,41,04,00,000,,27,11,265,,1*6E,1746262919025
NMEA,$GLGSV,3,1,09,74,73,306,35,66,05,355,16,73,53,158,41,75,20,324,43,1*7F,1746262919025
NMEA,$GLGSV,3,2,09,84,69,237,29,83,38,035,25,85,17,226,31,67,05,044,32,1*75,1746262919025
NMEA,$GLGSV,3,3,09,80,01,148,,1*45,1746262919025
NMEA,$GAGSV,3,1,12,03,04,308,,05,01,262,,10,35,195,,11,10,204,,7*71,1746262919025
NMEA,$GAGSV,3,2,12,12,57,176,,16,38,305,,23,06,122,,24,66,307,,7*7E,1746262919025
NMEA,$GAGSV,3,3,12,25,15,304,,26,07,037,,31,56,119,,33,52,059,,7*70,1746262919025
NMEA,$GBGSV,4,1,15,45,54,181,42,38,23,043,35,36,10,154,39,35,50,241,42,1*7E,1746262919025
NMEA,$GBGSV,4,2,15,32,04,052,29,30,11,057,33,29,64,053,40,26,51,293,40,1*7B,1746262919025
NMEA,$GBGSV,4,3,15,24,07,319,28,13,34,072,26,08,31,053,33,05,17,120,35,1*7B,1746262919025
NMEA,$GBGSV,4,4,15,02,00,000,,44,05,239,,60,04,101,,1*4F,1746262919025
NMEA,$GNGSA,A,3,05,16,18,23,25,26,27,28,29,31,,,0.9,0.6,0.7,1*36,1746262919031
NMEA,$GNGSA,A,3,05,08,13,24,26,29,30,35,36,38,45,,0.9,0.6,0.7,4*30,1746262919031
NMEA,$GNVTG,279.8,T,276.5,M,2.5,N,4.6,K,A*3A,1746262919031
NMEA,$GNDTM,P90,,0000.000026,S,00000.000000,E,0.978,W84*5C,1746262919031
NMEA,$GNRMC,090159.00,A,4503.499786,N,00741.477873,E,2.5,279.8,030525,3.3,E,A,V*52,1746262919031
NMEA,$GNGNS,090159.00,4503.499786,N,00741.477873,E,ANNANN,21,0.6,223.8,48.0,,,V*21,1746262919031
NMEA,$GNGGA,090159.00,4503.499786,N,00741.477873,E,1,12,0.6,223.8,M,48.0,M,,*71,1746262919031
NMEA,$GPGSV,3,1,12,05,21,057,39,16,34,305,40,18,71,147,39,20,04,028,23,1*63,1746262920017
NMEA,$GPGSV,3,2,12,23,12,145,40,25,16,129,40,26,62,297,42,28,27,204,35,1*6B,1746262920017
NMEA,$GPGSV,3,3,12,29,42,064,34,31,42,231,39,04,00,000,,27,11,265,,1*61,1746262920017
NMEA,$GLGSV,3,1,09,74,73,306,33,66,05,355,21,73,53,158,36,75,20,324,44,1*7A,1746262920017
NMEA,$GLGSV,3,2,09,84,69,237,28,83,38,035,26,85,17,226,31,67,05,044,31,1*74,1746262920017
NMEA,$GLGSV,3,3,09,80,01,148,,1*45,1746262920017
NMEA,$GAGSV,3,1,12,03,04,308,,05,01,262,,10,35,195,,11,10,204,,7*71,1746262920017
NMEA,$GAGSV,3,2,12,12,57,176,,16,38,305,,23,06,122,,24,66,307,,7*7E,1746262920017
NMEA,$GAGSV,3,3,12,25,15,304,,26,07,037,,31,56,119,,33,52,059,,7*70,1746262920017
NMEA,$GBGSV,4,1,15,45,54,181,39,38,23,043,35,36,10,154,40,35,50,241,41,1*7F,1746262920017
NMEA,$GBGSV,4,2,15,32,04,052,30,30,11,057,36,29,64,053,41,26,51,293,41,1*76,1746262920017
NMEA,$GBGSV,4,3,15,24,07,319,32,13,34,072,29,08,31,053,33,05,17,120,35,1*7F,1746262920017
NMEA,$GBGSV,4,4,15,02,00,000,,44,05,239,,60,04,101,,1*4F,1746262920017
NMEA,$GNGSA,A,3,05,16,18,23,25,26,27,28,29,31,,,0.9,0.6,0.7,1*36,1746262920024
NMEA,$GNGSA,A,3,05,08,13,24,26,29,30,35,36,38,45,,0.9,0.6,0.7,4*30,1746262920024
NMEA,$GNVTG,262.9,T,259.6,M,2.4,N,4.5,K,A*3D,1746262920024
NMEA,$GNDTM,P90,,0000.000026,S,00000.000000,E,0.978,W84*5C,1746262920024
NMEA,$GNRMC,090200.00,A,4503.499692,N,00741.477024,E,2.4,262.9,030525,3.3,E,A,V*59,1746262920024
NMEA,$GNGNS,090200.00,4503.499692,N,00741.477024,E,ANNANN,21,0.6,222.0,48.0,,,V*29,1746262920024
NMEA,$GNGGA,090200.00,4503.499692,N,00741.477024,E,1,12,0.6,222.0,M,48.0,M,,*79,1746262920024
NMEA,$GPGSV,3,1,12,05,21,057,36,16,34,305,39,18,71,147,38,20,04,028,23,1*63,1746262921021
NMEA,$GPGSV,3,2,12,23,12,145,40,25,16,129,37,26,62,297,43,27,11,265,28,1*6B,1746262921021
NMEA,$GPGSV,3,3,12,28,27,204,35,29,42,064,38,31,42,231,40,04,00,000,,1*68,1746262921021
NMEA,$GLGSV,3,1,09,74,73,306,36,66,05,355,21,73,53,158,39,75,20,324,45,1*71,1746262921021
NMEA,$GLGSV,3,2,09,84,69,237,28,83,38,035,29,85,17,226,30,67,05,044,32,1*79,1746262921021
NMEA,$GLGSV,3,3,09,80,01,148,,1*45,1746262921021
NMEA,$GAGSV,3,1,12,03,04,308,,05,01,262,,10,35,195,,11,10,204,,7*71,1746262921021
NMEA,$GAGSV,3,2,12,12,57,176,,16,38,305,,23,06,122,,24,66,307,,7*7E,1746262921021
NMEA,$GAGSV,3,3,12,25,15,304,,26,07,037,,31,56,119,,33,52,059,,7*70,1746262921021
NMEA,$GBGSV,4,1,15,45,54,181,40,38,23,043,39,36,10,154,41,35,50,241,39,1*73,1746262921021
NMEA,$GBGSV,4,2,15,32,04,052,30,30,11,057,39,29,64,053,40,26,51,293,43,1*7A,1746262921021
NMEA,$GBGSV,4,3,15,24,07,319,26,13,34,072,34,08,31,053,34,05,17,120,35,1*71,1746262921021
NMEA,$GBGSV,4,4,15,02,00,000,,44,05,239,,60,04,101,,1*4F,1746262921021
NMEA,$GNGSA,A,3,05,16,18,23,25,26,27,28,29,31,,,0.9,0.6,0.7,1*36,1746262921031
NMEA,$GNGSA,A,3,05,08,13,24,26,29,30,35,36,38,45,,0.9,0.6,0.7,4*30,1746262921031
NMEA,$GNVTG,257.5,T,254.2,M,1.9,N,3.6,K,A*34,1746262921031
NMEA,$GNDTM,P90,,0000.000026,S,00000.000000,E,0.978,W84*5C,1746262921031
NMEA,$GNRMC,090201.00,A,4503.499541,N,00741.476517,E,1.9,257.5,030525,3.3,E,A,V*55,1746262921031
NMEA,$GNGNS,090201.00,4503.499541,N,00741.476517,E,ANNANN,21,0.6,220.7,48.0,,,V*24,1746262921031
NMEA,$GNGGA,090201.00,4503.499541,N,00741.476517,E,1,12,0.6,220.7,M,48.0,M,,*74,1746262921031
NMEA,$GPGSV,3,1,12,05,21,057,37,16,34,305,39,18,71,147,35,20,04,028,22,1*6E,1746262922019
NMEA,$GPGSV,3,2,12,23,12,145,40,25,16,129,41,26,62,297,43,27,11,265,28,1*6A,1746262922019
NMEA,$GPGSV,3,3,12,28,27,204,34,29,42,064,38,31,42,231,40,04,00,000,,1*69,1746262922019
NMEA,$GLGSV,3,1,09,74,73,306,34,66,05,355,21,73,53,158,39,75,20,324,44,1*72,1746262922019
NMEA,$GLGSV,3,2,09,84,69,237,28,83,38,035,28,85,17,226,29,67,05,044,31,1*73,1746262922019
NMEA,$GLGSV,3,3,09,80,01,148,,1*45,1746262922019
NMEA,$GAGSV,3,1,12,03,04,308,,05,01,262,,10,35,195,,11,10,204,,7*71,1746262922019
NMEA,$GAGSV,3,2,12,12,57,176,,16,38,305,,23,06,122,,24,66,307,,7*7E,1746262922019
NMEA,$GAGSV,3,3,12,25,15,304,,26,07,037,,31,56,119,,33,52,059,,7*70,1746262922019
NMEA,$GBGSV,4,1,15,45,54,181,39,38,23,043,38,36,10,154,39,35,50,241,39,1*73,1746262922019
NMEA,$GBGSV,4,2,15,32,04,052,29,30,11,057,37,29,64,053,40,26,51,293,42,1*7D,1746262922019
NMEA,$GBGSV,4,3,15,24,07,319,26,13,34,072,31,08,31,053,34,05,17,120,33,1*72,1746262922019
NMEA,$GBGSV,4,4,15,02,00,000,,44,05,239,,60,04,101,,1*4F,1746262922019
NMEA,$GNGSA,A,3,05,16,18,23,25,26,27,28,29,31,,,0.9,0.6,0.7,1*36,1746262922031
NMEA,$GNGSA,A,3,05,08,13,24,26,29,30,35,36,38,45,,0.9,0.6,0.7,4*30,1746262922031
NMEA,$GNVTG,277.1,T,273.8,M,2.3,N,4.2,K,A*37,1746262922031
NMEA,$GNDTM,P90,,0000.000026,S,00000.000000,E,0.978,W84*5C,1746262922031
NMEA,$GNRMC,090202.00,A,4503.499682,N,00741.475875,E,2.3,277.1,030525,3.3,E,A,V*5F,1746262922031
NMEA,$GNGNS,090202.00,4503.499682,N,00741.475875,E,ANNANN,21,0.6,221.0,48.0,,,V*27,1746262922031
NMEA,$GNGGA,090202.00,4503.499682,N,00741.475875,E,1,12,0.6,221.0,M,48.0,M,,*77,1746262922031
NMEA,$GPGSV,3,1,12,05,21,057,37,16,34,305,39,18,71,147,38,20,04,028,23,1*62,1746262923020
NMEA,$GPGSV,3,2,12,23,12,145,40,25,16,129,38,26,62,297,43,27,11,265,28,1*64,1746262923020
NMEA,$GPGSV,3,3,12,28,27,204,40,29,42,064,37,31,42,231,38,04,00,000,,1*6A,1746262923020
NMEA,$GLGSV,3,1,09,74,73,306,35,66,05,355,21,73,53,158,38,75,20,324,42,1*74,1746262923020
NMEA,$GLGSV,3,2,09,84,69,237,29,83,38,035,28,85,17,226,27,67,05,044,30,1*7D,1746262923020
NMEA,$GLGSV,3,3,09,80,01,148,,1*45,1746262923020
NMEA,$GAGSV,3,1,12,03,04,308,,05,01,262,,10,35,195,,11,10,204,,7*71,1746262923020
NMEA,$GAGSV,3,2,12,12,57,176,,16,38,305,,23,06,122,,24,66,307,,7*7E,1746262923020
NMEA,$GAGSV,3,3,12,25,15,304,,26,07,037,,31,56,119,,33,52,059,,7*70,1746262923020
NMEA,$GBGSV,4,1,15,45,54,181,41,38,23,043,33,36,10,154,41,35,50,241,39,1*78,1746262923020
NMEA,$GBGSV,4,2,15,32,04,052,33,30,11,057,35,29,64,053,39,26,51,293,42,1*7A,1746262923020
NMEA,$GBGSV,4,3,15,24,07,319,27,13,34,072,34,08,31,053,32,05,17,120,34,1*77,1746262923020
NMEA,$GBGSV,4,4,15,02,00,000,,44,05,239,,60,04,101,,1*4F,1746262923020
NMEA,$GNGSA,A,3,05,16,18,23,25,26,27,28,29,31,,,0.9,0.6,0.7,1*36,1746262923033
NMEA,$GNGSA,A,3,05,08,13,24,26,29,30,35,36,38,45,,0.9,0.6,0.7,4*30,1746262923033
NMEA,$GNVTG,269.3,T,266.0,M,2.1,N,3.8,K,A*39,1746262923033
NMEA,$GNDTM,P90,,0000.000026,S,00000.000000,E,0.978,W84*5C,1746262923033
NMEA,$GNRMC,090203.00,A,4503.499799,N,00741.475182,E,2.1,269.3,030525,3.3,E,A,V*5B,1746262923033
NMEA,$GNGNS,090203.00,4503.499799,N,00741.475182,E,ANNANN,21,0.6,221.1,48.0,,,V*2D,1746262923033
NMEA,$GNGGA,090203.00,4503.499799,N,00741.475182,E,1,12,0.6,221.1,M,48.0,M,,*7D,1746262923033
NMEA,$GPGSV,3,1,12,05,21,057,38,16,34,305,39,18,71,147,38,20,04,028,28,1*66,1746262924032
NMEA,$GPGSV,3,2,12,23,12,145,42,25,16,129,37,26,62,297,43,27,11,265,28,1*69,1746262924032
NMEA,$GPGSV,3,3,12,28,27,204,35,29,42,064,39,31,42,231,39,04,00,000,,1*67,1746262924032
NMEA,$GLGSV,3,1,09,74,73,306,38,66,05,355,21,73,53,158,37,75,20,324,46,1*72,1746262924032
NMEA,$GLGSV,3,2,09,84,69,237,28,83,38,035,29,85,17,226,30,67,05,044,31,1*7A,1746262924032
NMEA,$GLGSV,3,3,09,80,01,148,,1*45,1746262924032
NMEA,$GAGSV,3,1,12,03,04,308,,05,01,262,,10,35,195,,11,10,204,,7*71,1746262924032
NMEA,$GAGSV,3,2,12,12,57,176,,16,38,305,,23,06,122,,24,66,307,,7*7E,1746262924032
NMEA,$GAGSV,3,3,12,25,15,304,,26,07,037,,31,56,119,,33,52,059,,7*70,1746262924032
NMEA,$GBGSV,4,1,16,47,00,000,39,45,54,181,39,38,23,043,39,36,10,154,40,1*78,1746262924032
NMEA,$GBGSV,4,2,16,35,50,241,39,32,04,052,34,30,11,057,38,29,64,053,41,1*7C,1746262924032
NMEA,$GBGSV,4,3,16,26,51,293,43,24,07,319,28,13,34,072,36,08,31,053,34,1*77,1746262924032
NMEA,$GBGSV,4,4,16,05,17,120,34,02,00,000,,44,05,239,,60,04,101,,1*7B,1746262924032
NMEA,$GNGSA,A,3,05,16,18,23,25,26,27,28,29,31,,,0.9,0.6,0.7,1*36,1746262924048
NMEA,$GNGSA,A,3,05,08,13,24,26,29,30,35,36,38,45,,0.9,0.6,0.7,4*30,1746262924048
NMEA,$GNVTG,276.2,T,272.9,M,2.2,N,4.0,K,A*36,1746262924048
NMEA,$GNDTM,P90,,0000.000026,S,00000.000000,E,0.978,W84*5C,1746262924048
NMEA,$GNRMC,090204.00,A,4503.499951,N,00741.474357,E,2.2,276.2,030525,3.3,E,A,V*51,1746262924048
NMEA,$GNGNS,090204.00,4503.499951,N,00741.474357,E,ANNANN,21,0.6,220.9,48.0,,,V*22,1746262924048
NMEA,$GNGGA,090204.00,4503.499951,N,00741.474357,E,1,12,0.6,220.9,M,48.0,M,,*72,1746262924048
NMEA,$GPGSV,3,1,12,05,21,057,38,16,34,305,39,18,71,147,39,20,04,028,26,1*69,1746262925016
NMEA,$GPGSV,3,2,12,23,12,145,43,25,16,129,36,26,62,297,43,28,27,204,35,1*68,1746262925016
NMEA,$GPGSV,3,3,12,29,42,064,38,31,42,231,40,04,00,000,,27,11,265,,1*63,1746262925016
NMEA,$GLGSV,3,1,09,74,73,306,35,66,05,355,21,73,53,158,38,75,20,324,46,1*70,1746262925016
NMEA,$GLGSV,3,2,09,84,69,237,28,83,38,035,26,85,17,226,29,67,05,044,30,1*7C,1746262925016
NMEA,$GLGSV,3,3,09,80,01,148,,1*45,1746262925016
NMEA,$GAGSV,3,1,12,03,04,308,,05,01,262,,10,35,195,,11,10,204,,7*71,1746262925016
NMEA,$GAGSV,3,2,12,12,57,176,,16,38,305,,23,06,122,,24,66,307,,7*7E,1746262925016
NMEA,$GAGSV,3,3,12,25,15,304,,26,07,037,,31,56,119,,33,52,059,,7*70,1746262925016
NMEA,$GBGSV,4,1,16,47,00,000,39,45,54,181,39,38,23,043,32,36,10,154,40,1*73,1746262925016
NMEA,$GBGSV,4,2,16,35,50,241,41,32,04,052,30,30,11,057,35,29,64,053,39,1*75,1746262925016
NMEA,$GBGSV,4,3,16,26,51,293,41,24,07,319,27,13,34,072,32,08,31,053,28,1*73,1746262925016
NMEA,$GBGSV,4,4,16,05,17,120,32,02,00,000,,44,05,239,,60,04,101,,1*7D,1746262925016
NMEA,$GNGSA,A,3,05,16,18,23,25,26,27,28,29,31,,,0.9,0.6,0.7,1*36,1746262925029
NMEA,$GNGSA,A,3,05,08,13,24,26,29,30,35,36,38,45,,0.9,0.6,0.7,4*30,1746262925029
NMEA,$GNVTG,302.1,T,298.8,M,2.8,N,5.1,K,A*38,1746262925029
NMEA,$GNDTM,P90,,0000.000026,S,00000.000000,E,0.978,W84*5C,1746262925029
NMEA,$GNRMC,090205.00,A,4503.500495,N,00741.473420,E,2.8,302.1,030525,3.3,E,A,V*5F,1746262925029
NMEA,$GNGNS,090205.00,4503.500495,N,00741.473420,E,ANNANN,21,0.6,221.9,48.0,,,V*26,1746262925029
NMEA,$GNGGA,090205.00,4503.500495,N,00741.473420,E,1,12,0.6,221.9,M,48.0,M,,*76,1746262925029
NMEA,$GPGSV,3,1,12,05,21,057,35,16,34,305,39,18,71,147,40,20,04,028,27,1*6B,1746262926034
NMEA,$GPGSV,3,2,12,23,12,145,43,25,16,129,36,26,62,297,41,28,27,204,37,1*68,1746262926034
NMEA,$GPGSV,3,3,12,29,42,064,38,31,42,231,38,04,00,000,,27,11,265,,1*6C,1746262926034
NMEA,$GLGSV,3,1,09,74,73,306,35,66,05,355,21,73,53,158,38,75,20,324,44,1*72,1746262926034
NMEA,$GLGSV,3,2,09,84,69,237,29,83,38,035,27,85,17,226,27,67,05,044,28,1*7B,1746262926034
NMEA,$GLGSV,3,3,09,80,01,148,,1*45,1746262926034
NMEA,$GAGSV,3,1,12,03,04,308,,05,01,262,,10,35,195,,11,10,204,,7*71,1746262926034
NMEA,$GAGSV,3,2,12,12,57,176,,16,38,305,,23,06,122,,24,66,307,,7*7E,1746262926034
NMEA,$GAGSV,3,3,12,25,15,304,,26,07,037,,31,56,119,,33,52,059,,7*70,1746262926034
NMEA,$GBGSV,4,1,16,47,00,000,40,45,54,181,41,38,23,043,35,36,10,154,40,1*75,1746262926034
NMEA,$GBGSV,4,2,16,35,50,241,41,32,04,052,30,30,11,057,36,29,64,053,40,1*78,1746262926034
NMEA,$GBGSV,4,3,16,26,51,293,41,24,07,319,25,13,34,072,33,08,31,053,32,1*7B,1746262926034
NMEA,$GBGSV,4,4,16,05,17,120,32,02,00,000,,44,05,239,,60,04,101,,1*7D,1746262926034
NMEA,$GNGSA,A,3,05,16,18,23,25,26,27,28,29,31,,,0.9,0.6,0.7,1*36,1746262926049
NMEA,$GNGSA,A,3,05,08,13,24,26,29,30,35,36,38,45,,0.9,0.6,0.7,4*30,1746262926049
NMEA,$GNVTG,302.0,T,298.7,M,2.2,N,4.1,K,A*3D,1746262926049
NMEA,$GNDTM,P90,,0000.000026,S,00000.000000,E,0.978,W84*5C,1746262926049
NMEA,$GNRMC,090206.00,A,4503.500965,N,00741.472618,E,2.2,302.0,030525,3.3,E,A,V*5D,1746262926049
NMEA,$GNGNS,090206.00,4503.500965,N,00741.472618,E,ANNANN,21,0.6,223.0,48.0,,,V*24,1746262926049
NMEA,$GNGGA,090206.00,4503.500965,N,00741.472618,E,1,12,0.6,223.0,M,48.0,M,,*74,1746262926049
NMEA,$GPGSV,3,1,12,05,21,057,36,16,34,305,39,18,71,147,39,20,04,028,28,1*69,1746262927013
NMEA,$GPGSV,3,2,12,23,12,145,38,25,16,129,36,26,62,297,43,27,11,265,28,1*65,1746262927013
NMEA,$GPGSV,3,3,12,28,27,204,36,29,42,064,37,31,42,231,39,04,00,000,,1*6A,1746262927013
NMEA,$GLGSV,3,1,09,74,73,306,33,66,05,355,21,73,53,158,37,75,20,324,46,1*79,1746262927013
NMEA,$GLGSV,3,2,09,84,69,237,27,83,38,035,29,85,17,226,25,67,05,044,30,1*70,1746262927013
NMEA,$GLGSV,3,3,09,80,01,148,,1*45,1746262927013
NMEA,$GAGSV,3,1,12,03,04,308,,05,01,262,,10,35,195,,11,10,204,,7*71,1746262927013
NMEA,$GAGSV,3,2,12,12,57,176,,16,38,305,,23,06,122,,24,66,307,,7*7E,1746262927013
NMEA,$GAGSV,3,3,12,25,15,304,,26,07,037,,31,56,119,,33,52,059,,7*70,1746262927013
NMEA,$GBGSV,4,1,16,47,00,000,37,45,54,181,39,38,23,043,31,36,10,154,42,1*7C,1746262927013
NMEA,$GBGSV,4,2,16,35,50,241,39,32,04,052,29,30,11,057,38,29,64,053,40,1*71,1746262927013
NMEA,$GBGSV,4,3,16,26,51,293,41,24,07,319,23,13,34,072,33,08,31,053,33,1*7C,1746262927013
NMEA,$GBGSV,4,4,16,05,17,120,32,02,00,000,,44,05,239,,60,04,101,,1*7D,1746262927013
NMEA,$GNGSA,A,3,05,16,18,23,25,26,27,28,29,31,,,0.9,0.6,0.7,1*36,1746262927027
NMEA,$GNGSA,A,3,05,08,13,24,26,29,30,35,36,38,45,,0.9,0.6,0.7,4*30,1746262927027
NMEA,$GNVTG,301.3,T,298.0,M,2.3,N,4.2,K,A*38,1746262927027
NMEA,$GNDTM,P90,,0000.000026,S,00000.000000,E,0.978,W84*5C,1746262927027
NMEA,$GNRMC,090207.00,A,4503.501413,N,00741.471817,E,2.3,301.3,030525,3.3,E,A,V*52,1746262927027
NMEA,$GNGNS,090207.00,4503.501413,N,00741.471817,E,ANNANN,21,0.6,223.6,48.0,,,V*2C,1746262927027
NMEA,$GNGGA,090207.00,4503.501413,N,00741.471817,E,1,12,0.6,223.6,M,48.0,M,,*7C,1746262927027
NMEA,$GPGSV,3,1,12,05,21,057,37,16,34,305,39,18,71,147,39,20,04,028,32,1*63,1746262928013
