     4.01           OBSERVATION DATA    M                   RINEX VERSION / TYPE
GnssLogger          Xiaomi 12           20250503 091324 UTC PGM / RUN BY / DATE
Google GnssLogger                                           MARKER NAME
Unknown                                                     MARKER NUMBER
Unknown             Unknown                                 OBSERVER / AGENCY
Unknown             GnssLogger          v3.1.0.4            REC # / TYPE / VERS
Unknown             Unknown                                 ANT # / TYPE
        0.0000        0.0000        0.0000                  ANTENNA: DELTA H/E/N
G    6 C1C D1C S1C C5Q D5Q S5Q                              SYS / # / OBS TYPES
R    3 C1C D1C S1C                                          SYS / # / OBS TYPES
C    9 C2I D2I S2I C5P D5P S5P C1P D1P S1P                  SYS / # / OBS TYPES
E    6 C1C D1C S1C C5Q D5Q S5Q                              SYS / # / OBS TYPES
  2025    05    03    09    13   24.0000000     GPS         TIME OF FIRST OBS
 7 R03  5 R09 -2 R10 -7 R11  0 R19  3 R20  2 R21  4         GLONASS SLOT / FRQ #
Xiaomi 2107113SG (Android 12) HW Year: 2018 HW Model:       COMMENT
qcom;MPSS.HI.4.3.c2-00084-LC_ALL_PACK-1.4500.49.6980.77;    COMMENT
                                                            END OF HEADER
> 2025 05 03 09 13 24.4224137  0 24                      
G05  23524877.20125      -761.85725        32.90025
G18  20650077.98326       456.81126        40.20026
G23  23993522.66524      3306.95024        24.10024
G25  24540923.30724     -3626.55224        29.20024
G26  20551325.14926       948.04826        36.80026
G29  22212016.47626     -2418.62926        39.20026
R10  19358647.62224       423.95024        28.60024
R09  20360522.53826     -3075.75526        39.10026
R20  19341860.14424       749.75024        24.70024
C45  22872523.11726     -2338.95326        36.90026
C38  39231770.04625      -153.50625        30.60025
C32  26794024.31824       876.25024        23.60024
C30  26269370.12823     -2974.15023        23.20023
C29  22072797.05526     -1525.40226        38.40026
C26  22652615.75525       912.75025        29.60025
C13  38298406.99926       817.58526        37.60026
C08  38616723.03425       320.47525        31.00025
C05  39807451.31025        84.55025        31.60025
E10  25269805.71224      2582.65024        24.40024
E12  24230456.13925      1534.23225        34.30025
E16  24931006.95823      2051.50023        23.00023
E24  23929020.81825       926.09725        34.80025
E31  24303822.54926     -1631.67126        39.10026
E33  24484612.09125     -1517.24225        33.80025
> 2025 05 03 09 13 25.4224138  0 18                      
G05  23525054.75825      -762.89225        31.70025
G18  20650018.10526       455.82626        38.30026
G25  24541632.69624     -3628.50024        27.50024
G26  20551176.23125       947.11925        35.10025
G29  22212502.81926     -2419.24726        37.30026
R10  19358600.03524       423.80024        27.60024
R09  20361137.19326     -3076.77226        38.10026
C45  22872998.66725     -2339.73125        34.60025
C38  39231825.88725      -154.16025        29.70025
C29  22073122.11026     -1526.06726        37.00026
C26  22652475.23225       911.72525        30.20025
C13  38298282.06625       816.96725        34.70025
C08  38616690.13625       319.69025        29.70025
C05  39807466.37925        71.45025        30.60025
E12  24230195.99925      1533.22925        32.30025
E24  23928876.99825       925.24625        32.20025
E31  24304162.89326     -1632.52026        38.20026
E33  24484931.15025     -1518.28825        32.30025
> 2025 05 03 09 13 26.4224139  0 23                      
G05  23525220.52825      -763.32125        31.50025                                                
G18  20649960.23026       455.44926        39.20026  20647610.75626       339.96426        41.10026
G23  23992339.74924      3303.50024        23.80024  23989987.87724      2466.87824        24.60024
G25  24542378.26524     -3625.45024        28.00024                                                
G26  20551023.32225       946.80425        35.40025  20548665.45526       706.98726        36.10026
G29  22212995.06326     -2419.12326        38.20026                                                
R10  19358567.34224       423.85024        27.00024
R09  20361741.26026     -3077.06226        38.50026
R20  19341625.17124       752.15024        24.30024
C45  22873480.71926     -2339.85826        36.50026  22871590.82725     -1763.45025        34.00025  22873512.19726     -2361.42326        39.50026
C38  39231888.52825      -153.91825        30.60025  39230007.03125      -116.50025        30.40025  39231914.91025      -155.42125        33.60025
C32  26793738.38123       869.50023        23.10023                                                                                                
C29  22073440.17526     -1526.04326        36.80026  22071560.77624     -1150.21824        29.40024  22073477.94926     -1540.16426        37.70026
C26  22652340.01124       910.05024        26.90024  22650449.52023       686.20023        23.00023  22652371.18924       919.70324        29.00024
C13  38298151.64125       817.18325        35.40025                                                                                                
C08  38616665.53825       319.82925        30.10025                                                                                                
E10  25268886.31424      2576.47824        24.20024  25266970.04025      1923.69425        31.40025
E12  24229930.06825      1533.22925        32.60025  24228016.49325      1144.62525        32.30025
E24  23928730.38425       925.31925        32.30025  23926819.50725       690.80125        32.80025
E31  24304504.64126     -1632.33426        37.90026  24302597.66126     -1219.25126        37.00026
E33  24485251.31325     -1518.19125        34.30025  24483340.13624     -1133.96224        28.30024
G28                                                  23586440.24724     -2550.92024        28.20024
E16                                                  24928375.74424      1530.00424        27.30024
> 2025 05 03 09 13 27.4224139  0 25                      
G05  23525375.22925      -765.86325        31.90025                                                
G18  20649879.29426       452.95026        40.30026  20647523.52526       338.17726        39.60026
G23  23991706.29524      3301.35024        28.40024  23989356.82224      2465.37124        24.10024
G25  24543045.61124     -3628.69724        28.90024                                                
G26  20550838.35826       944.38726        37.00026  20548484.98826       705.21126        35.60026
G29  22213460.34926     -2421.23626        38.50026                                                
R10  19358477.41324       420.84224        29.00024
R09  20362321.66626     -3079.59126        39.30026
R20  19341529.54624       743.75024        25.00024
C45  22873929.81626     -2342.10126        37.60026  22872040.22425     -1764.99125        33.30025  22873963.99226     -2363.73326        40.50026
C38  39231915.21825      -156.02225        31.20025  39230037.31824      -117.71524        29.10024  39231941.00025      -157.58025        33.90025
C32  26793586.09423       869.50023        23.40023                                                  26793607.08024       874.07124        26.30024
C30  26271155.16623     -2982.75023        20.80023                                                                                                
C29  22073736.67826     -1528.27626        38.70026  22071853.98124     -1151.95924        28.60024  22073770.25526     -1542.37226        39.70026
C26  22652151.15024       909.70024        28.00024  22650276.54823       685.25023        22.30023  22652193.12125       917.10725        29.90025
C13  38297996.65626       814.98226        36.70026                                                                                                
C08  38616594.49625       317.55225        30.60025                                                                                                
C05  39807463.07525        57.75025        30.10025                                                                                                
E10  25268408.45324      2573.76124        24.60024  25266479.88824      1921.03924        29.30024
E12  24229638.97825      1530.76825        33.10025  24227723.60425      1143.16325        30.60025
E24  23928552.31625       923.04025        34.80025  23926643.53725       689.32225        31.50025
E31  24304815.53426     -1634.76726        38.30026  24302907.65526     -1220.76826        36.20026
E33  24485541.22025     -1520.65125        34.60025  24483629.44424     -1135.69024        27.00024
G28                                                  23587089.90524     -2552.49424        26.60024
E16                                                  24927984.52324      1528.50524        27.70024
> 2025 05 03 09 13 28.4224139  0 23                      
G05  23525515.34225      -764.50425        31.00025                                                
G18  20649791.86426       454.35726        38.60026  20647437.59326       339.36926        41.00026
G23  23991081.93725      3303.48525        31.20025  23988730.36524      2466.87724        27.10024
G25  24543747.53424     -3627.00024        27.30024                                                
G26  20550651.99725       945.82725        34.50025  20548305.52125       706.50025        35.20025
G29  22213923.63826     -2419.49126        37.90026                                                
R10  19358401.37524       419.35024        26.90024
R09  20362897.37626     -3078.11226        36.10026
R19  21490201.86023     -3470.70023        20.10023
C45  22874375.11725     -2340.48825        33.90025  22872489.72225     -1763.85725        34.50025  22874411.69126     -2361.98426        37.10026
C38  39231946.80525      -153.58325        29.70025  39230066.20724      -116.42324        29.40024  39231974.38625      -155.71225        33.00025
C29  22074029.68426     -1526.56926        37.50026  22072149.38625     -1150.23925        29.70025  22074063.26126     -1540.46026        38.20026
C26  22651986.37324       913.75024        26.20024                                                  22652021.74924       919.08124        28.80024
C13  38297840.87326       816.73626        35.60026                                                                                                
C08  38616537.04524       319.50324        29.30024                                                                                                
E10  25267924.99723      2576.30023        22.30023  25265989.53625      1923.40925        30.50025
E12  24229349.48725      1532.48425        31.90025  24227433.21425      1144.56625        31.90025
E24  23928380.64425       924.90925        32.80025  23926467.96825       690.65725        32.10025
E31  24305128.92626     -1632.83826        36.00026  24303219.54826     -1219.39526        35.60026
E33  24485829.13025     -1518.92025        33.60025  24483918.25324     -1133.95124        27.40024
G28                                                  23587741.76324     -2550.80024        24.60024
E16                                                  24927596.10124      1530.03424        28.50024
C32                                                                                                  26793440.20424       874.85024        25.10024
> 2025 05 03 09 13 29.4224139  0 27                      
G05  23525671.61825      -765.26125        35.30025                                                
G18  20649705.90726       453.58526        37.10026  20647351.33727       338.62627        41.90027
G23  23990449.15925      3303.67525        32.10025  23988102.08424      2466.93124        25.20024
G25  24544439.83925     -3627.01125        31.50025                                                
G26  20550481.79926       945.21326        37.80026  20548126.03026       705.84226        36.80026
G29  22214385.40226     -2419.65526        36.70026                                                
R10  19358340.00125       421.04925        29.90025
R09  20363470.66426     -3078.93026        40.00026
R20  19341217.05523       745.90023        20.60023
R19  21490770.95024     -3475.05024        23.80024
R03  23959441.32523      1526.20023        18.20023
C45  22874826.08925     -2340.85425        32.50025  22872940.09426     -1764.29926        35.50026  22874862.66326     -2362.57026        38.30026
C38  39231975.37025      -154.48125        30.90025  39230095.07225      -116.56825        30.30025  39231999.35325      -155.95625        33.20025
C35  22403815.56323      1669.25023        19.80023                                                  22403834.15024      1687.00024        23.60024
C32  26793241.52623       864.90023        21.10023  26791370.22224       655.85124        24.40024                                                
C30  26272301.16623     -2975.35023        20.20023                                                                                                
C29  22074325.66427     -1526.91027        41.80027  22072442.36725     -1150.73925        33.60025  22074356.24227     -1541.00027        42.50027
C26  22651811.37924       910.25024        29.00024  22649924.48524       685.45024        23.60024  22651838.66025       917.86525        30.40025
C13  38297681.76825       816.50425        33.30025                                                                                                
C08  38616477.47025       319.06325        32.20025                                                                                                
E10  25267409.13824      2575.43624        26.30024  25265500.06025      1923.05725        30.70025
E12  24229057.87426      1531.72626        35.90026  24227142.20024      1144.19724        29.40024
E16  24929114.93423      2048.95023        21.60023  24927206.45525      1529.66425        31.30025
E24  23928202.95125       924.33625        33.80025  23926291.77425       690.21625        34.80025
E31  24305438.69626     -1633.38226        38.10026  24303529.91825     -1219.74425        34.30025
E33  24486120.61326     -1519.52826        38.50026  24484208.23725     -1134.76725        35.20025
G28                                                  23588391.19824     -2551.15024        27.00024
> 2025 05 03 09 13 30.4224139  0 28                      
G05  23525813.20225      -765.66325        35.20025                                                
G18  20649619.05026       453.32326        39.80026  20647265.67927       338.60927        41.90027
G23  23989812.78225      3303.61125        31.60025  23987473.50125      2467.13625        29.60025
G25  24545132.74225     -3627.01325        31.60025  24542770.37724     -2707.87024        24.50024
G26  20550304.10426       944.81826        35.50026  20547945.63725       705.77325        35.40025
G29  22214838.47126     -2419.61626        38.80026                                                
R10  19358262.73724       421.30024        26.80024
R09  20364042.15126     -3079.22126        37.80026
R20  19341040.86023       745.95023        22.60023
R19  21491385.00824     -3475.90024        24.10024
C45  22875277.65926     -2341.27226        36.20026  22873389.86526     -1764.35426        35.90026  22875314.53326     -2362.55026        40.20026
C38  39231995.83824      -154.05024        27.70024  39230126.63224      -116.11924        28.80024  39232037.80925      -155.75425        32.70025
C35  22403474.48124      1672.85024        23.90024                                                  22403505.66024      1688.65024        25.60024
C29  22074617.44426     -1527.04826        40.80026  22072735.94725     -1150.57225        33.50025  22074648.02327     -1540.85527        42.80027
C26  22651629.18725       910.12725        29.60025  22649750.38824       685.62524        28.90024  22651663.96325       918.34725        31.80025
C13  38297525.95826       816.47326        36.30026                                                                                                
C08  38616419.09325       319.04525        32.10025                                                                                                
C05  39807420.78024        69.25024        28.50024                                                                                                
E10  25266932.25124      2576.81424        24.30024  25265009.08224      1923.35624        28.80024
E12  24228764.75926      1531.88526        35.80026  24226851.78325      1143.85725        29.70025
E16  24928732.48124      2048.72624        23.70024  24926816.50824      1530.01924        28.70024
E24  23928028.25525       924.64725        30.00025  23926116.47825       690.43425        33.20025
E26  28522493.97222     -2953.25022        16.10022                                                
E31  24305746.06626     -1633.21926        35.80026  24303841.18525     -1219.69825        35.30025
E33  24486409.39526     -1519.33526        39.40026  24484497.01926     -1134.50526        35.90026
G28                                                  23589041.53024     -2550.93024        24.90024
C30                                                  26270982.46124     -2242.50024        25.40024                                                
C32                                                                                                  26793089.31423       874.10023        22.40023
> 2025 05 03 09 13 31.4224139  0 26                      
G05  23525957.02326      -770.24426        36.80026                                                
G18  20649538.02626       449.00426        39.30026  20647179.25927       335.30927        41.90027
G23  23989188.23525      3299.99925        31.90025  23986843.55824      2463.90924        29.10024
G25  24545803.59825     -3630.57925        31.30025  24543461.31923     -2710.90023        23.20023
G26  20550122.65025       940.80225        35.30025  20547766.88126       702.54226        35.70026
G29  22215299.47227     -2423.56527        41.50027                                                
R10  19358177.51724       415.82024        29.10024
R09  20364617.07326     -3083.48426        38.40026
R20  19340878.59223       741.35023        23.10023
R19  21492066.35624     -3472.90024        24.10024
C45  22875725.16926     -2345.12726        36.30026  22873840.07426     -1767.20526        35.80026  22875762.64326     -2366.58226        41.30026
C38  39232031.43424      -160.65024        28.40024  39230155.93224      -119.28924        26.30024  39232068.60825      -159.66325        31.40025
C35  22403162.31724      1668.45024        24.90024  22401276.62324      1258.46524        27.20024  22403186.00124      1684.94724        26.00024
C30  26273439.48023     -2978.85023        21.90023  26271553.48624     -2245.10024        26.40024  26273464.36324     -3006.42524        26.40024
C29  22074911.16127     -1530.84127        42.80027  22073029.36425     -1153.50325        35.10025  22074942.63927     -1544.74927        43.40027
C26  22651456.42725       905.54925        29.80025  22649575.52924       682.30624        25.90024  22651490.60325       914.00625        33.30025
C13  38297369.38726       812.51126        37.50026                                                                                                
C08  38616360.25425       315.10725        31.50025                                                                                                
E10  25266432.71723      2571.15023        22.60023  25264520.04124      1920.24824        29.30024
E12  24228470.88325      1527.70825        34.60025  24226558.50725      1140.77725        29.60025
E16  24928333.07824      2044.97024        23.50024  24926426.69825      1526.99525        30.50025
E24  23927852.19725       920.49925        30.70025  23925941.31925       687.45525        33.70025
E31  24306060.46826     -1637.17926        37.90026  24304152.28925     -1222.54425        32.40025
E33  24486698.01626     -1523.47426        39.90026  24484787.13925     -1137.70525        35.40025
G28                                                  23589692.60024     -2554.18324        26.90024
C32                                                  26791035.35623       651.65023        22.10023                                                
> 2025 05 03 09 13 32.4224139  0 26                      
G05  23526109.10626      -771.31726        36.90026                                                
G18  20649452.37426       447.66926        39.00026  20647094.50627       334.39227        42.70027
G23  23988561.15725      3299.15725        31.40025  23986215.58125      2463.71125        30.70025
G25  24546499.20525     -3631.40725        32.40025  24544151.53024     -2711.67024        25.20024
G26  20549944.06225       939.52725        33.70025  20547587.99326       701.58726        38.20026
G29  22215769.33526     -2424.33026        41.40026                                                
R10  19358064.58324       415.45024        27.60024
R09  20365204.75526     -3084.81226        39.00026
R19  21492754.46824     -3478.40024        24.70024
C45  22876180.34226     -2346.15926        37.60026  22874291.05025     -1768.09625        35.40025  22876214.21927     -2367.79327        41.50027
C38  39232062.10125      -159.13025        30.60025  39230186.59925      -119.79525        30.90025  39232090.58125      -160.60825        34.10025
C35  22402834.43324      1667.40024        24.60024  22400957.13324      1257.41024        27.90024  22402872.20724      1683.79924        26.60024
C29  22075205.04627     -1531.80927        42.00027  22073323.24925     -1154.35425        35.10025  22075235.32527     -1545.82827        43.30027
C26  22651279.33824       902.35024        29.10024  22649403.83724       681.43824        28.90024  22651317.41225       912.46125        29.90025
C13  38297214.48326       811.78226        36.90026                                                                                                
C08  38616299.48525       314.34425        33.80025                                                                                                
E10  25265939.64624      2571.75424        25.60024  25264032.36725      1919.61625        31.20025
E12  24228180.47225      1526.64025        33.50025  24226268.69625      1139.98325        32.50025
E16  24927956.32724      2044.14324        25.40024  24926039.45424      1526.37024        27.60024
E24  23927678.40525       919.55525        34.10025  23925766.02926       686.67826        35.60026
E26  28523617.90323     -2955.80023        20.70023                                                
E31  24306372.34126     -1638.22526        37.50026  24304463.86226     -1223.42726        35.80026
E33  24486988.00326     -1524.55926        39.50026  24485077.12626     -1138.38026        35.80026
G28                                                  23590342.63824     -2554.82524        26.30024
C30                                                  26272123.48024     -2245.88724        25.30024  26274025.06324     -3007.40124        27.60024
C32                                                                                                  26792779.63724       870.65024        24.60024
> 2025 05 03 09 13 33.4224139  0 27                      
G05  23526252.28726      -771.65926        37.10026                                                
G18  20649363.81526       447.60626        40.50026  20647008.64626       334.27426        40.70026
G23  23987935.07025      3299.40625        32.90025  23985587.39624      2463.91524        29.20024
G25  24547188.90725     -3630.95625        32.60025  24544843.93024     -2711.47724        25.30024
G26  20549764.36626       939.45626        37.00026  20547408.29726       701.66826        36.40026
G29  22216227.89826     -2424.21626        41.30026                                                
R10  19358008.70224       413.25024        28.40024
R09  20365779.63626     -3084.94426        39.90026
R20  19340626.13523       740.10023        20.10023
R19  21493395.00424     -3478.30024        23.70024
C45  22876628.71226     -2346.35126        38.50026  22874741.21825     -1768.04825        33.60025  22876664.38727     -2367.70227        42.60027
C38  39232091.96024      -160.75024        28.40024  39230217.05825      -119.67425        29.60025  39232127.63525      -160.30725        32.60025
C35  22402514.73424      1668.60024        24.00024  22400636.23424      1257.68624        27.70024  22402543.81424      1684.25924        27.80024
C32  26792602.63923       864.90023        19.10023                                                  26792605.63724       867.75024        23.80024
C29  22075499.32227     -1531.70427        41.80027  22073617.22525     -1154.16225        33.90025  22075531.40027     -1545.59227        43.10027
C26  22651116.43125       904.21225        32.00025  22649228.63724       681.64124        28.00024  22651138.31525       912.83425        32.50025
C13  38297059.07026       811.91526        36.80026                                                                                                
C08  38616238.20725       314.58325        33.90025                                                                                                
C05  39807378.99724        76.60024        28.40024                                                                                                
E10  25265449.36624      2570.74924        25.00024  25263542.38625      1919.71325        29.90025
E12  24227890.75225      1526.63325        35.20025  24225978.67625      1140.11725        30.70025
E16  24927555.98423      2046.45023        22.90023  24925651.40324      1526.83924        25.50024
E24  23927504.70525       919.76425        34.50025  23925590.53125       686.90725        34.20025
E31  24306684.00526     -1637.89326        38.00026  24304774.92726     -1223.09126        35.70026
E33  24487279.28226     -1524.38726        39.60026  24485367.20526     -1138.41726        35.50026
G28                                                  23590994.56724     -2554.08224        25.80024
C30                                                  26272698.06224     -2245.36924        23.80024  26274611.03724     -3006.89824        26.00024
> 2025 05 03 09 13 34.4224139  0 25                      
G05  23526397.94825      -775.40025        30.50025                                                
G18  20649278.63626       443.82726        40.80026  20646923.76726       331.47026        40.30026
G23  23987306.36825      3296.35925        31.50025  23984960.19224      2461.17024        29.00024
G25  24547878.99125     -3634.35925        32.40025  24545538.51224     -2714.20024        24.10024
G26  20549582.05526       935.71026        37.30026  20547230.48326       698.91626        36.40026
G29  22216687.74226     -2427.62926        36.60026                                                
R10  19357928.31924       409.70024        28.70024
R09  20366371.68926     -3088.75226        37.70026
R20  19340515.47423       736.85023        23.40023
R19  21493990.35523     -3473.05023        23.30023
C45  22877081.96026     -2349.58526        36.80026  22875192.36825     -1770.82425        32.60025  22877116.43626     -2371.07426        40.10026
C38  39232136.89124      -165.10024        23.50024  39230248.49824      -122.13424        25.60024  39232156.07825      -163.90425        30.80025
C35  22402210.10723      1664.50023        21.80023  22400316.91824      1255.00824        28.00024  22402230.19324      1681.70024        25.70024
C29  22075793.68026     -1535.26226        38.20026  22073911.28425     -1156.75925        30.40025  22075822.46126     -1549.21126        39.20026
C26  22650932.62025       900.60625        32.80025  22649055.61925       678.61825        29.60025  22650971.29325       909.09325        34.40025
C13  38296905.23925       808.33425        33.30025                                                                                                
C08  38616179.41025       312.50725        29.50025                                                                                                
E10  25264961.86524      2565.73124        27.00024  25263054.58625      1916.96625        30.10025
E12  24227604.11325      1523.06625        33.00025  24225688.43925      1137.37125        33.00025
E16  24927171.31324      2040.85024        26.60024  24925259.53625      1523.93625        30.70025
E24  23927328.09025       916.35825        34.00025  23925415.71425       684.18725        34.10025
E31  24306997.55026     -1641.32526        39.00026  24305086.97326     -1225.68626        36.40026
E33  24487569.74326     -1528.16926        35.60026  24485657.36725     -1141.19225        30.80025
G28                                                  23591646.27824     -2557.17324        27.30024
C30                                                                                                  26275186.90124     -3011.00724        26.60024
> 2025 05 03 09 13 35.4224139  0 26                      
G05  23526551.17625      -776.27725        32.40025                                                
G18  20649191.73026       442.76026        37.90026  20646839.25926       330.60226        37.50026
G23  23986691.52725      3295.93525        30.90025  23984331.86124      2460.90824        28.80024
G25  24548565.25025     -3634.83325        31.20025  24546226.56924     -2713.50024        24.90024
G26  20549403.71225       934.87925        35.20025  20547052.44026       698.04626        37.20026
G28  23594655.92824     -3424.90024        25.00024  23592295.96124     -2557.20424        26.40024
G29  22217150.35525     -2429.66125        31.40025                                                
R10  19357843.81224       409.30024        27.50024
R09  20366941.32826     -3089.65026        36.80026
R20  19340386.29723       732.40023        21.50023
C45  22877526.58626     -2350.43326        36.20026  22875642.69025     -1771.25225        33.40025  22877564.66026     -2371.92626        40.50026
C38  39232154.61324      -164.15624        29.40024  39230278.81123      -123.30023        22.50023  39232193.28625      -165.26625        31.80025
C30  26275733.15623     -2983.25023        18.70023  26273841.76623     -2250.15023        23.20023  26275759.53824     -3010.65024        25.80024
C29  22076088.71025     -1535.81325        32.90025  22074202.71524     -1157.95024        25.30024  22076127.08326     -1549.85726        35.70026
C26  22650762.37224       896.85024        28.30024  22648882.67325       677.90525        30.10025  22650790.85225       907.99525        32.30025
C13  38296747.28224       809.55024        28.40024                                                                                                
C08  38616114.08924       310.05024        27.20024                                                                                                
C05  39807349.91325        66.25025        30.50025                                                                                                
E10  25264478.03424      2566.34024        24.60024  25262565.95825      1916.66325        29.90025
E12  24227309.45125      1522.24425        34.40025  24225398.87325      1136.66025        33.20025
E16  24926778.31825      2040.31825        30.10025  24924871.03925      1523.47425        35.00025
E24  23927152.44525       915.51225        32.50025  23925241.56826       683.76626        36.10026
E31  24307309.06826     -1642.17526        39.90026  24305398.79125     -1226.17225        34.90025
E33  24487860.27525     -1528.66525        29.90025  24485946.40024     -1142.55024        26.30024
C35                                                  22399996.17324      1254.44024        28.20024  22401913.94624      1679.70624        28.00024
C32                                                                                                  26792284.55523       865.15023        22.30023
> 2025 05 03 09 13 36.4224139  0 30                      
G05  23526691.14126      -775.78026        39.70026                                                
G16  21734343.85722      2655.75022        16.40022                                                
G18  20649111.94725       443.59425        34.60025  20646755.57925       331.23025        35.20025
G23  23986052.03225      3296.21525        29.60025  23983704.65724      2462.45824        28.30024
G25  24549259.23224     -3635.15024        27.90024                                                
G26  20549226.19726       935.61626        36.30026  20546874.92526       698.68526        37.60026
G29  22217608.40027     -2426.80727        42.10027                                                
G31  22301191.73624     -2549.55024        25.10024                                                
R10  19357763.13024       411.25024        25.70024
R09  20367518.09126     -3089.00826        36.70026
R20  19340206.68423       738.75023        23.30023
R19  21495307.93824     -3478.15024        25.50024
R03  23957439.84023      1513.55023        17.50023
C45  22877982.53225     -2349.58825        35.20025  22876095.03925     -1770.51925        33.80025  22878013.71126     -2370.99926        39.30026
C38  39232186.35326      -161.68826        37.30026  39230309.65224      -121.95924        25.00024  39232219.33026      -163.06026        39.50026
C35  22401559.25323      1664.40023        20.60023  22399677.15624      1255.22724        26.30024                                                
C32  26792092.95023       858.80023        22.40023                                                  26792128.62624       865.95324        28.80024
C30  26276281.43923     -2981.15023        23.20023  26274415.53124     -2246.50224        29.00024  26276318.01424     -3008.53424        27.50024
C29  22076382.76827     -1534.60027        41.60027  22074501.27126     -1155.16626        35.50026  22076413.34727     -1548.50327        42.30027
C26  22650590.85225       900.15125        30.00025  22648707.85624       678.89424        26.80024  22650622.33125       907.88125        33.00025
C13  38296590.45226       809.55526        37.00026                                                                                                
C08  38616056.79026       311.85526        36.70026                                                                                                
E10  25263987.53624      2568.04524        26.20024  25262076.65825      1917.59625        29.50025
E12  24227020.71325      1523.22425        32.70025  24225109.23624      1137.61824        28.80024
E16  24926394.54624      2041.55924        29.40024  24924483.66925      1524.71025        31.60025
E24  23926975.23025       916.61325        33.60025  23925067.65126       684.49226        37.60026
E26  28525855.39123     -2958.65023        17.70023                                                
E31  24307619.61525     -1641.24725        34.60025  24305712.03625     -1225.67725        30.20025
E33  24488149.53726     -1527.61726        40.10026  24486238.96026     -1140.78426        38.20026
G28                                                  23592948.87224     -2556.53024        28.10024
> 2025 05 03 09 13 37.4224139  0 28                      
G05  23526835.56426      -780.38326        41.40026                                                
G18  20649016.23726       439.10126        38.00026  20646671.86026       328.10126        39.20026
G23  23985417.89424      3293.23224        29.20024  23983076.51524      2459.36724        26.50024
G25  24549948.67825     -3637.58925        32.10025                                                
G26  20549053.74025       931.35725        34.70025  20546696.77225       695.66425        35.10025
G29  22218073.00227     -2430.98627        42.10027                                                
G31  22301647.34524     -2556.80024        24.90024                                                
R10  19357697.69824       403.15024        26.90024
R09  20368084.02325     -3093.17225        35.30025
R20  19340103.17924       733.00024        24.40024
R19  21495932.32924     -3484.15024        28.70024
R03  23957124.98124      1508.75024        25.50024
C45  22878433.04425     -2353.36425        29.50025  22876543.45224     -1773.71724        26.00024  22878466.62126     -2375.17626        35.90026
C38  39232214.75725      -165.74025        35.40025  39230341.05424      -124.95224        26.60024  39232251.93126      -166.95026        38.10026
C35  22401225.20823      1660.00023        22.50023  22399359.60024      1252.12324        27.00024  22401269.27824      1677.30024        25.50024
C32  26791926.48923       842.15023        22.90023  26790046.19123       642.20023        23.30023  26791961.56524       861.96224        28.50024
C30  26276866.85724     -2985.55024        25.00024  26274988.95724     -2249.79724        28.50024  26276889.04224     -3012.53224        27.30024
C29  22076677.38826     -1538.77926        40.70026  22074795.89125     -1159.42525        35.10025  22076709.16627     -1552.59727        42.20027
C26  22650420.49425       896.07025        30.40025  22648534.50024       677.22124        24.00024  22650450.77325       904.70525        32.40025
C13  38296433.28526       805.08926        37.70026                                                                                                
C08  38615994.35726       307.68426        38.50026                                                                                                
E10  25263492.20223      2563.80023        20.80023  25261589.71924      1914.23024        26.10024
E12  24226730.43725      1519.28825        30.20025  24224819.26024      1134.47424        29.00024
E16  24926007.13824      2037.64524        28.40024  24924095.06225      1521.79525        31.60025
E24  23926806.07125       912.72625        32.90025  23924893.39526       681.58926        35.80026
E31  24307936.12026     -1644.94726        37.10026  24306023.74425     -1228.55825        33.00025
E33  24488442.05826     -1531.77126        40.90026  24486529.68226     -1143.90026        37.30026
G28                                                  23593600.24424     -2559.61524        25.00024
> 2025 05 03 09 13 38.4224139  0 28                      
G05  23526986.02726      -781.09126        41.10026                                                
G18  20648935.56026       438.35226        37.80026  20646588.48526       327.25126        40.20026
G23  23984809.88325      3292.92625        29.70025  23982450.21624      2458.80924        28.20024
G25  24550648.36125     -3637.68025        31.80025                                                
G26  20548875.03125       930.63625        34.50025  20546519.86126       694.84426        36.10026
G29  22218533.75026     -2431.26126        40.10026                                                
G31  22302139.87123     -2548.10023        22.60023                                                
R10  19357620.91923       401.80023        23.40023
R09  20368664.08826     -3094.21626        36.50026
R20  19339955.04923       734.15023        21.90023
R19  21496613.72524     -3482.30024        28.00024
C45  22878886.29825     -2354.25125        34.00025  22876998.50425     -1774.24125        32.60025  22878919.27526     -2375.90026        37.20026
C38  39232248.00125      -166.03625        34.10025  39230373.99824      -125.28524        24.80024  39232284.87526      -167.81926        37.60026
C35  22400912.49224      1656.55024        23.70024  22399039.38924      1251.56924        28.00024  22400957.46124      1675.82224        26.50024
C32  26791751.67723       852.90023        22.80023  26789886.06924       642.74924        23.70024  26791801.44324       860.52424        28.50024
C30  26277431.93324     -2985.90024        26.30024  26275563.32724     -2250.23824        29.00024  26277467.60924     -3013.39224        28.70024
C29  22076972.65126     -1539.14426        40.00026  22075091.45326     -1160.00826        35.80026  22077002.33026     -1553.45326        40.30026
C26  22650250.17924       893.75024        24.90024  22648365.68424       674.85124        26.40024  22650274.16224       903.53524        26.00024
C13  38296284.25526       804.83126        36.80026                                                                                                
C08  38615936.46426       307.32626        37.70026                                                                                                
C05  39807315.89024        64.65024        29.40024                                                                                                
E10  25263014.60024      2562.67724        23.80024  25261101.02524      1914.03224        25.70024
E12  24226443.50325      1518.28825        31.60025  24224530.82725      1133.73925        31.80025
E16  24925624.57024      2037.31624        24.00024  24923707.69725      1521.31625        32.10025
E24  23926630.35925       912.01525        33.10025  23924720.08226       681.06826        37.20026
E31  24308247.87126     -1645.68326        36.30026  24306337.29425     -1229.02525        35.30025
E33  24488732.82426     -1532.63126        40.70026  24486822.24726     -1144.41426        39.10026
G28                                                  23594251.36123     -2561.50023        23.20023
> 2025 05 03 09 13 39.4224139  0 26                      
G05  23527134.85927      -780.03127        41.80027                                                
G18  20648854.45126       439.52226        38.80026  20646504.37826       328.19426        39.50026
G23  23984165.46325      3294.52025        31.30025  23981824.08423      2460.90023        23.30023
G25  24551332.02225     -3636.03925        31.90025                                                
G26  20548701.58525       931.69125        32.70025  20546342.81825       695.79525        34.00025
G29  22218997.06426     -2429.76726        41.40026                                                
R10  19357543.10724       403.90024        26.50024
R09  20369254.21426     -3092.97526        37.50026
R20  19339844.85923       730.95023        21.90023
R19  21497263.50924     -3481.49324        29.40024
R03  23956593.85023      1506.45023        22.60023
C45  22879337.31926     -2352.89826        37.70026  22877450.12625     -1773.27425        35.20025  22879369.69727     -2374.58327        41.80027
C38  39232275.41625      -164.64125        31.50025  39230405.31124      -124.04124        25.90024  39232316.18826      -166.21726        35.60026
C35  22400592.44823      1662.35023        22.90023                                                  22400621.82724      1679.05024        24.40024
C32  26791586.02624       854.70024        28.10024  26789719.21824       643.91024        28.60024  26791629.49625       861.93525        31.40025
C30  26278008.26924     -2982.65024        26.30024  26276136.36424     -2248.99924        25.60024  26278043.34425     -3011.10125        30.80025
C29  22077267.18127     -1537.73727        42.30027  22075385.98325     -1158.73525        33.70025  22077299.55927     -1551.84327        42.70027
C26  22650071.03724       898.85024        23.80024                                                  22650102.21624       903.75024        25.40024
C13  38296124.60026       806.28626        37.70026                                                                                                
C08  38615875.44126       308.79426        36.90026                                                                                                
E10  25262506.58623      2564.70023        22.00023  25260611.89724      1915.12624        24.50024
E12  24226154.93725      1519.87225        33.90025  24224241.66225      1135.03825        30.20025
E16  24925239.17124      2039.17724        26.50024  24923318.70125      1522.44225        30.90025
E24  23926460.51125       913.52025        31.60025  23924546.33625       682.21525        34.80025
E31  24308560.98926     -1644.14526        37.30026  24306650.11125     -1227.74525        34.10025
E33  24489024.35627     -1531.12627        41.50027  24487112.58026     -1143.35226        38.00026
> 2025 05 03 09 13 40.4224139  0 26                      
G05  23527280.27326      -781.87526        41.10026                                                
G16  21732361.66923      2655.45023        19.00023                                                
G18  20648769.32426       437.75426        39.20026  20646421.05026       327.10326        41.30026
G23  23983547.00625      3293.33225        33.70025  23981196.33324      2459.50024        29.20024
G25  24552034.75025     -3637.30325        31.40025                                                
G26  20548526.52125       930.06325        29.50025  20546164.75625       694.66425        29.50025
G29  22219458.75926     -2431.05126        40.90026                                                
R10  19357453.78323       403.75023        22.60023
R09  20369825.63326     -3094.82726        37.00026
R19  21497909.27724     -3483.04324        29.40024
R03  23956281.78123      1512.80023        22.40023
C45  22879787.92226     -2354.43626        36.80026  22877901.62826     -1774.21326        36.30026  22879820.60026     -2375.82526        40.40026
C38  39232315.00325      -165.76025        31.20025  39230436.50424      -124.72524        26.70024  39232348.88025      -167.12825        35.00025
C32  26791419.35624       848.70024        26.60024  26789557.64524       642.70924        28.00024  26791459.52825       860.85825        29.60025
C30  26278588.38224     -2985.65024        24.90024  26276708.38324     -2249.31424        26.90024  26278615.36324     -3010.75024        25.80024
C29  22077563.69026     -1539.15126        41.30026  22075682.19326     -1159.79926        35.80026  22077593.97027     -1553.11627        42.30027
C13  38295970.22126       805.02226        37.30026                                                                                                
C08  38615819.69426       307.49926        36.30026                                                                                                
C05  39807291.15625        55.20025        30.40025                                                                                                
E10  25262033.82824      2563.43424        23.70024  25260124.74925      1914.07325        32.00025
E12  24225865.05225      1518.30425        32.60025  24223953.27625      1133.73125        33.20025
E24  23926287.54625       912.27425        30.30025  23924372.77125       681.26725        33.50025
E31  24308873.68726     -1645.34326        37.20026  24306963.10925     -1228.81225        34.10025
E33  24489317.56826     -1532.45126        41.40026  24487404.29326     -1144.38126        38.30026
E16                                                  24922931.38325      1521.83025        31.00025
C35                                                  22398402.17923      1251.25023        23.10023                                                
> 2025 05 03 09 13 41.4224139  0 28                      
G05  23527431.75826      -784.55126        41.20026                                                
G16  21731847.31623      2650.55023        22.60023                                                
G18  20648680.37626       435.17526        38.80026  20646337.49826       324.92026        38.30026
G23  23982920.23025      3291.10625        31.50025  23980568.95824      2457.46324        27.00024
G25  24552712.67125     -3639.40425        30.90025  24550378.48724     -2717.62224        25.90024
G26  20548346.43625       927.36425        29.60025  20545987.66924       692.70024        28.10024
G29  22219919.93026     -2433.30426        41.10026                                                
G31  22303611.49124     -2556.85024        24.80024                                                
R10  19357351.64523       404.95023        21.50023
R09  20370401.92526     -3097.30026        37.40026
R19  21498564.11424     -3485.30724        29.40024
C45  22880240.10026     -2356.85326        38.80026  22878353.80626     -1776.03726        36.10026  22880273.37727     -2378.36327        43.00027
C38  39232344.17426      -168.12026        38.60026  39230468.37225      -126.64825        30.20025  39232380.44926      -169.53126        40.80026
C35  22399969.88423      1662.50023        20.30023  22398081.19123      1249.05023        23.30023                                                
C32  26791268.65124       853.05024        26.80024  26789393.14924       640.86424        24.50024  26791295.93225       858.17525        30.60025
C30  26279135.89324     -2987.35024        25.50024  26277280.17824     -2250.97324        27.30024  26279186.55824     -3013.20024        24.20024
C29  22077860.57627     -1541.32927        42.40027  22075977.87926     -1161.48226        36.00026  22077888.75627     -1555.35227        43.30027
C26  22649741.97024       891.95024        23.80024  22647850.87924       672.05024        27.70024  22649753.96224       900.70024        25.80024
C13  38295817.11826       802.78626        37.10026                                                                                                
C08  38615760.42626       305.25426        39.60026                                                                                                
C05  39807278.35525        69.05025        32.40025                                                                                                
E10  25261546.75524      2560.56824        28.40024  25259637.67725      1912.20325        32.90025
E12  24225578.54125      1515.76125        34.80025  24223663.46725      1132.00725        32.00025
E16  24924455.01924      2035.35024        25.50024  24922545.04125      1519.79625        34.60025
E24  23926116.15524       908.97824        26.40024  23924199.88124       679.20024        27.50024
E31  24309189.75926     -1647.73026        37.60026  24307277.38225     -1230.53125        34.30025
E33  24489607.25827     -1534.89027        42.80027  24487696.08126     -1146.11926        39.80026
G28                                                  23596209.24524     -2560.92224        26.90024
> 2025 05 03 09 13 42.4224139  0 29                      
G05  23527586.12126      -785.34426        38.20026                                                
G18  20648596.40526       434.26426        37.10026  20646255.02526       324.30726        36.80026
G23  23982298.73025      3290.89025        32.10025  23979943.56124      2457.16424        29.00024
G25  24553413.25625     -3639.40525        31.70025                                                
G26  20548173.42625       926.97625        34.90025  20545812.26126       692.10626        36.70026
G29  22220384.57826     -2433.41726        37.00026                                                
G31  22304072.54224     -2555.55024        25.40024                                                
R10  19357357.31124       399.55024        24.70024
R09  20370990.38726     -3098.19926        37.20026
R19  21499246.41224     -3486.20024        27.00024
R03  23955688.85223      1501.00023        22.60023
C45  22880693.35626     -2357.28826        36.80026  22878806.46225     -1776.61425        33.10025  22880724.83426     -2379.08626        40.30026
C38  39232376.22225      -168.23025        33.70025  39230500.42024      -127.07724        26.60024  39232413.69626      -169.93426        36.40026
C35  22399633.78723      1659.80023        22.90023  22397763.98124      1249.36524        28.40024  22399677.25723      1673.40023        22.70023
C32  26791095.04124       848.85024        24.90024  26789228.83323       641.95023        22.30023  26791136.11324       857.17524        28.90024
C30  26279721.35823     -2986.35023        22.80023  26277855.45024     -2251.42024        26.10024  26279759.13225     -3014.73325        30.20025
C29  22078157.04025     -1541.77625        34.90025  22076272.84524     -1161.45024        27.00024  22078184.62126     -1556.07226        36.20026
C26  22649558.16824       889.30024        29.00024  22647678.46925       671.85625        33.50025  22649593.54325       899.85125        31.30025
C13  38295663.89425       802.48325        34.30025                                                                                                
C08  38615701.33725       304.92925        34.00025                                                                                                
C05  39807261.83625        71.05025        32.70025                                                                                                
E10  25261053.56724      2560.16324        25.40024  25259150.18525      1911.99425        31.70025
E12  24225289.21225      1515.24425        33.00025  24223374.73725      1131.51025        33.90025
E16  24924066.45824      2034.55024        28.60024  24922156.78025      1519.57725        32.50025
E24  23925935.95025       909.35725        30.80025  23924025.37226       679.10726        35.60026
E26  28529235.65222     -2962.90022        15.50022                                                
E31  24309499.71426     -1648.31526        38.10026  24307590.03625     -1230.77325        33.70025
E33  24489899.52626     -1535.46426        36.50026  24487988.04925     -1146.52125        31.60025
G28                                                  23596862.46224     -2561.66124        25.30024
> 2025 05 03 09 13 43.4224139  0 30                      
G05  23527734.84527      -784.20627        42.10027                                                
G16  21730813.92823      2649.70023        20.00023                                                
G18  20648517.88626       435.75126        37.80026  20646171.71026       325.35726        37.70026
G23  23981670.99225      3293.01225        29.90025  23979316.72224      2458.42624        24.80024
G25  24554107.30325     -3637.88025        30.40025                                                
G26  20547988.48126       928.27626        36.00026  20545635.11026       693.04226        36.20026
G29  22220846.88526     -2431.99426        40.80026                                                
G31  22304602.90224     -2555.70024        27.70024                                                
R10  19357222.43124       400.45024        27.60024
R09  20371580.70625     -3096.87225        34.30025
R11  22050688.28422      3791.90022        16.00022
R20  19339264.26323       728.85023        19.60023
R19  21499862.21325     -3484.03125        31.60025
R03  23955428.95924      1503.15024        27.90024
C45  22881148.16826     -2355.93726        35.80026  22879259.77525     -1775.57925        30.10025  22881176.64826     -2377.78726        38.80026
C38  39232408.92626      -166.79626        37.50026  39230533.72425      -125.66025        32.90025  39232444.90126      -168.40626        39.70026
C35  22399311.23724      1658.40024        25.90024  22397445.02924      1250.58624        29.10024  22399352.00924      1674.50024        25.90024
C32  26790942.17424       852.05024        28.70024  26789067.27223       641.45023        22.80023  26790977.25025       858.55025        31.40025
C30  26280290.69123     -2984.05023        21.80023  26278428.08024     -2249.58124        27.80024  26280330.86324     -3012.91324        28.70024
C29  22078449.96527     -1540.42027        41.60027  22076569.36625     -1160.74925        35.20025  22078481.44327     -1554.69827        42.20027
C26  22649392.11025       893.50425        30.70025  22647507.61424       673.31524        29.10024  22649421.18925       901.78225        32.70025
C13  38295510.42726       804.00226        37.70026                                                                                                
C08  38615642.30526       306.39526        37.50026                                                                                                
E10  25260574.22624      2561.90324        24.50024  25258663.34924      1913.01724        28.80024
E12  24225002.93724      1516.55724        28.90024  24223085.16424      1132.40724        26.80024
E16  24923680.05324      2036.83624        27.40024  24921769.77525      1520.95825        31.10025
E24  23925763.29625       910.88525        34.10025  23923852.71926       680.28126        36.70026
E31  24309813.32425     -1648.02425        35.10025  24307903.34625     -1229.73225        31.80025
E33  24490193.64926     -1534.17826        40.90026  24488280.37426     -1145.60026        38.00026
G28                                                  23597511.24024     -2560.18124        26.40024
> 2025 05 03 09 13 44.4224139  0 30                      
G05  23527885.73526      -786.84226        38.70026                                                
G18  20648438.53526       433.13826        40.00026  20646089.66126       323.59126        40.50026
G23  23981042.42125      3290.65325        32.20025  23978690.84924      2457.32524        25.30024
G25  24554790.02425     -3639.78125        30.60025                                                
G26  20547809.89926       925.83326        36.30026  20545459.22626       691.46126        36.30026
G29  22221315.85527     -2433.89627        42.00027                                                
G31  22305097.65424     -2557.70024        27.00024                                                
R10  19357194.34524       395.85024        28.50024
R09  20372149.50626     -3099.20526        37.30026
R19  21500467.58824     -3489.40024        24.90024
R21  22457080.73822      3577.40022        15.90022
R03  23955200.01224      1500.75024        24.20024
C45  22881603.04725     -2357.88825        35.40025  22879712.55625     -1776.88625        33.40025  22881629.42926     -2379.54326        37.90026
C38  39232445.89425      -168.54025        30.70025  39230566.19624      -127.76724        26.00024  39232474.37525      -170.51725        34.10025
C32  26790772.88524       853.00024        24.60024  26788905.17824       639.53724        24.30024  26790809.76024       856.35024        23.60024
C30  26280871.18323     -2984.00023        22.40023  26279002.57724     -2251.27324        25.30024  26280909.25725     -3014.90825        32.00025
C29  22078748.35226     -1542.48826        38.70026  22076865.65625     -1162.47025        31.10025  22078775.03426     -1556.59426        39.30026
C26  22649221.32225       889.91425        30.40025  22647336.22724       671.37024        27.20024  22649251.00125       898.76125        32.80025
C13  38295356.42826       802.04626        37.30026                                                                                                
C08  38615583.04025       304.34625        33.70025                                                                                                
C05  39807242.77125        69.55025        30.00025                                                                                                
E12  24224711.93225      1514.45525        32.80025  24222798.65725      1130.89825        32.40025
E16  24923285.32024      2034.85824        24.00024  24921381.33825      1519.63225        30.40025
E24  23925587.71225       908.89825        33.00025  23923679.53326       678.82826        35.90026
E26  28530359.39523     -2963.05023        18.90023                                                
E31  24310126.10226     -1648.70226        38.10026  24308216.72325     -1231.16725        33.20025
