NMEA,$GPGSV,3,1,11,05,20,052,33,18,75,130,40,23,16,142,24,25,11,131,29,1*63,1746263586948
NMEA,$GPGSV,3,2,11,26,67,291,37,29,38,067,39,16,39,305,,20,01,025,,1*6A,1746263586948
NMEA,$GPGSV,3,3,11,27,15,268,,28,23,202,,31,38,227,,1*5C,1746263586948
NMEA,$GLGSV,2,1,08,74,78,286,29,73,46,161,39,84,74,253,25,66,03,350,,1*7B,1746263586948
NMEA,$GLGSV,2,2,08,75,26,324,,83,33,037,,85,22,230,,67,07,039,,1*7C,1746263586948
NMEA,$GAGSV,3,1,11,10,40,196,24,12,62,175,34,16,42,306,23,24,70,306,35,7*78,1746263586948
NMEA,$GAGSV,3,2,11,31,52,124,39,33,49,055,34,03,02,305,,11,14,206,,7*76,1746263586948
NMEA,$GAGSV,3,3,11,23,03,125,,25,18,305,,26,03,037,,7*4C,1746263586948
NMEA,$GBGSV,4,1,16,45,49,180,37,38,23,041,31,32,06,047,24,30,07,059,23,1*73,1746263586948
NMEA,$GBGSV,4,2,16,29,60,053,38,26,53,287,30,13,36,069,38,08,31,050,31,1*75,1746263586948
NMEA,$GBGSV,4,3,16,05,17,120,32,02,01,099,,20,02,098,,24,11,318,,1*79,1746263586948
NMEA,$GBGSV,4,4,16,35,54,246,,36,06,155,,44,08,242,,60,05,101,,1*7B,1746263586948
NMEA,$GNGSA,A,3,05,18,23,25,26,29,,,,,,,1.0,0.7,0.7,1*35,1746263586962
NMEA,$GNGSA,A,3,73,74,84,,,,,,,,,,1.0,0.7,0.7,2*38,1746263586962
NMEA,$GNGSA,A,3,10,12,16,24,31,33,,,,,,,1.0,0.7,0.7,3*33,1746263586962
NMEA,$GNGSA,A,3,05,08,13,26,29,30,32,38,45,,,,1.0,0.7,0.7,4*3D,1746263586962
NMEA,$GNVTG,,T,,M,0.0,N,0.0,K,A*3D,1746263586962
NMEA,$GNDTM,P90,,0000.000026,S,00000.000000,E,0.978,W84*5C,1746263586962
NMEA,$GNRMC,091306.42,A,4503.225176,N,00741.242642,E,0.0,,030525,3.3,E,A,V*74,1746263586962
NMEA,$GNGNS,091306.42,4503.225176,N,00741.242642,E,AAAANN,24,0.7,211.5,48.0,,,V*22,1746263586962
NMEA,$GNGGA,091306.42,4503.225176,N,00741.242642,E,1,12,0.7,211.5,M,48.0,M,,*77,1746263586962
NMEA,$GNGSA,A,3,05,18,23,25,26,29,,,,,,,1.0,0.7,0.7,1*35,1746263587009
NMEA,$GNGSA,A,3,73,74,84,,,,,,,,,,1.0,0.7,0.7,2*38,1746263587009
NMEA,$GNGSA,A,3,10,12,16,24,31,33,,,,,,,1.0,0.7,0.7,3*33,1746263587009
NMEA,$GNGSA,A,3,05,08,13,26,29,30,32,38,45,,,,1.0,0.7,0.7,4*3D,1746263587009
NMEA,$GNVTG,,T,,M,0.0,N,0.0,K,A*3D,1746263587009
NMEA,$GNDTM,P90,,0000.000026,S,00000.000000,E,0.978,W84*5C,1746263587009
NMEA,$GNRMC,091307.00,A,4503.225176,N,00741.242642,E,0.0,,030525,3.3,E,A,V*73,1746263587009
NMEA,$GNGNS,091307.00,4503.225176,N,00741.242642,E,AAAANN,24,0.7,211.5,48.0,,,V*25,1746263587009
NMEA,$GNGGA,091307.00,4503.225176,N,00741.242642,E,1,12,0.7,211.5,M,48.0,M,,*70,1746263587009
NMEA,$GPGSV,3,1,11,05,20,052,32,18,75,130,38,23,16,142,24,25,11,131,28,1*6C,1746263588009
NMEA,$GPGSV,3,2,11,26,67,291,35,29,38,067,37,16,39,305,,20,01,025,,1*66,1746263588009
NMEA,$GPGSV,3,3,11,27,15,268,,28,23,202,,31,38,227,,1*5C,1746263588009
NMEA,$GLGSV,2,1,08,74,78,286,28,73,46,161,38,84,74,253,25,66,03,350,,1*7B,1746263588009
NMEA,$GLGSV,2,2,08,75,26,324,,83,33,037,,85,22,230,,67,07,039,,1*7C,1746263588009
NMEA,$GAGSV,3,1,11,10,40,196,24,12,62,175,32,16,42,306,23,24,70,306,32,7*79,1746263588009
NMEA,$GAGSV,3,2,11,31,52,124,38,33,49,055,32,03,02,305,,11,14,206,,7*71,1746263588009
NMEA,$GAGSV,3,3,11,23,03,125,,25,18,305,,26,03,037,,7*4C,1746263588009
NMEA,$GBGSV,4,1,16,45,49,180,35,38,23,041,30,32,06,047,24,30,07,059,23,1*70,1746263588009
NMEA,$GBGSV,4,2,16,29,60,053,37,26,53,287,30,13,36,069,35,08,31,050,30,1*76,1746263588009
NMEA,$GBGSV,4,3,16,05,17,120,31,02,01,099,,20,02,098,,24,11,318,,1*7A,1746263588009
NMEA,$GBGSV,4,4,16,35,54,246,,36,06,155,,44,08,242,,60,05,101,,1*7B,1746263588009
NMEA,$GNGSA,A,3,05,18,23,25,26,29,,,,,,,1.0,0.7,0.7,1*35,1746263588024
NMEA,$GNGSA,A,3,73,74,84,,,,,,,,,,1.0,0.7,0.7,2*38,1746263588024
NMEA,$GNGSA,A,3,10,12,16,24,31,33,,,,,,,1.0,0.7,0.7,3*33,1746263588024
NMEA,$GNGSA,A,3,05,08,13,26,29,30,32,38,45,,,,1.0,0.7,0.7,4*3D,1746263588024
NMEA,$GNVTG,,T,,M,0.0,N,0.0,K,A*3D,1746263588024
NMEA,$GNDTM,P90,,0000.000026,S,00000.000000,E,0.978,W84*5C,1746263588024
NMEA,$GNRMC,091308.00,A,4503.225284,N,00741.243028,E,0.0,,030525,3.3,E,A,V*79,1746263588024
NMEA,$GNGNS,091308.00,4503.225284,N,00741.243028,E,AAAANN,24,0.7,212.0,48.0,,,V*29,1746263588024
NMEA,$GNGGA,091308.00,4503.225284,N,00741.243028,E,1,12,0.7,212.0,M,48.0,M,,*7C,1746263588024
NMEA,$GPGSV,3,1,11,05,20,052,32,18,75,130,39,23,16,142,24,25,11,131,28,1*6D,1746263589008
NMEA,$GPGSV,3,2,11,26,67,291,35,29,38,067,38,16,39,305,,20,01,025,,1*69,1746263589008
NMEA,$GPGSV,3,3,11,27,15,268,,28,23,202,,31,38,227,,1*5C,1746263589008
NMEA,$GPGSV,2,1,06,18,75,130,41,23,16,142,25,26,67,291,36,28,23,202,28,8*69,1746263589008
NMEA,$GPGSV,2,2,06,25,11,131,,27,15,268,,8*62,1746263589008
NMEA,$GLGSV,2,1,08,74,78,286,27,73,46,161,39,84,74,253,24,66,03,350,,1*74,1746263589008
NMEA,$GLGSV,2,2,08,75,26,324,,83,33,037,,85,22,230,,67,07,039,,1*7C,1746263589008
NMEA,$GAGSV,3,1,11,10,40,196,24,12,62,175,33,16,42,306,23,24,70,306,32,7*78,1746263589008
NMEA,$GAGSV,3,2,11,31,52,124,38,33,49,055,34,03,02,305,,11,14,206,,7*77,1746263589008
NMEA,$GAGSV,3,3,11,23,03,125,,25,18,305,,26,03,037,,7*4C,1746263589008
NMEA,$GAGSV,3,1,09,10,40,196,31,12,62,175,32,16,42,306,27,24,70,306,33,1*77,1746263589008
NMEA,$GAGSV,3,2,09,31,52,124,37,33,49,055,28,03,02,305,,23,03,125,,1*7F,1746263589008
NMEA,$GAGSV,3,3,09,26,03,037,,1*4F,1746263589008
NMEA,$GBGSV,4,1,14,45,49,180,37,38,23,041,31,32,06,047,23,30,07,059,23,1*76,1746263589008
NMEA,$GBGSV,4,2,14,29,60,053,37,26,53,287,27,13,36,069,35,08,31,050,30,1*72,1746263589008
NMEA,$GBGSV,4,3,14,05,17,120,31,24,11,318,,35,54,246,,36,06,155,,1*7F,1746263589008
NMEA,$GBGSV,4,4,14,44,08,242,,60,05,101,,1*7C,1746263589008
NMEA,$GBGSV,1,1,04,26,53,287,29,29,60,053,38,38,23,041,34,45,49,180,40,3*7D,1746263589008
NMEA,$GBGSV,3,1,10,26,53,287,23,29,60,053,29,38,23,041,30,45,49,180,34,5*71,1746263589008
NMEA,$GBGSV,3,2,10,24,11,318,,30,07,059,,32,06,047,,35,54,246,,5*75,1746263589008
NMEA,$GBGSV,3,3,10,36,06,155,,44,08,242,,5*7D,1746263589008
NMEA,$GNGSA,A,3,05,18,23,25,26,28,29,,,,,,0.8,0.5,0.6,1*35,1746263589026
NMEA,$GNGSA,A,3,73,74,84,,,,,,,,,,0.8,0.5,0.6,2*32,1746263589026
NMEA,$GNGSA,A,3,10,12,16,24,31,33,,,,,,,0.8,0.5,0.6,3*39,1746263589026
NMEA,$GNGSA,A,3,05,08,13,26,29,30,32,38,45,,,,0.8,0.5,0.6,4*37,1746263589026
NMEA,$GNVTG,,T,,M,0.0,N,0.0,K,A*3D,1746263589026
NMEA,$GNDTM,P90,,0000.000026,S,00000.000000,E,0.978,W84*5C,1746263589026
NMEA,$GNRMC,091309.00,A,4503.225412,N,00741.243747,E,0.0,,030525,3.3,E,A,V*7F,1746263589026
NMEA,$GNGNS,091309.00,4503.225412,N,00741.243747,E,AAAANN,25,0.5,211.4,48.0,,,V*2B,1746263589026
NMEA,$GNGGA,091309.00,4503.225412,N,00741.243747,E,1,12,0.5,211.4,M,48.0,M,,*7F,1746263589026
NMEA,$GPGSV,3,1,11,05,20,052,32,18,75,130,40,23,16,142,28,25,11,131,29,1*6E,1746263590004
NMEA,$GPGSV,3,2,11,26,67,291,37,29,38,067,39,16,39,305,,20,01,025,,1*6A,1746263590004
NMEA,$GPGSV,3,3,11,27,15,268,,28,23,202,,31,38,227,,1*5C,1746263590004
NMEA,$GPGSV,2,1,06,18,75,130,40,23,16,142,24,26,67,291,36,28,23,202,27,8*66,1746263590004
NMEA,$GPGSV,2,2,06,25,11,131,,27,15,268,,8*62,1746263590004
NMEA,$GLGSV,2,1,08,74,78,286,29,73,46,161,39,84,74,253,25,66,03,350,,1*7B,1746263590004
NMEA,$GLGSV,2,2,08,75,26,324,,83,33,037,,85,22,230,,67,07,039,,1*7C,1746263590004
NMEA,$GAGSV,3,1,11,10,40,196,25,12,62,175,33,16,42,306,23,24,70,306,35,7*7E,1746263590004
NMEA,$GAGSV,3,2,11,31,52,124,38,33,49,055,35,03,02,305,,11,14,206,,7*76,1746263590004
NMEA,$GAGSV,3,3,11,23,03,125,,25,18,305,,26,03,037,,7*4C,1746263590004
NMEA,$GAGSV,3,1,09,10,40,196,29,12,62,175,31,16,42,306,28,24,70,306,32,1*73,1746263590004
NMEA,$GAGSV,3,2,09,31,52,124,36,33,49,055,27,03,02,305,,23,03,125,,1*71,1746263590004
NMEA,$GAGSV,3,3,09,26,03,037,,1*4F,1746263590004
NMEA,$GBGSV,4,1,14,45,49,180,38,38,23,041,31,32,06,047,23,30,07,059,21,1*7B,1746263590004
NMEA,$GBGSV,4,2,14,29,60,053,39,26,53,287,28,13,36,069,37,08,31,050,31,1*70,1746263590004
NMEA,$GBGSV,4,3,14,05,17,120,30,24,11,318,,35,54,246,,36,06,155,,1*7E,1746263590004
NMEA,$GBGSV,4,4,14,44,08,242,,60,05,101,,1*7C,1746263590004
NMEA,$GBGSV,3,1,10,26,53,287,30,29,60,053,40,32,06,047,26,38,23,041,34,3*7C,1746263590004
NMEA,$GBGSV,3,2,10,45,49,180,41,24,11,318,,30,07,059,,35,54,246,,3*77,1746263590004
NMEA,$GBGSV,3,3,10,36,06,155,,44,08,242,,3*7B,1746263590004
NMEA,$GBGSV,3,1,10,26,53,287,22,29,60,053,29,38,23,041,29,45,49,180,33,5*7F,1746263590004
NMEA,$GBGSV,3,2,10,24,11,318,,30,07,059,,32,06,047,,35,54,246,,5*75,1746263590004
NMEA,$GBGSV,3,3,10,36,06,155,,44,08,242,,5*7D,1746263590004
NMEA,$GNGSA,A,3,05,18,23,25,26,28,29,,,,,,0.8,0.5,0.6,1*35,1746263590022
NMEA,$GNGSA,A,3,73,74,84,,,,,,,,,,0.8,0.5,0.6,2*32,1746263590022
NMEA,$GNGSA,A,3,10,12,16,24,31,33,,,,,,,0.8,0.5,0.6,3*39,1746263590022
NMEA,$GNGSA,A,3,05,08,13,26,29,30,32,38,45,,,,0.8,0.5,0.6,4*37,1746263590022
NMEA,$GNVTG,,T,,M,0.0,N,0.0,K,A*3D,1746263590022
NMEA,$GNDTM,P90,,0000.000026,S,00000.000000,E,0.978,W84*5C,1746263590022
NMEA,$GNRMC,091310.00,A,4503.225516,N,00741.243722,E,0.0,,030525,3.3,E,A,V*71,1746263590022
NMEA,$GNGNS,091310.00,4503.225516,N,00741.243722,E,AAAANN,25,0.5,210.9,48.0,,,V*29,1746263590022
NMEA,$GNGGA,091310.00,4503.225516,N,00741.243722,E,1,12,0.5,210.9,M,48.0,M,,*7D,1746263590022
NMEA,$GPGSV,3,1,11,05,20,052,31,18,75,130,39,23,16,142,31,25,11,131,27,1*65,1746263591010
NMEA,$GPGSV,3,2,11,26,67,291,35,29,38,067,38,16,39,305,,20,01,025,,1*69,1746263591010
NMEA,$GPGSV,3,3,11,27,15,268,,28,23,202,,31,38,227,,1*5C,1746263591010
NMEA,$GPGSV,2,1,06,18,75,130,41,23,16,142,27,26,67,291,35,28,23,202,25,8*65,1746263591010
NMEA,$GPGSV,2,2,06,25,11,131,,27,15,268,,8*62,1746263591010
NMEA,$GLGSV,2,1,08,74,78,286,27,73,46,161,36,84,74,253,25,83,33,037,20,1*72,1746263591010
NMEA,$GLGSV,2,2,08,66,03,350,,75,26,324,,85,22,230,,67,07,039,,1*76,1746263591010
NMEA,$GAGSV,3,1,11,10,40,196,22,12,62,175,32,16,42,306,23,24,70,306,33,7*7E,1746263591010
NMEA,$GAGSV,3,2,11,31,52,124,36,33,49,055,34,03,02,305,,11,14,206,,7*79,1746263591010
NMEA,$GAGSV,3,3,11,23,03,125,,25,18,305,,26,03,037,,7*4C,1746263591010
NMEA,$GAGSV,3,1,09,10,40,196,31,12,62,175,32,16,42,306,29,24,70,306,32,1*78,1746263591010
NMEA,$GAGSV,3,2,09,31,52,124,36,33,49,055,27,03,02,305,,23,03,125,,1*71,1746263591010
NMEA,$GAGSV,3,3,09,26,03,037,,1*4F,1746263591010
NMEA,$GBGSV,4,1,14,45,49,180,34,38,23,041,30,32,06,047,23,30,07,059,21,1*76,1746263591010
NMEA,$GBGSV,4,2,14,29,60,053,38,26,53,287,26,13,36,069,36,08,31,050,29,1*77,1746263591010
NMEA,$GBGSV,4,3,14,05,17,120,30,24,11,318,,35,54,246,,36,06,155,,1*7E,1746263591010
NMEA,$GBGSV,4,4,14,44,08,242,,60,05,101,,1*7C,1746263591010
NMEA,$GBGSV,3,1,10,26,53,287,29,29,60,053,38,32,06,047,25,38,23,041,33,3*7F,1746263591010
NMEA,$GBGSV,3,2,10,45,49,180,37,24,11,318,,30,07,059,,35,54,246,,3*76,1746263591010
NMEA,$GBGSV,3,3,10,36,06,155,,44,08,242,,3*7B,1746263591010
NMEA,$GBGSV,3,1,10,26,53,287,22,29,60,053,30,32,06,047,18,38,23,041,29,5*7F,1746263591010
NMEA,$GBGSV,3,2,10,45,49,180,35,24,11,318,,30,07,059,,35,54,246,,5*72,1746263591010
NMEA,$GBGSV,3,3,10,36,06,155,,44,08,242,,5*7D,1746263591010
NMEA,$GNGSA,A,3,05,18,23,25,26,28,29,,,,,,0.8,0.5,0.6,1*35,1746263591030
NMEA,$GNGSA,A,3,73,74,83,84,,,,,,,,,0.8,0.5,0.6,2*39,1746263591030
NMEA,$GNGSA,A,3,10,12,16,24,31,33,,,,,,,0.8,0.5,0.6,3*39,1746263591030
NMEA,$GNGSA,A,3,05,08,13,26,29,30,32,38,45,,,,0.8,0.5,0.6,4*37,1746263591030
NMEA,$GNVTG,,T,,M,0.0,N,0.0,K,A*3D,1746263591030
NMEA,$GNDTM,P90,,0000.000026,S,00000.000000,E,0.978,W84*5C,1746263591030
NMEA,$GNRMC,091311.00,A,4503.225528,N,00741.243755,E,0.0,,030525,3.3,E,A,V*7D,1746263591030
NMEA,$GNGNS,091311.00,4503.225528,N,00741.243755,E,AAAANN,26,0.5,210.8,48.0,,,V*27,1746263591030
NMEA,$GNGGA,091311.00,4503.225528,N,00741.243755,E,1,12,0.5,210.8,M,48.0,M,,*70,1746263591030
NMEA,$GPGSV,3,1,11,05,20,052,35,18,75,130,37,23,16,142,32,25,11,131,32,1*68,1746263592009
NMEA,$GPGSV,3,2,11,26,67,291,38,29,38,067,37,16,39,305,,20,01,025,,1*6B,1746263592009
NMEA,$GPGSV,3,3,11,27,15,268,,28,23,202,,31,38,227,,1*5C,1746263592009
NMEA,$GPGSV,2,1,06,18,75,130,42,23,16,142,25,25,11,131,18,26,67,291,37,8*67,1746263592009
NMEA,$GPGSV,2,2,06,28,23,202,27,27,15,268,,8*68,1746263592009
NMEA,$GLGSV,2,1,08,74,78,286,30,73,46,161,40,84,74,253,21,83,33,037,24,1*75,1746263592009
NMEA,$GLGSV,2,2,08,67,07,039,18,66,03,350,,75,26,324,,85,22,230,,1*7F,1746263592009
NMEA,$GAGSV,3,1,11,10,40,196,26,12,62,175,36,16,42,306,22,24,70,306,34,7*78,1746263592009
NMEA,$GAGSV,3,2,11,31,52,124,38,33,49,055,39,03,02,305,,11,14,206,,7*7A,1746263592009
NMEA,$GAGSV,3,3,11,23,03,125,,25,18,305,,26,03,037,,7*4C,1746263592009
NMEA,$GAGSV,3,1,09,10,40,196,31,12,62,175,29,16,42,306,31,24,70,306,35,1*7C,1746263592009
NMEA,$GAGSV,3,2,09,31,52,124,34,33,49,055,35,03,02,305,,23,03,125,,1*70,1746263592009
NMEA,$GAGSV,3,3,09,26,03,037,,1*4F,1746263592009
NMEA,$GBGSV,4,1,14,45,49,180,33,38,23,041,31,35,54,246,20,32,06,047,21,1*7C,1746263592009
NMEA,$GBGSV,4,2,14,30,07,059,20,29,60,053,42,26,53,287,29,13,36,069,33,1*7E,1746263592009
NMEA,$GBGSV,4,3,14,08,31,050,32,05,17,120,30,24,11,318,,36,06,155,,1*77,1746263592009
NMEA,$GBGSV,4,4,14,44,08,242,,60,05,101,,1*7C,1746263592009
NMEA,$GBGSV,3,1,10,26,53,287,30,29,60,053,43,32,06,047,25,35,54,246,24,3*75,1746263592009
NMEA,$GBGSV,3,2,10,38,23,041,33,45,49,180,38,24,11,318,,30,07,059,,3*71,1746263592009
NMEA,$GBGSV,3,3,10,36,06,155,,44,08,242,,3*7B,1746263592009
NMEA,$GBGSV,3,1,10,26,53,287,24,29,60,053,34,30,07,059,17,32,06,047,24,5*78,1746263592009
NMEA,$GBGSV,3,2,10,38,23,041,30,45,49,180,36,24,11,318,,35,54,246,,5*75,1746263592009
NMEA,$GBGSV,3,3,10,36,06,155,,44,08,242,,5*7D,1746263592009
NMEA,$GNGSA,A,3,05,18,23,25,26,28,29,,,,,,0.8,0.5,0.6,1*35,1746263592030
NMEA,$GNGSA,A,3,67,73,74,83,84,,,,,,,,0.8,0.5,0.6,2*38,1746263592030
NMEA,$GNGSA,A,3,10,12,16,24,31,33,,,,,,,0.8,0.5,0.6,3*39,1746263592030
NMEA,$GNGSA,A,3,05,08,13,26,29,30,32,35,38,45,,,0.8,0.5,0.6,4*31,1746263592030
NMEA,$GNVTG,,T,,M,0.0,N,0.0,K,A*3D,1746263592030
NMEA,$GNDTM,P90,,0000.000026,S,00000.000000,E,0.978,W84*5C,1746263592030
NMEA,$GNRMC,091312.00,A,4503.225530,N,00741.243567,E,0.0,,030525,3.3,E,A,V*74,1746263592030
NMEA,$GNGNS,091312.00,4503.225530,N,00741.243567,E,AAAANN,28,0.5,210.3,48.0,,,V*2B,1746263592030
NMEA,$GNGGA,091312.00,4503.225530,N,00741.243567,E,1,12,0.5,210.3,M,48.0,M,,*72,1746263592030
NMEA,$GPGSV,3,1,11,05,20,052,35,18,75,130,40,23,16,142,32,25,11,131,32,1*68,1746263593010
NMEA,$GPGSV,3,2,11,26,67,291,36,29,38,067,39,16,39,305,,20,01,025,,1*6B,1746263593010
NMEA,$GPGSV,3,3,11,27,15,268,,28,23,202,,31,38,227,,1*5C,1746263593010
NMEA,$GPGSV,2,1,06,18,75,130,42,23,16,142,30,25,11,131,25,26,67,291,35,8*6F,1746263593010
NMEA,$GPGSV,2,2,06,28,23,202,25,27,15,268,,8*6A,1746263593010
NMEA,$GLGSV,2,1,08,74,78,286,27,73,46,161,38,84,74,253,23,83,33,037,24,1*7E,1746263593010
NMEA,$GLGSV,2,2,08,67,07,039,18,66,03,350,,75,26,324,,85,22,230,,1*7F,1746263593010
NMEA,$GAGSV,3,1,11,10,40,196,24,12,62,175,36,16,42,306,24,24,70,306,30,7*78,1746263593010
NMEA,$GAGSV,3,2,11,26,03,037,16,31,52,124,36,33,49,055,39,03,02,305,,7*71,1746263593010
NMEA,$GAGSV,3,3,11,11,14,206,,23,03,125,,25,18,305,,7*4E,1746263593010
NMEA,$GAGSV,3,1,09,10,40,196,29,12,62,175,30,16,42,306,29,24,70,306,33,1*72,1746263593010
NMEA,$GAGSV,3,2,09,31,52,124,35,33,49,055,36,03,02,305,,23,03,125,,1*72,1746263593010
NMEA,$GAGSV,3,3,09,26,03,037,,1*4F,1746263593010
NMEA,$GBGSV,4,1,14,45,49,180,36,38,23,041,28,35,54,246,24,32,06,047,21,1*75,1746263593010
NMEA,$GBGSV,4,2,14,30,07,059,20,29,60,053,41,26,53,287,30,13,36,069,36,1*70,1746263593010
NMEA,$GBGSV,4,3,14,08,31,050,32,05,17,120,29,24,11,318,,36,06,155,,1*7F,1746263593010
NMEA,$GBGSV,4,4,14,44,08,242,,60,05,101,,1*7C,1746263593010
NMEA,$GBGSV,3,1,10,26,53,287,32,29,60,053,43,30,07,059,20,32,06,047,22,3*7B,1746263593010
NMEA,$GBGSV,3,2,10,35,54,246,26,38,23,041,33,45,49,180,40,24,11,318,,3*75,1746263593010
NMEA,$GBGSV,3,3,10,36,06,155,,44,08,242,,3*7B,1746263593010
NMEA,$GBGSV,3,1,10,26,53,287,29,29,60,053,34,30,07,059,25,32,06,047,21,5*71,1746263593010
NMEA,$GBGSV,3,2,10,35,54,246,20,38,23,041,29,45,49,180,36,24,11,318,,5*7F,1746263593010
NMEA,$GBGSV,3,3,10,36,06,155,,44,08,242,,5*7D,1746263593010
NMEA,$GNGSA,A,3,05,18,23,25,26,28,29,,,,,,0.7,0.5,0.6,1*3A,1746263593022
NMEA,$GNGSA,A,3,67,73,74,83,84,,,,,,,,0.7,0.5,0.6,2*37,1746263593022
NMEA,$GNGSA,A,3,10,12,16,24,31,33,,,,,,,0.7,0.5,0.6,3*36,1746263593022
NMEA,$GNGSA,A,3,05,08,13,26,29,30,32,35,38,45,,,0.7,0.5,0.6,4*3E,1746263593022
NMEA,$GNVTG,,T,,M,0.0,N,0.0,K,A*3D,1746263593022
NMEA,$GNDTM,P90,,0000.000026,S,00000.000000,E,0.978,W84*5C,1746263593022
NMEA,$GNRMC,091313.00,A,4503.225490,N,00741.243361,E,0.0,,030525,3.3,E,A,V*7E,1746263593022
NMEA,$GNGNS,091313.00,4503.225490,N,00741.243361,E,AAAANN,28,0.5,210.0,48.0,,,V*22,1746263593022
NMEA,$GNGGA,091313.00,4503.225490,N,00741.243361,E,1,12,0.5,210.0,M,48.0,M,,*7B,1746263593022
NMEA,$GPGSV,3,1,11,05,20,052,37,18,75,130,39,23,16,142,32,25,11,131,31,1*67,1746263594009
NMEA,$GPGSV,3,2,11,26,67,291,35,29,38,067,42,16,39,305,,20,01,025,,1*64,1746263594009
NMEA,$GPGSV,3,3,11,27,15,268,,28,23,202,,31,38,227,,1*5C,1746263594009
NMEA,$GPGSV,2,1,06,18,75,130,42,23,16,142,29,25,11,131,23,26,67,291,36,8*62,1746263594009
NMEA,$GPGSV,2,2,06,28,23,202,27,27,15,268,,8*68,1746263594009
NMEA,$GLGSV,2,1,08,74,78,286,29,73,46,161,38,84,74,253,23,83,33,037,24,1*70,1746263594009
NMEA,$GLGSV,2,2,08,67,07,039,18,66,03,350,,75,26,324,,85,22,230,,1*7F,1746263594009
NMEA,$GAGSV,3,1,11,10,40,196,23,12,62,175,35,16,42,306,24,24,70,306,31,7*7D,1746263594009
NMEA,$GAGSV,3,2,11,26,03,037,16,31,52,124,38,33,49,055,40,03,02,305,,7*71,1746263594009
NMEA,$GAGSV,3,3,11,11,14,206,,23,03,125,,25,18,305,,7*4E,1746263594009
NMEA,$GAGSV,3,1,09,10,40,196,29,12,62,175,30,16,42,306,31,24,70,306,34,1*7C,1746263594009
NMEA,$GAGSV,3,2,09,31,52,124,32,33,49,055,35,03,02,305,,23,03,125,,1*76,1746263594009
NMEA,$GAGSV,3,3,09,26,03,037,,1*4F,1746263594009
NMEA,$GBGSV,4,1,14,45,49,180,36,38,23,041,28,35,54,246,25,32,06,047,21,1*74,1746263594009
NMEA,$GBGSV,4,2,14,30,07,059,22,29,60,053,43,26,53,287,30,13,36,069,38,1*7E,1746263594009
NMEA,$GBGSV,4,3,14,08,31,050,32,05,17,120,29,24,11,318,,36,06,155,,1*7F,1746263594009
NMEA,$GBGSV,4,4,14,44,08,242,,60,05,101,,1*7C,1746263594009
NMEA,$GBGSV,3,1,10,26,53,287,33,29,60,053,43,30,07,059,26,32,06,047,22,3*7C,1746263594009
NMEA,$GBGSV,3,2,10,35,54,246,26,38,23,041,31,45,49,180,41,24,11,318,,3*76,1746263594009
NMEA,$GBGSV,3,3,10,36,06,155,,44,08,242,,3*7B,1746263594009
NMEA,$GBGSV,3,1,10,26,53,287,26,29,60,053,35,30,07,059,26,32,06,047,22,5*7F,1746263594009
NMEA,$GBGSV,3,2,10,35,54,246,27,38,23,041,26,45,49,180,36,24,11,318,,5*77,1746263594009
NMEA,$GBGSV,3,3,10,36,06,155,,44,08,242,,5*7D,1746263594009
NMEA,$GNGSA,A,3,05,18,23,25,26,28,29,,,,,,0.7,0.5,0.6,1*3A,1746263594020
NMEA,$GNGSA,A,3,67,73,74,83,84,,,,,,,,0.7,0.5,0.6,2*37,1746263594020
NMEA,$GNGSA,A,3,10,12,16,24,31,33,,,,,,,0.7,0.5,0.6,3*36,1746263594020
NMEA,$GNGSA,A,3,05,08,13,26,29,30,32,35,38,45,,,0.7,0.5,0.6,4*3E,1746263594020
NMEA,$GNVTG,,T,,M,0.0,N,0.0,K,A*3D,1746263594020
NMEA,$GNDTM,P90,,0000.000026,S,00000.000000,E,0.978,W84*5C,1746263594020
NMEA,$GNRMC,091314.00,A,4503.225336,N,00741.243180,E,0.0,,030525,3.3,E,A,V*7F,1746263594020
NMEA,$GNGNS,091314.00,4503.225336,N,00741.243180,E,AAAANN,28,0.5,210.2,48.0,,,V*21,1746263594020
NMEA,$GNGGA,091314.00,4503.225336,N,00741.243180,E,1,12,0.5,210.2,M,48.0,M,,*78,1746263594020
NMEA,$GPGSV,3,1,11,05,20,052,37,18,75,130,39,23,16,142,31,25,11,131,32,1*67,1746263595014
NMEA,$GPGSV,3,2,11,26,67,291,34,29,38,067,41,16,39,305,,20,01,025,,1*66,1746263595014
NMEA,$GPGSV,3,3,11,27,15,268,,28,23,202,,31,38,227,,1*5C,1746263595014
NMEA,$GPGSV,2,1,06,18,75,130,43,23,16,142,31,25,11,131,25,26,67,291,38,8*62,1746263595014
NMEA,$GPGSV,2,2,06,28,23,202,26,27,15,268,,8*69,1746263595014
NMEA,$GLGSV,2,1,08,74,78,286,28,73,46,161,39,84,74,253,23,83,33,037,25,1*71,1746263595014
NMEA,$GLGSV,2,2,08,67,07,039,18,66,03,350,,75,26,324,,85,22,230,,1*7F,1746263595014
NMEA,$GAGSV,3,1,11,10,40,196,26,12,62,175,34,16,42,306,25,24,70,306,34,7*7D,1746263595014
NMEA,$GAGSV,3,2,11,26,03,037,21,31,52,124,38,33,49,055,40,03,02,305,,7*75,1746263595014
NMEA,$GAGSV,3,3,11,11,14,206,,23,03,125,,25,18,305,,7*4E,1746263595014
NMEA,$GAGSV,3,1,09,10,40,196,31,12,62,175,33,16,42,306,28,24,70,306,36,1*7C,1746263595014
NMEA,$GAGSV,3,2,09,31,52,124,36,33,49,055,36,03,02,305,,23,03,125,,1*71,1746263595014
NMEA,$GAGSV,3,3,09,26,03,037,,1*4F,1746263595014
NMEA,$GBGSV,4,1,14,45,49,180,38,38,23,041,31,35,54,246,25,32,06,047,21,1*72,1746263595014
NMEA,$GBGSV,4,2,14,30,07,059,22,29,60,053,42,26,53,287,29,13,36,069,37,1*78,1746263595014
NMEA,$GBGSV,4,3,14,08,31,050,34,05,17,120,29,24,11,318,,36,06,155,,1*79,1746263595014
NMEA,$GBGSV,4,4,14,44,08,242,,60,05,101,,1*7C,1746263595014
NMEA,$GBGSV,3,1,10,26,53,287,30,29,60,053,43,30,07,059,28,32,06,047,25,3*76,1746263595014
NMEA,$GBGSV,3,2,10,35,54,246,27,38,23,041,34,45,49,180,42,24,11,318,,3*71,1746263595014
NMEA,$GBGSV,3,3,10,36,06,155,,44,08,242,,3*7B,1746263595014
NMEA,$GBGSV,3,1,10,26,53,287,29,29,60,053,35,30,07,059,25,32,06,047,22,5*73,1746263595014
NMEA,$GBGSV,3,2,10,35,54,246,28,38,23,041,31,45,49,180,35,24,11,318,,5*7D,1746263595014
NMEA,$GBGSV,3,3,10,36,06,155,,44,08,242,,5*7D,1746263595014
NMEA,$GNGSA,A,3,05,18,23,25,26,28,29,,,,,,0.7,0.5,0.6,1*3A,1746263595028
NMEA,$GNGSA,A,3,67,73,74,83,84,,,,,,,,0.7,0.5,0.6,2*37,1746263595028
NMEA,$GNGSA,A,3,10,12,16,24,31,33,,,,,,,0.7,0.5,0.6,3*36,1746263595028
NMEA,$GNGSA,A,3,05,08,13,26,29,30,32,35,38,45,,,0.7,0.5,0.6,4*3E,1746263595028
NMEA,$GNVTG,,T,,M,0.0,N,0.0,K,A*3D,1746263595028
NMEA,$GNDTM,P90,,0000.000026,S,00000.000000,E,0.978,W84*5C,1746263595028
NMEA,$GNRMC,091315.00,A,4503.225390,N,00741.243088,E,0.0,,030525,3.3,E,A,V*7B,1746263595028
NMEA,$GNGNS,091315.00,4503.225390,N,00741.243088,E,AAAANN,28,0.5,210.2,48.0,,,V*25,1746263595028
NMEA,$GNGGA,091315.00,4503.225390,N,00741.243088,E,1,12,0.5,210.2,M,48.0,M,,*7C,1746263595028
NMEA,$GPGSV,3,1,11,05,20,052,37,18,75,130,41,23,16,142,33,25,11,131,33,1*6B,1746263596010
NMEA,$GPGSV,3,2,11,26,67,291,37,29,38,067,41,16,39,305,,20,01,025,,1*65,1746263596010
NMEA,$GPGSV,3,3,11,27,15,268,,28,23,202,,31,38,227,,1*5C,1746263596010
NMEA,$GPGSV,2,1,06,18,75,130,41,23,16,142,29,25,11,131,25,26,67,291,36,8*67,1746263596010
NMEA,$GPGSV,2,2,06,28,23,202,26,27,15,268,,8*69,1746263596010
NMEA,$GLGSV,2,1,08,74,78,286,28,73,46,161,40,84,74,253,20,83,33,037,24,1*7D,1746263596010
NMEA,$GLGSV,2,2,08,67,07,039,18,66,03,350,,75,26,324,,85,22,230,,1*7F,1746263596010
NMEA,$GAGSV,3,1,11,10,40,196,25,12,62,175,35,16,42,306,23,24,70,306,35,7*78,1746263596010
NMEA,$GAGSV,3,2,11,26,03,037,21,31,52,124,38,33,49,055,40,03,02,305,,7*75,1746263596010
NMEA,$GAGSV,3,3,11,11,14,206,,23,03,125,,25,18,305,,7*4E,1746263596010
NMEA,$GAGSV,3,1,09,10,40,196,30,12,62,175,31,16,42,306,26,24,70,306,34,1*73,1746263596010
NMEA,$GAGSV,3,2,09,31,52,124,36,33,49,055,36,03,02,305,,23,03,125,,1*71,1746263596010
NMEA,$GAGSV,3,3,09,26,03,037,,1*4F,1746263596010
NMEA,$GBGSV,4,1,14,45,49,180,39,38,23,041,28,35,54,246,24,32,06,047,19,1*71,1746263596010
NMEA,$GBGSV,4,2,14,30,07,059,22,29,60,053,42,26,53,287,32,13,36,069,37,1*72,1746263596010
NMEA,$GBGSV,4,3,14,08,31,050,34,05,17,120,28,24,11,318,,36,06,155,,1*78,1746263596010
NMEA,$GBGSV,4,4,14,44,08,242,,60,05,101,,1*7C,1746263596010
NMEA,$GBGSV,3,1,10,26,53,287,33,29,60,053,43,30,07,059,26,32,06,047,24,3*7A,1746263596010
NMEA,$GBGSV,3,2,10,35,54,246,28,38,23,041,33,45,49,180,43,24,11,318,,3*78,1746263596010
NMEA,$GBGSV,3,3,10,36,06,155,,44,08,242,,3*7B,1746263596010
NMEA,$GBGSV,3,1,10,26,53,287,28,29,60,053,34,30,07,059,24,32,06,047,20,5*70,1746263596010
NMEA,$GBGSV,3,2,10,35,54,246,28,38,23,041,30,45,49,180,34,24,11,318,,5*7D,1746263596010
NMEA,$GBGSV,3,3,10,36,06,155,,44,08,242,,5*7D,1746263596010
NMEA,$GNGSA,A,3,05,18,23,25,26,28,29,,,,,,0.7,0.5,0.6,1*3A,1746263596024
NMEA,$GNGSA,A,3,67,73,74,83,84,,,,,,,,0.7,0.5,0.6,2*37,1746263596024
NMEA,$GNGSA,A,3,10,12,16,24,31,33,,,,,,,0.7,0.5,0.6,3*36,1746263596024
NMEA,$GNGSA,A,3,05,08,13,26,29,30,32,35,38,45,,,0.7,0.5,0.6,4*3E,1746263596024
NMEA,$GNVTG,,T,,M,0.0,N,0.0,K,A*3D,1746263596024
NMEA,$GNDTM,P90,,0000.000026,S,00000.000000,E,0.978,W84*5C,1746263596024
NMEA,$GNRMC,091316.00,A,4503.225355,N,00741.242823,E,0.0,,030525,3.3,E,A,V*79,1746263596024
NMEA,$GNGNS,091316.00,4503.225355,N,00741.242823,E,AAAANN,28,0.5,210.4,48.0,,,V*21,1746263596024
NMEA,$GNGGA,091316.00,4503.225355,N,00741.242823,E,1,12,0.5,210.4,M,48.0,M,,*78,1746263596024
NMEA,$GPGSV,3,1,11,05,20,052,31,18,75,130,41,23,16,142,32,25,11,131,32,1*6D,1746263597009
NMEA,$GPGSV,3,2,11,26,67,291,37,29,38,067,37,16,39,305,,20,01,025,,1*64,1746263597009
NMEA,$GPGSV,3,3,11,27,15,268,,28,23,202,,31,38,227,,1*5C,1746263597009
NMEA,$GPGSV,2,1,06,18,75,130,40,23,16,142,29,25,11,131,24,26,67,291,36,8*67,1746263597009
NMEA,$GPGSV,2,2,06,28,23,202,27,27,15,268,,8*68,1746263597009
NMEA,$GLGSV,2,1,08,74,78,286,29,73,46,161,38,84,74,253,23,83,33,037,23,1*77,1746263597009
NMEA,$GLGSV,2,2,08,67,07,039,18,66,03,350,,75,26,324,,85,22,230,,1*7F,1746263597009
NMEA,$GAGSV,3,1,11,10,40,196,27,12,62,175,33,16,42,306,27,24,70,306,34,7*79,1746263597009
NMEA,$GAGSV,3,2,11,26,03,037,21,31,52,124,39,33,49,055,36,03,02,305,,7*75,1746263597009
NMEA,$GAGSV,3,3,11,11,14,206,,23,03,125,,25,18,305,,7*4E,1746263597009
NMEA,$GAGSV,3,1,09,10,40,196,30,12,62,175,33,16,42,306,31,24,70,306,34,1*77,1746263597009
NMEA,$GAGSV,3,2,09,31,52,124,36,33,49,055,31,03,02,305,,23,03,125,,1*76,1746263597009
NMEA,$GAGSV,3,3,09,26,03,037,,1*4F,1746263597009
NMEA,$GBGSV,4,1,14,45,49,180,37,38,23,041,24,35,54,246,22,32,06,047,19,1*75,1746263597009
NMEA,$GBGSV,4,2,14,30,07,059,22,29,60,053,38,26,53,287,33,13,36,069,33,1*7A,1746263597009
NMEA,$GBGSV,4,3,14,08,31,050,30,05,17,120,28,24,11,318,,36,06,155,,1*7C,1746263597009
NMEA,$GBGSV,4,4,14,44,08,242,,60,05,101,,1*7C,1746263597009
NMEA,$GBGSV,3,1,10,26,53,287,34,29,60,053,39,30,07,059,27,32,06,047,24,3*71,1746263597009
NMEA,$GBGSV,3,2,10,35,54,246,26,38,23,041,31,45,49,180,40,24,11,318,,3*77,1746263597009
NMEA,$GBGSV,3,3,10,36,06,155,,44,08,242,,3*7B,1746263597009
NMEA,$GBGSV,3,1,10,26,53,287,30,29,60,053,30,30,07,059,21,32,06,047,20,5*78,1746263597009
NMEA,$GBGSV,3,2,10,35,54,246,28,38,23,041,26,45,49,180,33,24,11,318,,5*7D,1746263597009
NMEA,$GBGSV,3,3,10,36,06,155,,44,08,242,,5*7D,1746263597009
NMEA,$GNGSA,A,3,05,18,23,25,26,28,29,,,,,,0.7,0.5,0.6,1*3A,1746263597020
NMEA,$GNGSA,A,3,67,73,74,83,84,,,,,,,,0.7,0.5,0.6,2*37,1746263597020
NMEA,$GNGSA,A,3,10,12,16,24,31,33,,,,,,,0.7,0.5,0.6,3*36,1746263597020
NMEA,$GNGSA,A,3,05,08,13,26,29,30,32,35,38,45,,,0.7,0.5,0.6,4*3E,1746263597020
NMEA,$GNVTG,,T,,M,0.0,N,0.0,K,A*3D,1746263597020
NMEA,$GNDTM,P90,,0000.000026,S,00000.000000,E,0.978,W84*5C,1746263597020
NMEA,$GNRMC,091317.00,A,4503.225451,N,00741.242802,E,0.0,,030525,3.3,E,A,V*78,1746263597020
NMEA,$GNGNS,091317.00,4503.225451,N,00741.242802,E,AAAANN,28,0.5,210.5,48.0,,,V*21,1746263597020
NMEA,$GNGGA,091317.00,4503.225451,N,00741.242802,E,1,12,0.5,210.5,M,48.0,M,,*78,1746263597020
NMEA,$GPGSV,3,1,11,05,20,052,32,18,75,130,38,23,16,142,31,25,11,131,31,1*60,1746263598016
NMEA,$GPGSV,3,2,11,26,67,291,35,28,23,202,25,29,38,067,31,16,39,305,,1*68,1746263598016
NMEA,$GPGSV,3,3,11,20,01,025,,27,15,268,,31,38,227,,1*53,1746263598016
NMEA,$GPGSV,2,1,06,18,75,130,38,23,16,142,29,25,11,131,25,26,67,291,37,8*68,1746263598016
NMEA,$GPGSV,2,2,06,28,23,202,26,27,15,268,,8*69,1746263598016
NMEA,$GLGSV,2,1,08,74,78,286,28,73,46,161,37,84,74,253,22,83,33,037,23,1*78,1746263598016
NMEA,$GLGSV,2,2,08,67,07,039,18,66,03,350,,75,26,324,,85,22,230,,1*7F,1746263598016
NMEA,$GAGSV,3,1,11,10,40,196,25,12,62,175,34,16,42,306,30,24,70,306,33,7*7D,1746263598016
NMEA,$GAGSV,3,2,11,26,03,037,21,31,52,124,40,33,49,055,30,03,02,305,,7*7D,1746263598016
NMEA,$GAGSV,3,3,11,11,14,206,,23,03,125,,25,18,305,,7*4E,1746263598016
NMEA,$GAGSV,3,1,09,10,40,196,30,12,62,175,33,16,42,306,35,24,70,306,36,1*71,1746263598016
NMEA,$GAGSV,3,2,09,31,52,124,35,33,49,055,26,03,02,305,,23,03,125,,1*73,1746263598016
NMEA,$GAGSV,3,3,09,26,03,037,,1*4F,1746263598016
NMEA,$GBGSV,4,1,14,45,49,180,36,38,23,041,29,35,54,246,22,32,06,047,19,1*79,1746263598016
NMEA,$GBGSV,4,2,14,30,07,059,19,29,60,053,33,26,53,287,28,13,36,069,28,1*79,1746263598016
NMEA,$GBGSV,4,3,14,08,31,050,27,05,17,120,31,24,11,318,,36,06,155,,1*72,1746263598016
NMEA,$GBGSV,4,4,14,44,08,242,,60,05,101,,1*7C,1746263598016
NMEA,$GBGSV,3,1,10,26,53,287,32,29,60,053,36,30,07,059,26,32,06,047,22,3*7F,1746263598016
NMEA,$GBGSV,3,2,10,35,54,246,28,38,23,041,32,45,49,180,41,24,11,318,,3*7B,1746263598016
NMEA,$GBGSV,3,3,10,36,06,155,,44,08,242,,3*7B,1746263598016
NMEA,$GBGSV,3,1,10,26,53,287,30,29,60,053,25,30,07,059,23,32,06,047,20,5*7E,1746263598016
NMEA,$GBGSV,3,2,10,35,54,246,28,38,23,041,23,45,49,180,33,24,11,318,,5*78,1746263598016
NMEA,$GBGSV,3,3,10,36,06,155,,44,08,242,,5*7D,1746263598016
NMEA,$GNGSA,A,3,05,18,23,25,26,28,29,,,,,,0.8,0.5,0.6,1*35,1746263598029
NMEA,$GNGSA,A,3,73,74,83,84,,,,,,,,,0.8,0.5,0.6,2*39,1746263598029
NMEA,$GNGSA,A,3,10,12,16,24,31,33,,,,,,,0.8,0.5,0.6,3*39,1746263598029
NMEA,$GNGSA,A,3,05,08,13,26,29,30,32,35,38,45,,,0.8,0.5,0.6,4*31,1746263598029
NMEA,$GNVTG,,T,,M,0.0,N,0.0,K,A*3D,1746263598029
NMEA,$GNDTM,P90,,0000.000026,S,00000.000000,E,0.978,W84*5C,1746263598029
NMEA,$GNRMC,091318.00,A,4503.225398,N,00741.242744,E,0.0,,030525,3.3,E,A,V*78,1746263598029
NMEA,$GNGNS,091318.00,4503.225398,N,00741.242744,E,AAAANN,27,0.5,210.8,48.0,,,V*23,1746263598029
NMEA,$GNGGA,091318.00,4503.225398,N,00741.242744,E,1,12,0.5,210.8,M,48.0,M,,*75,1746263598029
NMEA,$GPGSV,3,1,11,05,20,052,40,16,39,305,16,18,75,130,35,23,16,142,30,1*63,1746263599008
NMEA,$GPGSV,3,2,11,25,11,131,28,26,67,291,36,29,38,067,42,31,38,227,25,1*6F,1746263599008
NMEA,$GPGSV,3,3,11,20,01,025,,27,15,268,,28,23,202,,1*56,1746263599008
NMEA,$GPGSV,2,1,06,18,75,130,35,23,16,142,28,25,11,131,25,26,67,291,38,8*6B,1746263599008
NMEA,$GPGSV,2,2,06,28,23,202,28,27,15,268,,8*67,1746263599008
NMEA,$GLGSV,2,1,08,74,78,286,26,73,46,161,37,84,74,253,23,83,33,037,26,1*72,1746263599008
NMEA,$GLGSV,2,2,08,67,07,039,18,66,03,350,,75,26,324,,85,22,230,,1*7F,1746263599008
NMEA,$GAGSV,3,1,11,10,40,196,26,12,62,175,33,16,42,306,29,24,70,306,34,7*76,1746263599008
NMEA,$GAGSV,3,2,11,26,03,037,18,31,52,124,35,33,49,055,40,03,02,305,,7*72,1746263599008
NMEA,$GAGSV,3,3,11,11,14,206,,23,03,125,,25,18,305,,7*4E,1746263599008
NMEA,$GAGSV,3,1,09,10,40,196,30,12,62,175,29,16,42,306,32,24,70,306,38,1*73,1746263599008
NMEA,$GAGSV,3,2,09,31,52,124,30,33,49,055,38,03,02,305,,23,03,125,,1*79,1746263599008
NMEA,$GAGSV,3,3,09,26,03,037,,1*4F,1746263599008
NMEA,$GBGSV,4,1,14,45,49,180,35,38,23,041,37,35,54,246,21,32,06,047,22,1*7E,1746263599008
NMEA,$GBGSV,4,2,14,30,07,059,23,29,60,053,42,26,53,287,30,13,36,069,37,1*71,1746263599008
NMEA,$GBGSV,4,3,14,08,31,050,37,05,17,120,31,24,11,318,,36,06,155,,1*73,1746263599008
NMEA,$GBGSV,4,4,14,44,08,242,,60,05,101,,1*7C,1746263599008
NMEA,$GBGSV,3,1,10,26,53,287,33,29,60,053,42,30,07,059,28,32,06,047,29,3*78,1746263599008
NMEA,$GBGSV,3,2,10,35,54,246,28,38,23,041,40,45,49,180,39,24,11,318,,3*71,1746263599008
NMEA,$GBGSV,3,3,10,36,06,155,,44,08,242,,3*7B,1746263599008
NMEA,$GBGSV,3,1,10,26,53,287,27,29,60,053,36,30,07,059,29,32,06,047,21,5*71,1746263599008
NMEA,$GBGSV,3,2,10,35,54,246,26,38,23,041,25,45,49,180,34,24,11,318,,5*77,1746263599008
NMEA,$GBGSV,3,3,10,36,06,155,,44,08,242,,5*7D,1746263599008
NMEA,$GNGSA,A,3,05,16,18,23,25,26,28,29,31,,,,0.7,0.4,0.6,1*3E,1746263599020
NMEA,$GNGSA,A,3,67,73,74,83,84,,,,,,,,0.7,0.4,0.6,2*36,1746263599020
NMEA,$GNGSA,A,3,10,12,16,24,31,33,,,,,,,0.7,0.4,0.6,3*37,1746263599020
NMEA,$GNGSA,A,3,05,08,13,26,29,30,32,35,38,45,,,0.7,0.4,0.6,4*3F,1746263599020
NMEA,$GNVTG,,T,,M,0.0,N,0.0,K,A*3D,1746263599020
NMEA,$GNDTM,P90,,0000.000026,S,00000.000000,E,0.978,W84*5C,1746263599020
NMEA,$GNRMC,091319.00,A,4503.225360,N,00741.242774,E,0.0,,030525,3.3,E,A,V*7D,1746263599020
NMEA,$GNGNS,091319.00,4503.225360,N,00741.242774,E,AAAANN,30,0.4,211.0,48.0,,,V*28,1746263599020
NMEA,$GNGGA,091319.00,4503.225360,N,00741.242774,E,1,12,0.4,211.0,M,48.0,M,,*78,1746263599020
NMEA,$GPGSV,3,1,11,05,20,052,41,16,39,305,16,18,75,130,38,23,16,142,29,1*67,1746263600010
NMEA,$GPGSV,3,2,11,25,11,131,32,26,67,291,35,29,38,067,42,31,38,227,25,1*67,1746263600010
NMEA,$GPGSV,3,3,11,20,01,025,,27,15,268,,28,23,202,,1*56,1746263600010
NMEA,$GPGSV,2,1,06,18,75,130,39,23,16,142,27,25,11,131,20,26,67,291,35,8*60,1746263600010
NMEA,$GPGSV,2,2,06,28,23,202,25,27,15,268,,8*6A,1746263600010
NMEA,$GLGSV,2,1,08,74,78,286,27,73,46,161,35,84,74,253,24,83,33,037,29,1*79,1746263600010
NMEA,$GLGSV,2,2,08,67,07,039,26,66,03,350,,75,26,324,,85,22,230,,1*72,1746263600010
NMEA,$GAGSV,3,1,11,10,40,196,21,12,62,175,30,16,42,306,28,24,70,306,33,7*74,1746263600010
NMEA,$GAGSV,3,2,11,26,03,037,18,31,52,124,37,33,49,055,41,03,02,305,,7*71,1746263600010
NMEA,$GAGSV,3,3,11,11,14,206,,23,03,125,,25,18,305,,7*4E,1746263600010
NMEA,$GAGSV,3,1,09,10,40,196,26,12,62,175,29,16,42,306,32,24,70,306,36,1*7A,1746263600010
NMEA,$GAGSV,3,2,09,31,52,124,33,33,49,055,37,03,02,305,,23,03,125,,1*75,1746263600010
NMEA,$GAGSV,3,3,09,26,03,037,,1*4F,1746263600010
NMEA,$GBGSV,4,1,14,45,49,180,30,38,23,041,35,35,54,246,23,32,06,047,23,1*7A,1746263600010
NMEA,$GBGSV,4,2,14,30,07,059,25,29,60,053,41,26,53,287,30,13,36,069,38,1*7B,1746263600010
NMEA,$GBGSV,4,3,14,08,31,050,39,05,17,120,31,24,11,318,,36,06,155,,1*7D,1746263600010
NMEA,$GBGSV,4,4,14,44,08,242,,60,05,101,,1*7C,1746263600010
NMEA,$GBGSV,3,1,10,26,53,287,32,29,60,053,42,30,07,059,27,32,06,047,29,3*76,1746263600010
NMEA,$GBGSV,3,2,10,35,54,246,26,38,23,041,38,45,49,180,36,24,11,318,,3*7F,1746263600010
NMEA,$GBGSV,3,3,10,36,06,155,,44,08,242,,3*7B,1746263600010
NMEA,$GBGSV,3,1,10,26,53,287,24,29,60,053,35,30,07,059,29,32,06,047,23,5*73,1746263600010
NMEA,$GBGSV,3,2,10,35,54,246,27,38,23,041,27,45,49,180,26,24,11,318,,5*77,1746263600010
NMEA,$GBGSV,3,3,10,36,06,155,,44,08,242,,5*7D,1746263600010
NMEA,$GNGSA,A,3,05,16,18,23,25,26,28,29,31,,,,0.7,0.4,0.6,1*3E,1746263600052
NMEA,$GNGSA,A,3,67,73,74,83,84,,,,,,,,0.7,0.4,0.6,2*36,1746263600052
NMEA,$GNGSA,A,3,10,12,16,24,31,33,,,,,,,0.7,0.4,0.6,3*37,1746263600052
NMEA,$GNGSA,A,3,05,08,13,26,29,30,32,35,38,45,,,0.7,0.4,0.6,4*3F,1746263600052
NMEA,$GNVTG,,T,,M,0.0,N,0.0,K,A*3D,1746263600052
NMEA,$GNDTM,P90,,0000.000026,S,00000.000000,E,0.978,W84*5C,1746263600052
NMEA,$GNRMC,091320.00,A,4503.225244,N,00741.242964,E,0.0,,030525,3.3,E,A,V*7F,1746263600052
NMEA,$GNGNS,091320.00,4503.225244,N,00741.242964,E,AAAANN,30,0.4,211.1,48.0,,,V*2B,1746263600052
NMEA,$GNGGA,091320.00,4503.225244,N,00741.242964,E,1,12,0.4,211.1,M,48.0,M,,*7B,1746263600052
NMEA,$GPGSV,3,1,11,05,20,052,41,16,39,305,16,18,75,130,38,23,16,142,30,1*6F,1746263601010
NMEA,$GPGSV,3,2,11,25,11,131,32,26,67,291,35,29,38,067,40,31,38,227,23,1*63,1746263601010
NMEA,$GPGSV,3,3,11,20,01,025,,27,15,268,,28,23,202,,1*56,1746263601010
NMEA,$GPGSV,2,1,06,18,75,130,40,23,16,142,28,25,11,131,20,26,67,291,36,8*62,1746263601010
NMEA,$GPGSV,2,2,06,28,23,202,23,27,15,268,,8*6C,1746263601010
NMEA,$GLGSV,2,1,08,74,78,286,23,73,46,161,37,84,74,253,22,83,33,037,28,1*78,1746263601010
NMEA,$GLGSV,2,2,08,67,07,039,26,66,03,350,,75,26,324,,85,22,230,,1*72,1746263601010
NMEA,$GAGSV,3,1,11,10,40,196,24,12,62,175,32,16,42,306,24,24,70,306,33,7*7F,1746263601010
NMEA,$GAGSV,3,2,11,26,03,037,18,31,52,124,36,33,49,055,41,03,02,305,,7*70,1746263601010
NMEA,$GAGSV,3,3,11,11,14,206,,23,03,125,,25,18,305,,7*4E,1746263601010
NMEA,$GAGSV,3,1,09,10,40,196,26,12,62,175,32,16,42,306,32,24,70,306,37,1*71,1746263601010
NMEA,$GAGSV,3,2,09,31,52,124,35,33,49,055,39,03,02,305,,23,03,125,,1*7D,1746263601010
NMEA,$GAGSV,3,3,09,26,03,037,,1*4F,1746263601010
NMEA,$GBGSV,4,1,14,45,49,180,34,38,23,041,34,35,54,246,24,32,06,047,23,1*78,1746263601010
NMEA,$GBGSV,4,2,14,30,07,059,26,29,60,053,40,26,53,287,25,13,36,069,37,1*72,1746263601010
NMEA,$GBGSV,4,3,14,08,31,050,38,05,17,120,29,24,11,318,,36,06,155,,1*75,1746263601010
NMEA,$GBGSV,4,4,14,44,08,242,,60,05,101,,1*7C,1746263601010
NMEA,$GBGSV,3,1,10,26,53,287,26,29,60,053,40,30,07,059,29,32,06,047,29,3*7F,1746263601010
NMEA,$GBGSV,3,2,10,35,54,246,27,38,23,041,38,45,49,180,37,24,11,318,,3*7F,1746263601010
NMEA,$GBGSV,3,3,10,36,06,155,,44,08,242,,3*7B,1746263601010
NMEA,$GBGSV,3,1,10,26,53,287,26,29,60,053,36,30,07,059,29,32,06,047,24,5*75,1746263601010
NMEA,$GBGSV,3,2,10,35,54,246,28,38,23,041,25,45,49,180,33,24,11,318,,5*7E,1746263601010
NMEA,$GBGSV,3,3,10,36,06,155,,44,08,242,,5*7D,1746263601010
NMEA,$GNGSA,A,3,05,16,18,23,25,26,28,29,31,,,,0.7,0.4,0.6,1*3E,1746263601036
NMEA,$GNGSA,A,3,67,73,74,83,84,,,,,,,,0.7,0.4,0.6,2*36,1746263601036
NMEA,$GNGSA,A,3,10,12,16,24,31,33,,,,,,,0.7,0.4,0.6,3*37,1746263601036
NMEA,$GNGSA,A,3,05,08,13,26,29,30,32,35,38,45,,,0.7,0.4,0.6,4*3F,1746263601036
NMEA,$GNVTG,,T,,M,0.0,N,0.0,K,A*3D,1746263601036
NMEA,$GNDTM,P90,,0000.000026,S,00000.000000,E,0.978,W84*5C,1746263601036
NMEA,$GNRMC,091321.00,A,4503.225171,N,00741.243069,E,0.0,,030525,3.3,E,A,V*7E,1746263601036
NMEA,$GNGNS,091321.00,4503.225171,N,00741.243069,E,AAAANN,30,0.4,211.3,48.0,,,V*28,1746263601036
NMEA,$GNGGA,091321.00,4503.225171,N,00741.243069,E,1,12,0.4,211.3,M,48.0,M,,*78,1746263601036
NMEA,$GPGSV,3,1,11,05,20,052,42,16,39,305,16,18,75,130,39,23,16,142,31,1*6C,1746263602012
NMEA,$GPGSV,3,2,11,25,11,131,32,26,67,291,33,29,38,067,41,20,01,025,,1*6F,1746263602012
NMEA,$GPGSV,3,3,11,27,15,268,,28,23,202,,31,38,227,,1*5C,1746263602012
NMEA,$GPGSV,2,1,06,18,75,130,40,23,16,142,23,25,11,131,21,26,67,291,34,8*6A,1746263602012
NMEA,$GPGSV,2,2,06,28,23,202,23,27,15,268,,8*6C,1746263602012
NMEA,$GLGSV,2,1,08,74,78,286,27,73,46,161,38,84,74,253,22,83,33,037,29,1*72,1746263602012
NMEA,$GLGSV,2,2,08,67,07,039,23,66,03,350,,75,26,324,,85,22,230,,1*77,1746263602012
NMEA,$GAGSV,3,1,11,10,40,196,22,12,62,175,34,16,42,306,27,24,70,306,32,7*7D,1746263602012
NMEA,$GAGSV,3,2,11,26,03,037,18,31,52,124,37,33,49,055,42,03,02,305,,7*72,1746263602012
NMEA,$GAGSV,3,3,11,11,14,206,,23,03,125,,25,18,305,,7*4E,1746263602012
NMEA,$GAGSV,3,1,09,10,40,196,25,12,62,175,30,16,42,306,31,24,70,306,35,1*71,1746263602012
NMEA,$GAGSV,3,2,09,31,52,124,34,33,49,055,38,03,02,305,,23,03,125,,1*7D,1746263602012
NMEA,$GAGSV,3,3,09,26,03,037,,1*4F,1746263602012
NMEA,$GBGSV,4,1,14,45,49,180,38,38,23,041,32,35,54,246,23,32,06,047,28,1*7E,1746263602012
NMEA,$GBGSV,4,2,14,30,07,059,26,29,60,053,42,26,53,287,24,13,36,069,38,1*7E,1746263602012
NMEA,$GBGSV,4,3,14,08,31,050,37,05,17,120,29,24,11,318,,36,06,155,,1*7A,1746263602012
NMEA,$GBGSV,4,4,14,44,08,242,,60,05,101,,1*7C,1746263602012
NMEA,$GBGSV,3,1,10,26,53,287,25,29,60,053,43,30,07,059,31,32,06,047,31,3*7F,1746263602012
NMEA,$GBGSV,3,2,10,35,54,246,24,38,23,041,36,45,49,180,42,24,11,318,,3*70,1746263602012
NMEA,$GBGSV,3,3,10,36,06,155,,44,08,242,,3*7B,1746263602012
NMEA,$GBGSV,3,1,10,26,53,287,26,29,60,053,34,30,07,059,26,32,06,047,29,5*75,1746263602012
NMEA,$GBGSV,3,2,10,35,54,246,28,38,23,041,26,45,49,180,35,24,11,318,,5*7B,1746263602012
NMEA,$GBGSV,3,3,10,36,06,155,,44,08,242,,5*7D,1746263602012
NMEA,$GNGSA,A,3,05,16,18,23,25,26,28,29,31,,,,0.7,0.4,0.6,1*3E,1746263602024
NMEA,$GNGSA,A,3,67,73,74,83,84,,,,,,,,0.7,0.4,0.6,2*36,1746263602024
NMEA,$GNGSA,A,3,10,12,16,24,31,33,,,,,,,0.7,0.4,0.6,3*37,1746263602024
NMEA,$GNGSA,A,3,05,08,13,26,29,30,32,35,38,45,,,0.7,0.4,0.6,4*3F,1746263602024
NMEA,$GNVTG,,T,,M,0.0,N,0.0,K,A*3D,1746263602024
NMEA,$GNDTM,P90,,0000.000026,S,00000.000000,E,0.978,W84*5C,1746263602024
NMEA,$GNRMC,091322.00,A,4503.225124,N,00741.243086,E,0.0,,030525,3.3,E,A,V*7C,1746263602024
NMEA,$GNGNS,091322.00,4503.225124,N,00741.243086,E,AAAANN,30,0.4,211.6,48.0,,,V*2F,1746263602024
NMEA,$GNGGA,091322.00,4503.225124,N,00741.243086,E,1,12,0.4,211.6,M,48.0,M,,*7F,1746263602024
NMEA,$GPGSV,3,1,11,05,20,052,41,16,39,305,19,18,75,130,39,23,16,142,34,1*65,1746263603009
NMEA,$GPGSV,3,2,11,25,11,131,31,26,67,291,30,29,38,067,41,20,01,025,,1*6F,1746263603009
NMEA,$GPGSV,3,3,11,27,15,268,,28,23,202,,31,38,227,,1*5C,1746263603009
NMEA,$GPGSV,2,1,06,18,75,130,41,23,16,142,29,25,11,131,27,26,67,291,30,8*63,1746263603009
NMEA,$GPGSV,2,2,06,28,23,202,24,27,15,268,,8*6B,1746263603009
NMEA,$GLGSV,2,1,08,74,78,286,23,73,46,161,37,84,74,253,22,83,33,037,29,1*79,1746263603009
NMEA,$GLGSV,2,2,08,67,07,039,22,66,03,350,,75,26,324,,85,22,230,,1*76,1746263603009
NMEA,$GAGSV,3,1,11,10,40,196,24,12,62,175,33,16,42,306,27,24,70,306,30,7*7E,1746263603009
NMEA,$GAGSV,3,2,11,26,03,037,18,31,52,124,37,33,49,055,41,03,02,305,,7*71,1746263603009
NMEA,$GAGSV,3,3,11,11,14,206,,23,03,125,,25,18,305,,7*4E,1746263603009
NMEA,$GAGSV,3,1,09,10,40,196,32,12,62,175,33,16,42,306,31,24,70,306,34,1*75,1746263603009
NMEA,$GAGSV,3,2,09,31,52,124,34,33,49,055,38,03,02,305,,23,03,125,,1*7D,1746263603009
NMEA,$GAGSV,3,3,09,26,03,037,,1*4F,1746263603009
NMEA,$GBGSV,4,1,14,45,49,180,37,38,23,041,31,35,54,246,23,32,06,047,27,1*7D,1746263603009
NMEA,$GBGSV,4,2,14,30,07,059,25,29,60,053,41,26,53,287,24,13,36,069,37,1*71,1746263603009
NMEA,$GBGSV,4,3,14,08,31,050,36,05,17,120,30,24,11,318,,36,06,155,,1*73,1746263603009
NMEA,$GBGSV,4,4,14,44,08,242,,60,05,101,,1*7C,1746263603009
NMEA,$GBGSV,3,1,10,26,53,287,25,29,60,053,42,30,07,059,26,32,06,047,30,3*79,1746263603009
NMEA,$GBGSV,3,2,10,35,54,246,24,38,23,041,35,45,49,180,40,24,11,318,,3*71,1746263603009
NMEA,$GBGSV,3,3,10,36,06,155,,44,08,242,,3*7B,1746263603009
NMEA,$GBGSV,3,1,10,26,53,287,18,29,60,053,36,30,07,059,27,32,06,047,28,5*7A,1746263603009
NMEA,$GBGSV,3,2,10,35,54,246,23,38,23,041,27,45,49,180,36,24,11,318,,5*72,1746263603009
NMEA,$GBGSV,3,3,10,36,06,155,,44,08,242,,5*7D,1746263603009
NMEA,$GNGSA,A,3,05,16,18,23,25,26,28,29,31,,,,0.7,0.4,0.6,1*3E,1746263603030
NMEA,$GNGSA,A,3,67,73,74,83,84,,,,,,,,0.7,0.4,0.6,2*36,1746263603030
NMEA,$GNGSA,A,3,10,12,16,24,31,33,,,,,,,0.7,0.4,0.6,3*37,1746263603030
NMEA,$GNGSA,A,3,05,08,13,26,29,30,32,35,38,45,,,0.7,0.4,0.6,4*3F,1746263603030
NMEA,$GNVTG,,T,,M,0.0,N,0.0,K,A*3D,1746263603030
NMEA,$GNDTM,P90,,0000.000026,S,00000.000000,E,0.978,W84*5C,1746263603030
NMEA,$GNRMC,091323.00,A,4503.225068,N,00741.243207,E,0.0,,030525,3.3,E,A,V*7F,1746263603030
NMEA,$GNGNS,091323.00,4503.225068,N,00741.243207,E,AAAANN,30,0.4,211.8,48.0,,,V*22,1746263603030
NMEA,$GNGGA,091323.00,4503.225068,N,00741.243207,E,1,12,0.4,211.8,M,48.0,M,,*72,1746263603030
NMEA,$GPGSV,3,1,11,05,20,052,41,16,39,305,23,18,75,130,39,23,16,142,32,1*6A,1746263604010
NMEA,$GPGSV,3,2,11,25,11,131,31,26,67,291,30,29,38,067,41,31,38,227,25,1*62,1746263604010
NMEA,$GPGSV,3,3,11,20,01,025,,27,15,268,,28,23,202,,1*56,1746263604010
NMEA,$GPGSV,2,1,06,18,75,130,38,23,16,142,27,25,11,131,26,26,67,291,28,8*6B,1746263604010
NMEA,$GPGSV,2,2,06,28,23,202,27,27,15,268,,8*68,1746263604010
NMEA,$GLGSV,2,1,08,74,78,286,22,73,46,161,37,84,74,253,22,83,33,037,29,1*78,1746263604010
NMEA,$GLGSV,2,2,08,67,07,039,22,66,03,350,,75,26,324,,85,22,230,,1*76,1746263604010
NMEA,$GAGSV,3,1,11,10,40,196,28,12,62,175,35,16,42,306,26,24,70,306,26,7*72,1746263604010
NMEA,$GAGSV,3,2,11,26,03,037,18,31,52,124,38,33,49,055,43,03,02,305,,7*7C,1746263604010
NMEA,$GAGSV,3,3,11,11,14,206,,23,03,125,,25,18,305,,7*4E,1746263604010
NMEA,$GAGSV,3,1,09,10,40,196,33,12,62,175,32,16,42,306,35,24,70,306,28,1*7C,1746263604010
NMEA,$GAGSV,3,2,09,31,52,124,34,33,49,055,40,03,02,305,,23,03,125,,1*72,1746263604010
NMEA,$GAGSV,3,3,09,26,03,037,,1*4F,1746263604010
NMEA,$GBGSV,4,1,14,45,49,180,39,38,23,041,39,35,54,246,20,32,06,047,27,1*78,1746263604010
NMEA,$GBGSV,4,2,14,30,07,059,26,29,60,053,42,26,53,287,24,13,36,069,37,1*71,1746263604010
NMEA,$GBGSV,4,3,14,08,31,050,40,05,17,120,32,24,11,318,,36,06,155,,1*70,1746263604010
NMEA,$GBGSV,4,4,14,44,08,242,,60,05,101,,1*7C,1746263604010
NMEA,$GBGSV,3,1,10,26,53,287,26,29,60,053,43,30,07,059,24,32,06,047,31,3*78,1746263604010
NMEA,$GBGSV,3,2,10,35,54,246,24,38,23,041,41,45,49,180,43,24,11,318,,3*71,1746263604010
NMEA,$GBGSV,3,3,10,36,06,155,,44,08,242,,3*7B,1746263604010
NMEA,$GBGSV,3,1,09,26,53,287,28,29,60,053,36,30,07,059,27,32,06,047,25,5*7C,1746263604010
NMEA,$GBGSV,3,2,09,35,54,246,23,38,23,041,30,45,49,180,36,24,11,318,,5*7C,1746263604010
NMEA,$GBGSV,3,3,09,36,06,155,,5*49,1746263604010
NMEA,$GNGSA,A,3,05,16,18,23,25,26,28,29,31,,,,0.7,0.4,0.6,1*3E,1746263604036
NMEA,$GNGSA,A,3,67,73,74,83,84,,,,,,,,0.7,0.4,0.6,2*36,1746263604036
NMEA,$GNGSA,A,3,10,12,16,24,31,33,,,,,,,0.7,0.4,0.6,3*37,1746263604036
NMEA,$GNGSA,A,3,05,08,13,26,29,30,32,35,38,45,,,0.7,0.4,0.6,4*3F,1746263604036
NMEA,$GNVTG,,T,,M,0.0,N,0.0,K,A*3D,1746263604036
NMEA,$GNDTM,P90,,0000.000026,S,00000.000000,E,0.978,W84*5C,1746263604036
NMEA,$GNRMC,091324.00,A,4503.225011,N,00741.243324,E,0.0,,030525,3.3,E,A,V*76,1746263604036
NMEA,$GNGNS,091324.00,4503.225011,N,00741.243324,E,AAAANN,30,0.4,212.0,48.0,,,V*20,1746263604036
NMEA,$GNGGA,091324.00,4503.225011,N,00741.243324,E,1,12,0.4,212.0,M,48.0,M,,*70,1746263604036
NMEA,$GPGSV,3,1,11,05,20,052,38,16,39,305,23,18,75,130,37,23,16,142,32,1*6A,1746263605010
NMEA,$GPGSV,3,2,11,25,11,131,32,26,67,291,35,29,38,067,37,31,38,227,25,1*65,1746263605010
NMEA,$GPGSV,3,3,11,20,01,025,,27,15,268,,28,23,202,,1*56,1746263605010
NMEA,$GPGSV,2,1,06,18,75,130,37,23,16,142,29,25,11,131,25,26,67,291,37,8*67,1746263605010
NMEA,$GPGSV,2,2,06,28,23,202,25,27,15,268,,8*6A,1746263605010
NMEA,$GLGSV,2,1,08,74,78,286,25,73,46,161,37,84,74,253,22,83,33,037,27,1*71,1746263605010
NMEA,$GLGSV,2,2,08,67,07,039,23,66,03,350,,75,26,324,,85,22,230,,1*77,1746263605010
NMEA,$GAGSV,3,1,11,10,40,196,25,12,62,175,33,16,42,306,29,24,70,306,31,7*70,1746263605010
NMEA,$GAGSV,3,2,11,26,03,037,16,31,52,124,38,33,49,055,37,03,02,305,,7*71,1746263605010
NMEA,$GAGSV,3,3,11,11,14,206,,23,03,125,,25,18,305,,7*4E,1746263605010
NMEA,$GAGSV,3,1,09,10,40,196,32,12,62,175,34,16,42,306,33,24,70,306,36,1*72,1746263605010
NMEA,$GAGSV,3,2,09,31,52,124,34,33,49,055,32,03,02,305,,23,03,125,,1*77,1746263605010
NMEA,$GAGSV,3,3,09,26,03,037,,1*4F,1746263605010
NMEA,$GBGSV,4,1,14,45,49,180,37,38,23,041,34,35,54,246,23,32,06,047,25,1*7A,1746263605010
NMEA,$GBGSV,4,2,14,30,07,059,23,29,60,053,35,26,53,287,29,13,36,069,34,1*7A,1746263605010
NMEA,$GBGSV,4,3,14,08,31,050,34,05,17,120,33,24,11,318,,36,06,155,,1*72,1746263605010
NMEA,$GBGSV,4,4,14,44,08,242,,60,05,101,,1*7C,1746263605010
NMEA,$GBGSV,3,1,10,26,53,287,31,29,60,053,36,30,07,059,30,32,06,047,29,3*70,1746263605010
NMEA,$GBGSV,3,2,10,35,54,246,23,38,23,041,36,45,49,180,40,24,11,318,,3*75,1746263605010
NMEA,$GBGSV,3,3,10,36,06,155,,44,08,242,,3*7B,1746263605010
NMEA,$GBGSV,2,1,08,26,53,287,34,29,60,053,27,30,07,059,26,32,06,047,22,5*77,1746263605010
NMEA,$GBGSV,2,2,08,35,54,246,28,38,23,041,27,45,49,180,33,44,08,242,,5*74,1746263605010
NMEA,$GNGSA,A,3,05,16,18,23,25,26,28,29,31,,,,0.7,0.4,0.6,1*3E,1746263605038
NMEA,$GNGSA,A,3,67,73,74,83,84,,,,,,,,0.7,0.4,0.6,2*36,1746263605038
NMEA,$GNGSA,A,3,10,12,16,24,31,33,,,,,,,0.7,0.4,0.6,3*37,1746263605038
NMEA,$GNGSA,A,3,05,08,13,26,29,30,32,35,38,45,,,0.7,0.4,0.6,4*3F,1746263605038
NMEA,$GNVTG,,T,,M,0.0,N,0.0,K,A*3D,1746263605038
NMEA,$GNDTM,P90,,0000.000026,S,00000.000000,E,0.978,W84*5C,1746263605038
NMEA,$GNRMC,091325.00,A,4503.224962,N,00741.243349,E,0.0,,030525,3.3,E,A,V*70,1746263605038
NMEA,$GNGNS,091325.00,4503.224962,N,00741.243349,E,AAAANN,30,0.4,212.3,48.0,,,V*25,1746263605038
NMEA,$GNGGA,091325.00,4503.224962,N,00741.243349,E,1,12,0.4,212.3,M,48.0,M,,*75,1746263605038
NMEA,$GPGSV,3,1,11,05,20,052,42,16,39,305,20,18,75,130,38,23,16,142,30,1*69,1746263606011
NMEA,$GPGSV,3,2,11,25,11,131,30,26,67,291,36,29,38,067,41,31,38,227,28,1*68,1746263606011
NMEA,$GPGSV,3,3,11,20,01,025,,27,15,268,,28,23,202,,1*56,1746263606011
NMEA,$GPGSV,2,1,06,18,75,130,38,23,16,142,25,25,11,131,25,26,67,291,36,8*65,1746263606011
NMEA,$GPGSV,2,2,06,28,23,202,26,27,15,268,,8*69,1746263606011
NMEA,$GLGSV,2,1,08,74,78,286,28,73,46,161,34,75,26,324,16,84,74,253,20,1*73,1746263606011
NMEA,$GLGSV,2,2,08,83,33,037,32,67,07,039,28,66,03,350,,85,22,230,,1*71,1746263606011
NMEA,$GAGSV,3,1,11,10,40,196,25,12,62,175,29,16,42,306,27,24,70,306,34,7*70,1746263606011
NMEA,$GAGSV,3,2,11,26,03,037,16,31,52,124,35,33,49,055,41,03,02,305,,7*7D,1746263606011
NMEA,$GAGSV,3,3,11,11,14,206,,23,03,125,,25,18,305,,7*4E,1746263606011
NMEA,$GAGSV,3,1,09,10,40,196,29,12,62,175,27,16,42,306,31,24,70,306,37,1*79,1746263606011
NMEA,$GAGSV,3,2,09,31,52,124,32,33,49,055,38,03,02,305,,23,03,125,,1*7B,1746263606011
NMEA,$GAGSV,3,3,09,26,03,037,,1*4F,1746263606011
NMEA,$GBGSV,4,1,14,45,49,180,36,38,23,041,38,35,54,246,26,32,06,047,29,1*7E,1746263606011
NMEA,$GBGSV,4,2,14,30,07,059,22,29,60,053,42,26,53,287,31,13,36,069,38,1*7E,1746263606011
NMEA,$GBGSV,4,3,14,08,31,050,38,05,17,120,33,24,11,318,,36,06,155,,1*7E,1746263606011
NMEA,$GBGSV,4,4,14,44,08,242,,60,05,101,,1*7C,1746263606011
NMEA,$GBGSV,3,1,10,26,53,287,33,29,60,053,42,30,07,059,29,32,06,047,31,3*70,1746263606011
NMEA,$GBGSV,3,2,10,35,54,246,26,38,23,041,40,45,49,180,39,24,11,318,,3*7F,1746263606011
NMEA,$GBGSV,3,3,10,36,06,155,,44,08,242,,3*7B,1746263606011
NMEA,$GBGSV,3,1,10,26,53,287,29,29,60,053,35,30,07,059,28,32,06,047,23,5*7F,1746263606011
NMEA,$GBGSV,3,2,10,35,54,246,29,38,23,041,33,45,49,180,30,24,11,318,,5*7B,1746263606011
NMEA,$GBGSV,3,3,10,36,06,155,,44,08,242,,5*7D,1746263606011
NMEA,$GNGSA,A,3,05,16,18,23,25,26,28,29,31,,,,0.7,0.4,0.5,1*3D,1746263606037
NMEA,$GNGSA,A,3,67,73,74,75,83,84,,,,,,,0.7,0.4,0.5,2*37,1746263606037
NMEA,$GNGSA,A,3,10,12,16,24,31,33,,,,,,,0.7,0.4,0.5,3*34,1746263606037
NMEA,$GNGSA,A,3,05,08,13,26,29,30,32,35,38,45,,,0.7,0.4,0.5,4*3C,1746263606037
NMEA,$GNVTG,,T,,M,0.0,N,0.0,K,A*3D,1746263606037
NMEA,$GNDTM,P90,,0000.000026,S,00000.000000,E,0.978,W84*5C,1746263606037
NMEA,$GNRMC,091326.00,A,4503.224923,N,00741.243348,E,0.0,,030525,3.3,E,A,V*77,1746263606037
NMEA,$GNGNS,091326.00,4503.224923,N,00741.243348,E,AAAANN,31,0.4,212.7,48.0,,,V*27,1746263606037
NMEA,$GNGGA,091326.00,4503.224923,N,00741.243348,E,1,12,0.4,212.7,M,48.0,M,,*76,1746263606037
NMEA,$GPGSV,3,1,11,05,20,052,39,16,39,305,20,18,75,130,40,23,16,142,32,1*68,1746263607007
NMEA,$GPGSV,3,2,11,25,11,131,31,26,67,291,36,29,38,067,42,31,38,227,27,1*65,1746263607007
NMEA,$GPGSV,3,3,11,20,01,025,,27,15,268,,28,23,202,,1*56,1746263607007
NMEA,$GPGSV,2,1,05,18,75,130,41,23,16,142,25,25,11,131,21,26,67,291,36,8*6C,1746263607007
NMEA,$GPGSV,2,2,05,28,23,202,25,8*54,1746263607007
NMEA,$GLGSV,2,1,08,74,78,286,29,73,46,161,37,75,26,324,16,84,74,253,20,1*71,1746263607007
NMEA,$GLGSV,2,2,08,83,33,037,25,85,22,230,16,67,07,039,24,66,03,350,,1*7C,1746263607007
NMEA,$GAGSV,3,1,11,10,40,196,25,12,62,175,33,16,42,306,24,24,70,306,33,7*7F,1746263607007
NMEA,$GAGSV,3,2,11,26,03,037,19,31,52,124,38,33,49,055,39,03,02,305,,7*70,1746263607007
NMEA,$GAGSV,3,3,11,11,14,206,,23,03,125,,25,18,305,,7*4E,1746263607007
NMEA,$GAGSV,3,1,09,10,40,196,30,12,62,175,32,16,42,306,30,24,70,306,36,1*75,1746263607007
NMEA,$GAGSV,3,2,09,31,52,124,33,33,49,055,33,03,02,305,,23,03,125,,1*71,1746263607007
NMEA,$GAGSV,3,3,09,26,03,037,,1*4F,1746263607007
NMEA,$GBGSV,4,1,14,45,49,180,35,38,23,041,31,35,54,246,26,32,06,047,25,1*78,1746263607007
NMEA,$GBGSV,4,2,14,30,07,059,22,29,60,053,39,26,53,287,30,13,36,069,37,1*7C,1746263607007
NMEA,$GBGSV,4,3,14,08,31,050,34,05,17,120,30,24,11,318,,36,06,155,,1*71,1746263607007
NMEA,$GBGSV,4,4,14,44,08,242,,60,05,101,,1*7C,1746263607007
NMEA,$GBGSV,3,1,10,26,53,287,33,29,60,053,39,30,07,059,32,32,06,047,24,3*72,1746263607007
NMEA,$GBGSV,3,2,10,35,54,246,27,38,23,041,34,45,49,180,38,24,11,318,,3*7C,1746263607007
NMEA,$GBGSV,3,3,10,36,06,155,,44,08,242,,3*7B,1746263607007
NMEA,$GBGSV,3,1,10,26,53,287,27,29,60,053,31,30,07,059,25,32,06,047,24,5*7F,1746263607007
NMEA,$GBGSV,3,2,10,35,54,246,30,38,23,041,26,45,49,180,33,24,11,318,,5*74,1746263607007
NMEA,$GBGSV,3,3,10,36,06,155,,44,08,242,,5*7D,1746263607007
NMEA,$GNGSA,A,3,05,16,18,23,25,26,28,29,31,,,,0.7,0.4,0.5,1*3D,1746263607032
NMEA,$GNGSA,A,3,67,73,74,75,83,84,85,,,,,,0.7,0.4,0.5,2*3A,1746263607032
NMEA,$GNGSA,A,3,10,12,16,24,31,33,,,,,,,0.7,0.4,0.5,3*34,1746263607032
NMEA,$GNGSA,A,3,05,08,13,26,29,30,32,35,38,45,,,0.7,0.4,0.5,4*3C,1746263607032
NMEA,$GNVTG,,T,,M,0.0,N,0.0,K,A*3D,1746263607032
NMEA,$GNDTM,P90,,0000.000026,S,00000.000000,E,0.978,W84*5C,1746263607032
NMEA,$GNRMC,091327.00,A,4503.224879,N,00741.243384,E,0.0,,030525,3.3,E,A,V*78,1746263607032
NMEA,$GNGNS,091327.00,4503.224879,N,00741.243384,E,AAAANN,32,0.4,212.8,48.0,,,V*24,1746263607032
NMEA,$GNGGA,091327.00,4503.224879,N,00741.243384,E,1,12,0.4,212.8,M,48.0,M,,*76,1746263607032
NMEA,$GPGSV,3,1,11,05,20,052,35,16,39,305,20,18,75,130,39,23,16,142,33,1*6B,1746263608012
NMEA,$GPGSV,3,2,11,25,11,131,31,26,67,291,35,29,38,067,38,31,38,227,25,1*69,1746263608012
NMEA,$GPGSV,3,3,11,20,01,025,,27,15,268,,28,23,202,,1*56,1746263608012
NMEA,$GPGSV,2,1,06,18,75,130,40,23,16,142,29,25,11,131,23,26,67,291,36,8*60,1746263608012
NMEA,$GPGSV,2,2,06,28,23,202,25,27,15,268,,8*6A,1746263608012
NMEA,$GLGSV,2,1,08,74,78,286,27,73,46,161,40,75,26,324,16,84,74,253,20,1*7F,1746263608012
NMEA,$GLGSV,2,2,08,83,33,037,24,85,22,230,16,67,07,039,25,66,03,350,,1*7C,1746263608012
NMEA,$GAGSV,3,1,11,10,40,196,23,12,62,175,32,16,42,306,26,24,70,306,31,7*78,1746263608012
NMEA,$GAGSV,3,2,11,26,03,037,19,31,52,124,38,33,49,055,37,03,02,305,,7*7E,1746263608012
NMEA,$GAGSV,3,3,11,11,14,206,,23,03,125,,25,18,305,,7*4E,1746263608012
NMEA,$GAGSV,3,1,09,10,40,196,30,12,62,175,33,16,42,306,30,24,70,306,37,1*75,1746263608012
NMEA,$GAGSV,3,2,09,31,52,124,34,33,49,055,34,03,02,305,,23,03,125,,1*71,1746263608012
NMEA,$GAGSV,3,3,09,26,03,037,,1*4F,1746263608012
NMEA,$GBGSV,4,1,14,45,49,180,37,38,23,041,30,35,54,246,22,32,06,047,24,1*7E,1746263608012
NMEA,$GBGSV,4,2,14,30,07,059,23,29,60,053,40,26,53,287,31,13,36,069,35,1*70,1746263608012
NMEA,$GBGSV,4,3,14,08,31,050,29,05,17,120,30,24,11,318,,36,06,155,,1*7D,1746263608012
NMEA,$GBGSV,4,4,14,44,08,242,,60,05,101,,1*7C,1746263608012
NMEA,$GBGSV,3,1,10,26,53,287,33,29,60,053,41,30,07,059,27,32,06,047,25,3*78,1746263608012
NMEA,$GBGSV,3,2,10,35,54,246,26,38,23,041,32,45,49,180,40,24,11,318,,3*74,1746263608012
NMEA,$GBGSV,3,3,10,36,06,155,,44,08,242,,3*7B,1746263608012
NMEA,$GBGSV,3,1,10,26,53,287,29,29,60,053,34,30,07,059,26,32,06,047,23,5*70,1746263608012
NMEA,$GBGSV,3,2,10,35,54,246,30,38,23,041,25,45,49,180,34,24,11,318,,5*70,1746263608012
NMEA,$GBGSV,3,3,10,36,06,155,,44,08,242,,5*7D,1746263608012
NMEA,$GNGSA,A,3,05,16,18,23,25,26,28,29,31,,,,0.7,0.4,0.5,1*3D,1746263608038
NMEA,$GNGSA,A,3,67,73,74,75,83,84,85,,,,,,0.7,0.4,0.5,2*3A,1746263608038
NMEA,$GNGSA,A,3,10,12,16,24,31,33,,,,,,,0.7,0.4,0.5,3*34,1746263608038
NMEA,$GNGSA,A,3,05,08,13,26,29,30,32,35,38,45,,,0.7,0.4,0.5,4*3C,1746263608038
NMEA,$GNVTG,,T,,M,0.0,N,0.0,K,A*3D,1746263608038
NMEA,$GNDTM,P90,,0000.000026,S,00000.000000,E,0.978,W84*5C,1746263608038
NMEA,$GNRMC,091328.00,A,4503.224890,N,00741.243048,E,0.0,,030525,3.3,E,A,V*73,1746263608038
NMEA,$GNGNS,091328.00,4503.224890,N,00741.243048,E,AAAANN,32,0.4,213.0,48.0,,,V*26,1746263608038
NMEA,$GNGGA,091328.00,4503.224890,N,00741.243048,E,1,12,0.4,213.0,M,48.0,M,,*74,1746263608038
NMEA,$GPGSV,3,1,11,05,20,052,37,16,39,305,20,18,75,130,38,23,16,142,34,1*6F,1746263609013
NMEA,$GPGSV,3,2,11,25,11,131,31,26,67,291,34,29,38,067,40,31,38,227,25,1*67,1746263609013
NMEA,$GPGSV,3,3,11,20,01,025,,27,15,268,,28,23,202,,1*56,1746263609013
NMEA,$GPGSV,2,1,06,18,75,130,40,23,16,142,24,25,11,131,27,26,67,291,37,8*68,1746263609013
NMEA,$GPGSV,2,2,06,28,23,202,25,27,15,268,,8*6A,1746263609013
NMEA,$GLGSV,2,1,08,74,78,286,27,73,46,161,40,75,26,324,16,84,74,253,20,1*7F,1746263609013
NMEA,$GLGSV,2,2,08,83,33,037,24,85,22,230,16,67,07,039,25,66,03,350,,1*7C,1746263609013
NMEA,$GAGSV,3,1,11,10,40,196,27,12,62,175,33,16,42,306,26,24,70,306,33,7*7F,1746263609013
NMEA,$GAGSV,3,2,11,26,03,037,19,31,52,124,38,33,49,055,39,03,02,305,,7*70,1746263609013
NMEA,$GAGSV,3,3,11,11,14,206,,23,03,125,,25,18,305,,7*4E,1746263609013
NMEA,$GAGSV,3,1,09,10,40,196,29,12,62,175,32,16,42,306,33,24,70,306,37,1*7F,1746263609013
NMEA,$GAGSV,3,2,09,31,52,124,34,33,49,055,36,03,02,305,,23,03,125,,1*73,1746263609013
NMEA,$GAGSV,3,3,09,26,03,037,,1*4F,1746263609013
NMEA,$GBGSV,4,1,14,45,49,180,38,38,23,041,32,35,54,246,24,32,06,047,23,1*72,1746263609013
NMEA,$GBGSV,4,2,14,30,07,059,22,29,60,053,42,26,53,287,28,13,36,069,36,1*78,1746263609013
NMEA,$GBGSV,4,3,14,08,31,050,33,05,17,120,31,24,11,318,,36,06,155,,1*77,1746263609013
NMEA,$GBGSV,4,4,14,44,08,242,,60,05,101,,1*7C,1746263609013
NMEA,$GBGSV,3,1,10,26,53,287,29,29,60,053,42,30,07,059,26,32,06,047,23,3*77,1746263609013
NMEA,$GBGSV,3,2,10,35,54,246,26,38,23,041,35,45,49,180,41,24,11,318,,3*72,1746263609013
NMEA,$GBGSV,3,3,10,36,06,155,,44,08,242,,3*7B,1746263609013
NMEA,$GBGSV,3,1,10,26,53,287,28,29,60,053,34,30,07,059,24,32,06,047,23,5*73,1746263609013
NMEA,$GBGSV,3,2,10,35,54,246,30,38,23,041,28,45,49,180,33,24,11,318,,5*7A,1746263609013
NMEA,$GBGSV,3,3,10,36,06,155,,44,08,242,,5*7D,1746263609013
NMEA,$GNGSA,A,3,05,16,18,23,25,26,28,29,31,,,,0.7,0.4,0.5,1*3D,1746263609040
NMEA,$GNGSA,A,3,67,73,74,75,83,84,85,,,,,,0.7,0.4,0.5,2*3A,1746263609040
NMEA,$GNGSA,A,3,10,12,16,24,31,33,,,,,,,0.7,0.4,0.5,3*34,1746263609040
NMEA,$GNGSA,A,3,05,08,13,26,29,30,32,35,38,45,,,0.7,0.4,0.5,4*3C,1746263609040
NMEA,$GNVTG,,T,,M,0.0,N,0.0,K,A*3D,1746263609040
NMEA,$GNDTM,P90,,0000.000026,S,00000.000000,E,0.978,W84*5C,1746263609040
NMEA,$GNRMC,091329.00,A,4503.224958,N,00741.243116,E,0.0,,030525,3.3,E,A,V*7D,1746263609040
NMEA,$GNGNS,091329.00,4503.224958,N,00741.243116,E,AAAANN,32,0.4,213.3,48.0,,,V*2B,1746263609040
NMEA,$GNGGA,091329.00,4503.224958,N,00741.243116,E,1,12,0.4,213.3,M,48.0,M,,*79,1746263609040
NMEA,$GPGSV,3,1,11,05,20,052,35,16,39,305,20,18,75,130,39,23,16,142,32,1*6A,1746263610011
NMEA,$GPGSV,3,2,11,25,11,131,30,26,67,291,36,29,38,067,40,31,38,227,23,1*62,1746263610011
NMEA,$GPGSV,3,3,11,20,01,025,,27,15,268,,28,23,202,,1*56,1746263610011
NMEA,$GPGSV,2,1,06,18,75,130,39,23,16,142,23,25,11,131,24,26,67,291,36,8*63,1746263610011
NMEA,$GPGSV,2,2,06,28,23,202,25,27,15,268,,8*6A,1746263610011
NMEA,$GLGSV,2,1,08,74,78,286,28,73,46,161,41,75,26,324,16,84,74,253,21,1*70,1746263610011
NMEA,$GLGSV,2,2,08,83,33,037,23,85,22,230,16,67,07,039,22,66,03,350,,1*7C,1746263610011
NMEA,$GAGSV,3,1,11,10,40,196,25,12,62,175,32,16,42,306,23,24,70,306,32,7*78,1746263610011
NMEA,$GAGSV,3,2,11,26,03,037,19,31,52,124,37,33,49,055,38,03,02,305,,7*7E,1746263610011
NMEA,$GAGSV,3,3,11,11,14,206,,23,03,125,,25,18,305,,7*4E,1746263610011
NMEA,$GAGSV,2,1,06,10,40,196,29,12,62,175,32,16,42,306,32,24,70,306,35,1*72,1746263610011
NMEA,$GAGSV,2,2,06,31,52,124,31,33,49,055,33,1*7E,1746263610011
NMEA,$GBGSV,4,1,14,45,49,180,36,38,23,041,32,35,54,246,24,32,06,047,22,1*7D,1746263610011
NMEA,$GBGSV,4,2,14,30,07,059,26,29,60,053,41,26,53,287,30,13,36,069,36,1*76,1746263610011
NMEA,$GBGSV,4,3,14,08,31,050,24,05,17,120,31,24,11,318,,36,06,155,,1*71,1746263610011
NMEA,$GBGSV,4,4,14,44,08,242,,60,05,101,,1*7C,1746263610011
NMEA,$GBGSV,3,1,10,26,53,287,30,29,60,053,42,30,07,059,26,32,06,047,24,3*78,1746263610011
NMEA,$GBGSV,3,2,10,35,54,246,26,38,23,041,35,45,49,180,40,24,11,318,,3*73,1746263610011
NMEA,$GBGSV,3,3,10,36,06,155,,44,08,242,,3*7B,1746263610011
NMEA,$GBGSV,3,1,10,26,53,287,28,29,60,053,34,30,07,059,26,32,06,047,26,5*74,1746263610011
NMEA,$GBGSV,3,2,10,35,54,246,30,38,23,041,20,45,49,180,33,24,11,318,,5*72,1746263610011
NMEA,$GBGSV,3,3,10,36,06,155,,44,08,242,,5*7D,1746263610011
NMEA,$GNGSA,A,3,05,16,18,23,25,26,28,29,31,,,,0.7,0.4,0.5,1*3D,1746263610037
NMEA,$GNGSA,A,3,67,73,74,75,83,84,85,,,,,,0.7,0.4,0.5,2*3A,1746263610037
NMEA,$GNGSA,A,3,10,12,16,24,31,33,,,,,,,0.7,0.4,0.5,3*34,1746263610037
NMEA,$GNGSA,A,3,05,08,13,26,29,30,32,35,38,45,,,0.7,0.4,0.5,4*3C,1746263610037
NMEA,$GNVTG,,T,,M,0.0,N,0.0,K,A*3D,1746263610037
NMEA,$GNDTM,P90,,0000.000026,S,00000.000000,E,0.978,W84*5C,1746263610037
NMEA,$GNRMC,091330.00,A,4503.224923,N,00741.242840,E,0.0,,030525,3.3,E,A,V*72,1746263610037
NMEA,$GNGNS,091330.00,4503.224923,N,00741.242840,E,AAAANN,32,0.4,213.7,48.0,,,V*20,1746263610037
NMEA,$GNGGA,091330.00,4503.224923,N,00741.242840,E,1,12,0.4,213.7,M,48.0,M,,*72,1746263610037
NMEA,$GPGSV,3,1,11,05,20,052,35,16,39,305,20,18,75,130,39,23,16,142,33,1*6B,1746263611012
