     4.01           OBSERVATION DATA    M                   RINEX VERSION / TYPE
GnssLogger          Xiaomi 12           20250510 084116 UTC PGM / RUN BY / DATE
Google GnssLogger                                           MARKER NAME
Unknown                                                     MARKER NUMBER
Unknown             Unknown                                 OBSERVER / AGENCY
Unknown             GnssLogger          v3.1.0.4            REC # / TYPE / VERS
Unknown             Unknown                                 ANT # / TYPE
        0.0000        0.0000        0.0000                  ANTENNA: DELTA H/E/N
G    6 C1C D1C S1C C5Q D5Q S5Q                              SYS / # / OBS TYPES
R    3 C1C D1C S1C                                          SYS / # / OBS TYPES
C    9 C2I D2I S2I C5P D5P S5P C1P D1P S1P                  SYS / # / OBS TYPES
E    6 C1C D1C S1C C5Q D5Q S5Q                              SYS / # / OBS TYPES
  2025    05    10    08    41   16.0000000     GPS         TIME OF FIRST OBS
 9 R01  1 R02 -4 R09 -2 R10 -7 R16 -1 R17  4 R18 -3 R19  3  GLONASS SLOT / FRQ #
   R20  2                                                   GLONASS SLOT / FRQ #
Xiaomi 2107113SG (Android 12) HW Year: 2018 HW Model:       COMMENT
qcom;MPSS.HI.4.3.c2-00084-LC_ALL_PACK-1.4500.49.6980.77;    COMMENT
                                                            END OF HEADER
> 2025 05 10 08 41 16.4230367  0 35                      
G05  23510428.41224      -745.80024        27.50024                                                
G16  21861405.00826      2641.22626        36.00026                                                
G18  20670194.96525       491.06525        32.80025  20667849.08926       366.71826        37.70026
G20  25452873.08624     -2652.22724        28.70024                                                
G26  20581766.38326       931.17926        38.50026  20579413.31226       694.48126        39.60026
G27  23968747.52526      3120.79326        41.40026  23966396.25226      2330.28126        39.70026
G28  23465493.72024     -3485.35024        26.50024  23463149.04324     -2600.80924        25.90024
G29  22118495.32825     -2481.35625        30.90025                                                
G31  22196883.56126     -2548.58626        40.50026                                                
R10  22387305.73424      3743.40024        27.90024
R02  24077011.57524      1541.85024        27.60024
R18  20532428.63926     -3031.43326        37.80026
R09  19377570.53026      1129.49526        35.80026
R16  20432807.30525     -3132.03625        29.50025
R01  24269435.76324     -1405.45024        28.20024
R20  22674097.69225      3652.25025        33.30025
R19  19198468.82024       -73.75024        24.60024
R17  24548182.49024     -4115.90024        23.50024
C45  22770108.92526     -2345.16526        37.20026  22768217.83424     -1766.88724        27.30024  22770138.00526     -2366.79626        38.10026
C44  26057622.22726      2884.92326        38.50026  26055743.42724      2173.71124        26.50024  26057654.60426      2911.49426        40.30026
C38  39199469.51525      -184.69025        34.90025  39197590.11624      -138.63124        23.50024  39199500.99326      -186.45026        36.70026
C35  22484098.82627      1650.32527        44.10027  22482219.12725      1243.12025        32.20025  22484130.90327      1665.44527        45.40027
C32  26829631.57624       881.50024        23.70024  26827750.97823       663.15023        22.60023  26829685.53824       888.85924        29.30024
C30  26124029.25425     -3077.94825        32.50025                                                  26124051.13925     -3105.11425        32.10025
C29  22004393.41926     -1559.05526        40.50026  22002509.22324     -1174.82024        23.70024  22004420.40026     -1573.39926        40.80026
C26  22703007.87827       935.31527        44.60027  22701127.87925       704.64525        30.90025  22703043.25427       943.93127        46.90027
C24  25894260.22025      2955.05025        33.40025  25892378.42324      2226.40724        28.70024  25894292.29826      2981.46926        36.20026
C13  38350978.61324       754.75024        28.50024                                                                                                
C08  38644867.25824       280.25024        26.20024                                                                                                
E05  27101821.84225     -1764.97825        33.30025                                                
E23  24823479.80624     -2042.97424        28.90024  24821567.43025     -1525.74325        30.60025
E24  26615668.79926      2360.66626        38.30026  26613752.52624      1762.85024        25.70024
E26  24946251.41324     -1912.27224        29.30024  24944339.63625     -1427.76025        30.50025
E31  23321061.80826       370.20626        36.00026  23319147.03426       276.38026        36.60026
E33  23522481.56825       827.95525        35.30025  23520569.19225       618.35425        31.10025
> 2025 05 10 08 41 17.4230367  0 35                      
G05  23510563.38225      -746.13825        29.70025                                                
G16  21860918.20826      2640.76426        35.50026                                                
G18  20670108.08925       489.32625        32.10025  20667755.31726       365.76526        38.00026
G20  25453378.00025     -2652.73325        32.20025                                                
G26  20581591.96725       928.60725        34.30025  20579236.19826       693.96126        39.80026
G27  23968152.50026      3121.12326        39.00026  23965802.72726      2330.73426        40.20026
G28  23466147.33124     -3480.85024        25.00024  23463808.95024     -2600.57224        26.50024
G29  22118976.55825     -2481.61625        34.50025                                                
G31  22197367.48927     -2548.67627        43.50027                                                
R10  22386531.73325      3745.27725        31.00025
R02  24076743.92425      1539.91125        32.40025
R18  20532994.11126     -3032.71726        40.10026
R09  19377356.24225      1127.96325        35.00025
R16  20433380.57224     -3134.65024        28.90024
R01  24269687.35226     -1407.36426        36.90026
R20  22673423.82225      3652.21425        32.90025
R19  19198544.13124       -76.85024        27.10024
C45  22770559.27625     -2345.84225        35.10025  22768667.58625     -1767.51825        32.50025  22770598.84926     -2366.65326        37.90026
C44  26057066.17526      2885.05226        38.20026  26055191.27325      2174.43825        31.50025  26057098.25326      2911.54426        40.40026
C38  39199504.65425      -185.75525        34.50025  39197625.85525      -140.51125        29.70025  39199537.93126      -187.54626        38.10026
C35  22483783.80727      1650.06827        46.00027  22481902.90926      1243.27126        36.70026  22483814.08627      1665.30827        46.80027
C32  26829470.35124       876.05024        26.80024  26827580.45924       663.24924        27.20024  26829509.32425       888.40825        29.80025
C30  26124622.60724     -3079.45024        28.60024  26122717.42623     -2320.20023        22.40023  26124643.89224     -3104.63324        29.30024
C29  22004692.07526     -1560.58526        35.80026  22002805.18225     -1177.22125        31.60025  22004722.65426     -1574.81526        36.00026
C26  22702829.56527       934.51927        47.10027  22700948.06725       704.19225        34.50025  22702862.24228       943.14228        49.50028
C24  25893693.07626      2953.65026        36.60026  25891811.27926      2225.60926        38.30026  25893728.45126      2979.45426        38.10026
C13  38350833.87724       752.45024        28.50024                                                                                                
C08  38644800.46825       277.75225        32.30025                                                                                                
E05  27102152.87726     -1765.55426        36.30026  27100248.59524     -1318.75024        24.80024
E12  26990957.75523      2948.90023        18.00023                                                
E23  24823874.69625     -2044.43525        31.00025  24821956.02425     -1526.94225        34.20025
E24  26615218.57425      2359.51325        34.10025  26613304.39925      1762.67225        35.10025
E26  24946621.12025     -1913.35925        34.70025  24944705.14725     -1427.56125        34.30025
E31  23320989.02226       369.46826        38.50026  23319077.54526       275.57126        36.40026
E33  23522327.23825       826.52825        32.30025  23520411.86425       617.62725        33.70025
> 2025 05 10 08 41 18.4230366  0 36                      
G05  23510660.18525      -746.69825        30.00025                                                
G16  21860382.74827      2640.03527        41.80027                                                
G18  20669989.04126       488.86626        37.30026  20667631.17325       364.53925        32.80025
G20  25453855.23925     -2653.74225        33.50025                                                
G26  20581382.38228       927.85528        47.70028  20579032.00925       692.75025        33.90025
G27  23967527.70226      3119.93826        41.10026  23965179.12826      2329.87826        39.20026
G28  23466794.85225     -3484.65725        31.30025  23464443.28024     -2602.21324        29.00024
G29  22119419.02125     -2483.45025        30.80025                                                
G31  22197825.24227     -2551.08027        42.70027                                                
R10  22385829.58926      3744.16826        36.50026
R02  24076387.74025      1539.15425        33.70025
R18  20533532.80726     -3033.12826        36.40026
R09  19377128.36927      1126.03727        46.20027
R16  20433924.96425     -3135.07225        34.10025
R01  24269911.56626     -1407.94426        36.00026
R20  22672702.79125      3650.45925        34.30025
R19  19198538.70525       -77.63725        30.90025
R17  24549676.08924     -4117.75024        26.50024
C45  22770976.25726     -2347.12326        39.00026  22769088.46425     -1768.86825        33.10025  22771005.33727     -2368.55527        42.30027
C44  26056485.44726      2883.80526        38.30026  26054606.64724      2173.14724        28.50024  26056515.72626      2910.40726        39.60026
C38  39199510.92025      -186.62025        32.70025  39197633.31925      -140.50125        32.40025  39199547.49425      -187.16725        34.60025
C35  22483436.01727      1648.55427        45.90027  22481556.31925      1241.95925        35.00025  22483467.49628      1663.70528        47.60028
C32  26829270.95924       878.90024        27.20024  26827385.86423       662.10023        23.00023  26829318.32624       886.81224        27.50024
C30  26125181.39025     -3078.25125        30.90025                                                                                                
C29  22004957.96126     -1560.98726        40.50026  22003075.86424     -1176.14524        26.00024  22004991.53827     -1575.35327        41.80027
C26  22702620.57927       933.39627        46.50027  22700737.88225       701.91725        32.60025  22702651.45828       942.06328        48.30028
C24  25893097.35827      2952.98427        43.80027  25891213.46226      2225.47726        38.70026  25893127.03727      2979.99627        46.10027
C13  38350650.37424       751.55024        27.10024                                                                                                
C08  38644712.59824       277.65024        29.20024                                                                                                
E05  27102459.83426     -1766.01726        39.20026  27100554.05326     -1318.91926        36.10026
E12  26990342.25124      2946.50824        24.70024  26988429.27523      2200.70023        22.60023
E23  24824227.52126     -2045.07126        36.00026  24822315.14524     -1527.00024        26.90024
E24  26614733.48026      2359.88626        39.90026  26612824.10226      1762.38726        38.20026
E26  24946957.15725     -1914.36725        30.60025  24945037.58624     -1429.24324        29.00024
E31  23320888.86127       367.85427        42.30027  23318977.08424       275.50024        27.60024
E33  23522139.53826       825.93926        35.50026  23520225.96325       616.38125        30.60025
> 2025 05 10 08 41 19.4230365  0 36                      
G05  23510773.94426      -746.84726        36.20026                                                
G16  21859849.85528      2640.55828        47.50028                                                
G18  20669866.26425       486.42125        30.30025  20667509.29526       364.47126        37.60026
G20  25454320.05525     -2653.31225        30.00025                                                
G26  20581179.56027       927.55027        46.90027  20578823.79126       692.70026        39.80026
G27  23966902.47326      3120.10826        38.50026  23964555.39826      2329.82726        38.20026
G28  23467420.35725     -3484.03325        31.90025  23465078.37925     -2601.97325        32.20025
G29  22119857.15625     -2482.29825        32.20025                                                
G31  22198279.26528     -2550.58728        47.50028                                                
R10  22385093.13726      3744.33026        39.80026
R02  24076069.19825      1538.76025        34.10025
R18  20534059.38126     -3033.11226        41.30026
R09  19376882.07827      1125.79327        45.30027
R16  20434488.11324     -3135.85024        28.10024
R01  24270151.53825     -1408.25225        33.10025
R20  22671996.61825      3650.66525        33.60025
R19  19198483.38124       -78.22924        29.20024
R17  24550374.14424     -4118.30024        27.90024
C45  22771397.90426     -2347.14826        37.00026  22769509.51126     -1768.76526        37.30026  22771430.28126     -2368.80126        39.90026
C44  26055898.59126      2884.07526        36.60026  26054023.68924      2173.21224        28.40024  26055931.56826      2910.35726        38.50026
C38  39199517.05326      -185.74726        39.60026  39197637.95424      -140.04424        26.80024  39199547.93227      -187.61027        42.00027
C35  22483092.29327      1648.34727        45.90027  22481209.59727      1242.30727        41.70027  22483122.27327      1663.24627        46.30027
C32  26829063.94024       882.25024        26.00024                                                  26829098.11625       886.90225        29.80025
C29  22005226.41326     -1561.14726        37.60026  22003343.41725     -1176.22325        29.80025  22005265.38626     -1575.50626        40.00026
C26  22702408.46428       932.97728        48.10028  22700529.96426       703.26526        39.00026  22702441.74128       941.38928        50.00028
C24  25892497.01227      2953.02627        42.80027  25890617.01326      2225.40426        38.70026  25892531.48827      2980.04427        46.10027
C13  38350485.92524       754.75024        23.50024                                                                                                
C08  38644641.08625       278.62325        33.90025                                                                                                
E05  27102764.26125     -1766.33925        35.10025  27100862.07824     -1319.08124        28.10024
E12  26989761.39124      2946.89724        26.30024  26987840.62124      2200.25224        26.10024
E23  24824578.41624     -2052.19824        26.50024  24822675.93325     -1527.06925        30.60025
E24  26614256.34827      2359.93927        45.20027  26612345.77126      1762.31826        40.40026
E26  24947289.76526     -1913.91626        36.80026  24945375.29024     -1427.95024        23.70024
E31  23320787.96926       368.08526        40.70026  23318877.99125       275.39725        34.50025
E33  23521949.60725       826.52125        29.50025  23520039.03025       616.32125        34.40025
C30                                                                                                  26125746.03724     -3107.06124        28.80024
> 2025 05 10 08 41 20.4230365  0 36                      
G05  23510922.13025      -746.77225        32.60025                                                
G16  21859348.39127      2641.03727        47.30027                                                
G18  20669768.32025       488.60025        32.10025  20667416.44826       365.02326        38.00026
G20  25454813.90223     -2655.10023        21.50023                                                
G26  20581000.97228       928.30628        47.90028  20578646.40226       693.33226        39.00026
G27  23966305.67426      3120.78726        36.10026  23963960.09825      2330.53125        34.60025
G28  23468103.07325     -3483.12225        33.10025  23465742.20725     -2600.89525        31.50025
G29  22120335.41324     -2483.70024        27.90024                                                
G31  22198764.11827     -2549.89627        46.80027                                                
R10  22384371.92426      3744.81326        38.10026
R02  24075797.37525      1538.93525        30.20025
R18  20534632.37226     -3032.60426        40.70026
R09  19376684.60327      1126.29127        46.30027
R16  20435095.88024     -3133.55024        28.10024
R01  24270430.73325     -1408.66825        31.00025
R20  22671300.28825      3651.48425        31.90025
R19  19198490.06424       -74.80024        26.30024
R17  24551115.61924     -4114.80024        25.40024
C45  22771847.08126     -2346.11226        40.90026  22769959.88726     -1768.06826        38.20026  22771873.16327     -2367.52227        42.20027
C44  26055345.56226      2885.01126        36.30026  26053468.26224      2174.26924        23.70024  26055373.44326      2911.53126        37.10026
C38  39199550.11926      -185.22726        36.40026  39197674.61723      -138.80023        23.40023  39199586.69326      -186.95526        39.90026
C35  22482773.70227      1649.41227        46.10027  22480892.50426      1243.01326        41.00026  22482806.97927      1664.61227        47.10027
C29  22005523.59626     -1560.29626        37.10026  22003641.49824     -1175.70824        28.30024  22005559.27126     -1574.55726        39.90026
C26  22702228.97628       933.64128        49.70028  22700350.77726       703.71426        37.00026  22702262.55328       942.26928        51.50028
C24  25891926.29526      2953.66026        39.20026  25890049.59426      2225.95426        37.00026  25891962.57027      2980.80127        41.90027
C13  38350345.41124       756.75024        25.60024                                                                                                
C08  38644582.71525       279.47425        31.60025                                                                                                
E05  27103103.41425     -1765.74725        35.20025  27101195.53525     -1318.57725        30.70025
E12  26989187.97623      2947.45023        22.20023  26987280.09724      2201.44824        25.80024
E23  24824969.13424     -2044.60024        29.20024  24823063.35325     -1526.38825        30.90025
E24  26613804.34927      2360.92327        42.50027  26611895.87026      1763.02626        38.30026
E26  24947651.70326     -1913.14626        36.50026  24945739.32723     -1428.00023        22.40023
E31  23320715.80726       369.28126        39.60026  23318807.02825       275.60525        32.30025
E33  23521793.80325       825.91625        33.30025  23519882.02725       617.03425        34.80025
C30                                                                                                  26126346.01024     -3105.96524        26.30024
C32                                                                                                  26828924.02524       887.45024        23.80024
> 2025 05 10 08 41 21.4230364  0 34                      
G05  23511016.38825      -746.78225        31.20025                                                
G16  21858816.38227      2640.93627        46.00027                                                
G18  20669634.43625       488.04225        30.70025  20667293.65625       364.48325        32.40025
G20  25455292.49424     -2648.90024        25.60024                                                
G26  20580795.13827       927.83227        42.90027  20578440.26825       692.77125        34.20025
G27  23965683.72826      3120.96226        38.10026  23963336.65325      2330.32825        32.70025
G28  23468737.25725     -3483.20325        32.70025  23466375.49224     -2601.10224        24.30024
G29  22120769.33625     -2481.11025        31.40025                                                
G31  22199217.82726     -2550.54926        41.40026                                                
R10  22383651.34626      3744.87226        37.80026
R02  24075465.32824      1540.30024        28.50024
R18  20535191.60827     -3032.46527        41.90027
R09  19376429.90326      1125.62326        40.20026
R16  20435685.39524     -3133.85024        25.90024
R01  24270653.90225     -1408.73825        34.90025
R20  22670594.40024      3653.50024        28.70024
R19  19198530.95924       -79.10024        26.10024
R17  24551835.84423     -4119.50023        21.90023
C45  22772262.11725     -2347.05025        33.20025  22770381.21924     -1768.10724        29.10024  22772307.08626     -2368.48026        35.90026
C44  26054762.88926      2884.31926        36.90026  26052884.98924      2174.47524        24.10024  26054791.36926      2911.47526        38.30026
C38  39199556.83726      -184.80426        36.00026  39197676.83923      -137.65023        23.00023  39199588.61526      -186.56226        39.70026
C35  22482427.56527      1649.04427        42.00027  22480545.76825      1242.72925        35.20025  22482462.04127      1664.12227        42.80027
C29  22005789.33526     -1560.15526        36.40026  22003911.13524     -1175.74424        23.50024  22005828.60826     -1574.57826        38.90026
C26  22702021.04427       933.28327        46.20027  22700142.54425       703.26525        32.30025  22702052.22227       941.85727        47.30027
C24  25891326.83326      2953.79226        39.90026  25889452.53125      2225.99325        32.50025  25891365.80627      2980.86627        43.20027
C08  38644500.99425       279.80925        32.90025                                                                                                
E05  27103410.52526     -1765.82126        35.90026  27101501.44724     -1318.45024        28.00024
E23  24825324.21124     -2043.46524        25.50024                                                
E24  26613323.90527      2361.00227        43.00027  26611417.22525      1763.02025        34.60025
E26  24947987.59326     -1912.87526        37.00026                                                
E31  23320616.69926       368.55826        36.50026  23318708.22024       275.60724        26.10024
E33  23521607.75625       825.18225        32.30025  23519694.18025       616.79825        30.60025
C30                                                                                                  26126945.11824     -3105.45724        28.50024
C32                                                                                                  26828732.58123       889.00023        23.40023
> 2025 05 10 08 41 22.4230364  0 33                      
G05  23511192.48724      -746.80024        27.40024                                                
G16  21858312.85126      2640.89626        40.30026                                                
G18  20669548.21625       488.19325        33.10025  20667201.44125       364.41725        32.00025
G26  20580617.48127       927.92227        44.40027  20578263.51125       692.84825        33.90025
G27  23965072.87224      3123.45024        29.40024  23962744.38425      2330.82925        34.90025
G28  23469354.95024     -3477.95024        24.20024  23467038.15424     -2601.83824        24.00024
G29  22121254.52125     -2481.43725        32.30025                                                
G31  22199704.81126     -2550.03826        40.00026                                                
R10  22382944.25725      3744.59725        32.20025
R02  24075181.24523      1535.90023        22.60023
R18  20535743.94726     -3032.76326        39.90026
R09  19376218.96927      1125.47027        43.30027
R16  20436235.93525     -3134.73925        30.50025
R01  24270877.06823     -1411.20023        23.00023
R20  22669897.80324      3651.60024        27.60024
R19  19198493.90624       -78.35024        26.40024
C45  22772719.42125     -2346.21525        30.70025  22770831.62824     -1767.55024        27.90024  22772755.09625     -2367.34325        33.00025
C44  26054208.69325      2885.64925        32.70025  26052331.09324      2174.99924        27.30024  26054237.47325      2912.78925        33.50025
C38  39199598.92924      -184.00024        28.50024  39197712.63523      -139.35023        21.80023  39199631.00725      -187.06125        30.40025
C35  22482109.90626      1649.39526        40.90026  22480229.60726      1243.21326        35.50026  22482139.88527      1664.61427        42.60027
C29  22006093.14526     -1559.89826        37.30026  22004212.24724     -1175.61524        28.10024  22006124.92326     -1574.19426        38.90026
C26  22701841.58927       933.14227        42.80027  22699963.08925       702.27225        33.20025  22701874.26627       941.98927        45.00027
C24  25890766.94125      2953.63825        34.70025  25888885.44424      2225.55024        26.80024  25890797.22026      2981.01826        36.40026
C08  38644441.45624       279.45024        29.00024                                                                                                
E05  27103749.71124     -1754.98624        26.40024  27101837.93424     -1318.44524        24.50024
E12  26988052.00723      2946.85023        17.60023                                                
E23  24825724.25525     -2043.34725        29.90025                                                
E24  26612879.13426      2361.20926        36.40026  26610967.95725      1763.46025        32.50025
E26  24948344.76725     -1913.34925        34.40025                                                
E31  23320545.16926       369.36626        38.40026  23318636.69025       274.84725        31.60025
E33  23521446.58825       826.13825        32.60025  23519536.01024       616.69424        27.40024
C30                                                                                                  26127528.03524     -3105.95024        24.50024
C32                                                                                                  26828578.90824       887.21324        26.00024
> 2025 05 10 08 41 23.4230363  0 27                      
G05  23511302.97124      -747.65024        26.50024                                                
G16  21857774.88425      2641.11625        32.50025                                                
G18  20669432.65625       488.21025        33.80025  20667078.38625       364.62925        34.20025
G26  20580413.78326       927.71226        37.10026  20578058.01425       693.07625        33.10025
G27  23964457.85825      3121.66325        31.10025  23962120.37625      2330.96625        30.80025
G29  22121670.19324     -2478.20024        27.70024                                                
G31  22200159.45626     -2550.29826        36.00026                                                
R02  24074858.82923      1539.00023        22.20023
R18  20536285.83225     -3030.83725        29.70025
R09  19375978.09625      1124.98425        35.30025
R16  20436758.03424     -3136.35024        23.70024
R20  22669154.17823      3652.35023        23.40023
C45  22773146.18623     -2343.30023        22.90023  22771248.50024     -1767.86824        23.80024  22773185.75824     -2368.65024        25.40024
C44  26053627.25625      2885.85925        31.80025  26051748.75724      2174.32524        24.60024  26053650.04025      2912.13825        33.20025
C38  39199599.98924      -183.75024        27.40024  39197722.98823      -139.20023        23.40023  39199632.06624      -186.61124        28.90024
C35  22481762.60726      1649.35226        36.90026  22479884.70725      1242.85525        31.10025  22481793.18526      1664.36126        38.40026
C29  22006367.01624     -1560.81224        29.30024  22004484.02024     -1175.40224        28.20024  22006400.59325     -1572.90025        32.10025
C26  22701633.99326       933.15026        35.80026  22699753.99425       703.25125        31.30025  22701667.86926       941.35926        38.20026
C24  25890172.31424      2952.80024        26.80024  25888289.61724      2226.32024        25.60024  25890191.20024      2980.91124        28.20024
C13  38349864.64823       752.70023        22.10023                                                                                                
E05  27104050.26324     -1767.10024        25.20024                                                
E23  24826081.76825     -2043.75025        31.00025                                                
E24  26612401.72525      2361.56125        32.60025  26610488.74924      1763.35424        27.40024
E26  24948678.59625     -1912.86825        29.90025  24946769.21824     -1428.68224        26.00024
E31  23320445.19925       369.08325        30.70025  23318537.02025       276.15925        29.60025
E33  23521259.37825       826.34925        33.40025  23519352.39824       617.14624        29.40024
G28                                                  23467668.17823     -2600.70023        22.70023
> 2025 05 10 08 41 24.4230363  0 26                      
G05  23511440.99124      -744.30024        24.30024                                                
G16  21857271.94825      2642.74225        31.60025                                                
G18  20669335.93925       488.22525        31.10025  20666986.76525       365.48125        33.60025
G26  20580234.62326       929.01826        38.60026  20577882.15125       693.88225        34.50025
G27  23963886.26925      3123.32925        30.30025  23961525.40425      2332.49425        32.00025
G28  23470681.20823     -3484.40023        21.80023  23468331.13523     -2597.45023        22.20023
G31  22200647.63426     -2548.67926        40.20026                                                
R10  22381528.31323      3745.80023        22.20023
R18  20536841.46325     -3031.40525        30.70025
R09  19375751.26926      1126.07226        36.10026
R01  24271407.97723     -1407.10023        21.60023
R20  22668497.74823      3648.70023        22.60023
R19  19198536.45223       -79.70023        20.70023
C45  22773591.19425     -2345.36525        30.40025  22771704.00025     -1767.16825        30.70025  22773620.57325     -2366.62325        32.80025
C44  26053073.35525      2887.53425        33.00025  26051195.15624      2175.69424        26.50024  26053101.83625      2914.11725        33.90025
C38  39199641.17624      -184.75024        24.50024  39197756.38124      -138.30324        26.60024  39199677.75024      -184.89224        27.80024
C35  22481445.54226      1651.00626        39.80026  22479567.34225      1244.28925        35.40025  22481474.92127      1666.18627        41.60027
C29  22006660.32925     -1558.10325        32.40025  22004783.32824     -1174.49324        29.30024  22006699.00225     -1572.50325        34.50025
C26  22701453.03425       934.47425        35.00025  22699574.53425       704.26925        32.50025  22701484.21226       943.05226        37.60026
C24  25889611.21824      2961.10024        24.60024  25887724.32424      2227.33924        25.10024  25889640.89724      2983.15624        26.60024
C08  38644299.33123       281.50023        20.70023                                                                                                
E23  24826465.01924     -2042.27624        26.70024  24824561.03723     -1525.45023        22.70023
E24  26611953.35124      2363.60024        24.30024  26610038.87624      1766.40024        23.70024
E26  24949048.05624     -1911.25924        25.60024  24947133.28224     -1427.63124        28.90024
E31  23320376.96225       370.67725        35.00025  23318466.08525       276.98725        31.30025
E33  23521101.20324       827.70924        29.40024  23519192.72424       617.91024        29.40024
> 2025 05 10 08 41 25.4230362  0 28                      
G05  23511551.20124      -750.40024        26.70024                                                
G16  21856748.09726      2640.95026        35.70026                                                
G18  20669204.81625       487.36525        30.60025  20666862.83726       363.90726        36.70026
G26  20580025.85326       927.33026        39.00026  20577674.28126       692.31426        38.60026
G27  23963246.99825      3121.36425        32.40025  23960902.02125      2331.22625        32.40025
G29  22122619.03823     -2487.95023        21.40023                                                
G31  22201102.60526     -2550.63326        38.70026                                                
R10  22380762.82924      3744.80024        24.30024
R18  20537392.96724     -3033.58324        29.20024
R09  19375530.20826      1124.19526        35.60026
R16  20437947.91223     -3137.45023        23.00023
R20  22667833.89424      3652.85024        25.20024
R19  19198535.13923       -84.00023        22.90023
C45  22774010.78925     -2346.09925        33.30025  22772123.59625     -1768.40025        32.00025  22774043.76625     -2367.97225        35.20025
C44  26052484.44925      2886.09025        31.50025  26050609.24724      2175.09924        26.80024  26052514.12825      2912.57825        33.20025
C38  39199646.15824      -180.45024        24.10024  39197761.66324      -139.19724        26.30024  39199677.63724      -186.12924        26.50024
C35  22481096.76926      1649.25526        41.30026  22479220.06826      1243.05426        35.70026  22481130.34627      1664.49627        43.20027
C29  22006928.22925     -1560.07825        31.90025  22005051.52925     -1175.76925        33.60025  22006965.40425     -1574.27325        33.00025
C26  22701243.06526       932.69726        37.50026  22699365.46525       702.82325        34.90025  22701277.24126       941.23626        40.10026
C24  25889012.41824      2951.80024        27.60024  25887124.92524      2226.31524        24.10024  25889034.60325      2979.61125        29.70025
C08  38644228.16623       277.95023        22.80023                                                                                                
E05  27104704.41223     -1765.55023        19.40023                                                
E23  24826836.94724     -2044.06424        25.20024  24824918.57524     -1526.11624        29.20024
E24  26611477.46625      2361.87825        29.50025  26609561.19324      1763.50024        28.50024
E26  24949380.71224     -1913.20424        27.00024  24947466.23725     -1428.98725        31.20025
E31  23320273.41925       369.26525        35.30025  23318365.24025       275.60325        34.70025
E33  23520909.82224       825.82224        29.30024  23519005.84025       616.46625        32.80025
G28                                                  23468961.48523     -2601.20023        23.10023
> 2025 05 10 08 41 26.4230361  0 30                      
G05  23511650.53024      -753.80024        23.80024                                                
G16  21856213.36525      2640.50825        33.90025                                                
G18  20669098.78725       486.55325        34.40025  20666740.02026       363.39626        37.10026
G26  20579822.39226       926.40626        37.20026  20577468.12226       691.99126        36.50026
G27  23962635.81925      3121.31925        30.50025  23960277.95225      2331.07225        30.80025
G28  23471940.62023     -3482.40023        22.10023  23469597.74223     -2600.20023        23.20023
G29  22123027.45423     -2480.40023        22.10023                                                
G31  22201553.89126     -2551.36526        39.10026                                                
R10  22380079.40024      3745.75024        25.70024
R02  24073947.85923      1538.70023        19.60023
R18  20537918.60224     -3032.90024        28.30024
R09  19375280.87925      1123.60325        35.40025
R16  20438500.82724     -3135.55024        27.60024
R20  22667120.18624      3650.20024        26.90024
C45  22774433.89425     -2347.40925        32.00025  22772544.30225     -1768.77425        32.20025  22774462.97425     -2368.78425        33.50025
C44  26051899.05225      2885.77025        30.70025  26050025.35024      2174.81524        27.50024  26051924.23525      2912.35525        31.50025
C38  39199652.85223      -187.10023        22.70023  39197766.25823      -138.95023        23.10023  39199674.43724      -188.40024        23.60024
C35  22480751.20726      1648.83726        40.50026  22478873.00726      1242.66426        35.50026  22480783.58427      1664.17427        42.50027
C30  26129780.63623     -3081.65023        21.00023                                                                                                
C29  22007202.03824     -1561.45024        27.50024  22005321.44025     -1176.02825        32.40025  22007234.71524     -1574.51424        28.70024
C26  22701034.20826       932.02226        36.20026  22699156.60825       702.34525        32.10025  22701067.78526       940.72326        39.40026
C24  25888418.02824      2954.90024        27.00024  25886528.13624      2226.24524        27.10024  25888451.00525      2981.38825        30.70025
C13  38349356.30023       752.35023        19.50023                                                                                                
C08  38644120.03923       276.50023        23.20023                                                                                                
E05  27105000.70523     -1766.50023        20.30023                                                
E23  24827187.50324     -2044.13624        23.80024                                                
E24  26610991.60124      2361.81724        29.30024  26609081.92324      1763.75624        28.40024
E26  24949713.28023     -1913.25023        23.00023  24947803.00225     -1429.04325        30.60025
E31  23320179.68225       368.80625        30.60025  23318265.80725       275.42025        35.10025
E33  23520729.74425       825.34125        32.70025  23518818.56825       616.17525        32.80025
> 2025 05 10 08 41 27.4230361  0 30                      
G05  23511830.93923      -752.40023        23.30023                                                
G16  21855715.94326      2638.26326        37.60026                                                
G18  20668999.19025       483.78425        33.00025  20666648.21826       361.26526        35.80026
G26  20579647.54726       923.90826        37.80026  20577291.47826       690.04526        37.80026
G27  23962031.67125      3119.48525        30.10025  23959683.69725      2329.34725        32.20025
G28  23472624.38124     -3484.90024        28.50024  23470261.41724     -2602.47224        26.50024
G29  22123470.48124     -2478.00024        23.70024                                                
G31  22202041.28726     -2553.84026        40.10026                                                
R10  22379371.82424      3741.05024        23.70024
R18  20538492.03924     -3037.00024        28.30024
R09  19375074.85625      1120.20025        34.30025
R16  20439080.26025     -3139.48725        30.50025
R20  22666407.51324      3650.95024        25.40024
R19  19198480.01023       -79.75023        22.30023
C45  22774881.11925     -2349.57325        35.20025  22772994.52525     -1770.50125        34.00025  22774910.49826     -2370.99826        36.80026
C44  26051346.46925      2883.68225        32.00025  26049470.36824      2173.11624        27.50024  26051375.84925      2910.01225        32.00025
C38  39199684.26424      -185.35024        25.00024  39197802.46724      -141.20124        26.20024  39199720.83924      -188.86424        26.10024
C35  22480435.75926      1646.44526        41.20026  22478556.66025      1240.77025        35.10025  22480468.13727      1661.62327        43.30027
C30  26130373.85924     -3078.90024        25.40024                                                  26130403.83924     -3106.67024        28.30024
C29  22007499.36625     -1562.80525        30.40025  22005621.76625     -1177.71625        32.20025  22007530.54425     -1576.96325        33.40025
C26  22700856.36525       929.34925        33.30025  22698976.96625       700.57625        33.90025  22700886.94426       937.88426        37.20026
C24  25887845.35824      2953.65024        23.80024  25885961.46324      2224.62424        24.30024                                                
C13  38349209.03623       749.35023        21.90023                                                                                                
E05  27105338.80523     -1768.35023        22.60023                                                
E23  24827577.46724     -2046.32224        24.80024  24825670.48724     -1527.65024        23.50024
E24  26610540.64725      2359.69025        33.60025  26608630.66924      1761.83924        25.00024
E26  24950073.56424     -1916.44224        26.80024  24948165.98525     -1430.86025        30.40025
E31  23320105.56826       366.49726        35.80026  23318195.29025       273.59425        35.10025
E33  23520568.09025       822.63225        30.10025  23518662.01025       614.20425        32.50025
C32                                                                                                  26827643.74923       884.80023        18.90023
> 2025 05 10 08 41 28.4230360  0 27                      
G05  23511948.24424      -747.05024        24.20024                                                
G16  21855185.99725      2637.19225        33.60025                                                
G18  20668874.26425       481.78625        29.50025  20666526.28925       360.28425        35.10025
G26  20579442.57626       922.74426        38.90026  20577086.50726       689.02726        36.70026
G27  23961404.89224      3117.00024        26.30024  23959059.61625      2328.78425        31.10025
G28  23473242.94025     -3486.18625        29.90025  23470896.16424     -2603.27924        27.10024
G31  22202495.85926     -2555.01926        40.30026                                                
R10  22378621.53024      3743.30024        24.50024
R18  20539065.92824     -3033.80024        27.90024
R09  19374835.40826      1118.74726        35.90026
R16  20439636.46225     -3140.74025        33.50025
R20  22665718.97724      3649.70024        24.50024
C45  22775301.81426     -2350.82826        37.90026  22773417.01926     -1771.64726        36.00026  22775332.39326     -2372.38526        39.80026
C44  26050766.45725      2882.82525        31.40025  26048887.35824      2172.51024        29.20024  26050791.34025      2909.35925        33.20025
C38  39199690.04724      -186.15024        25.30024  39197809.14924      -141.74124        27.30024  39199728.42024      -189.56924        28.90024
C35  22480090.18526      1645.41326        40.10026  22478210.48625      1239.99325        35.40025  22480121.06427      1660.48927        41.50027
C30  26130932.16024     -3081.40024        28.60024                                                                                                
C29  22007764.76924     -1559.30024        25.50024  22005891.66625     -1178.67425        29.60025  22007809.73825     -1578.50825        30.20025
C26  22700648.39626       928.25426        36.90026  22698769.89625       699.53625        33.50025  22700680.17426       936.76626        39.50026
C24  25887240.16424      2947.70024        26.80024                                                  25887282.13524      2978.30024        27.80024
E05  27105633.88823     -1769.20023        21.30023                                                
E12  26984567.50022      2946.45022        16.10022                                                
E23  24827937.30424     -2047.30524        26.70024  24826026.72725     -1528.98625        30.90025
E24  26610064.36324      2358.78924        28.20024  26608152.88724      1761.36724        26.20024
E31  23320004.92425       365.36625        30.40025  23318095.84625       272.73425        33.20025
E33  23520383.80525       821.24425        31.70025  23518475.32625       613.40725        32.80025
E26                                                  24948500.94024     -1431.72224        28.60024
> 2025 05 10 08 41 29.4230360  0 29                      
G16  21854680.15626      2638.08226        35.60026                                                
G18  20668789.63126       483.18326        36.30026  20666433.56226       360.73626        36.80026
G26  20579261.71026       923.39126        39.40026  20576910.43826       689.47926        36.10026
G27  23960822.60425      3119.56525        33.10025  23958465.03625      2329.65225        30.70025
G28  23473907.78825     -3485.00725        31.10025  23471559.21424     -2602.35824        26.20024
G29  22124420.81823     -2485.95023        22.40023                                                
G31  22202982.63127     -2554.18527        41.50027                                                
R10  22377871.05923      3737.75023        23.30023
R18  20539600.36725     -3036.17025        33.50025
R09  19374632.05826      1119.12626        38.00026
R16  20440218.56726     -3140.09026        39.50026
R20  22665045.25224      3647.70024        27.30024
R19  19198504.28823       -83.25023        21.50023
C45  22775754.41027     -2350.01627        42.00027  22773867.21626     -1771.10026        36.90026  22775786.18827     -2371.70927        44.00027
C44  26050208.15225      2883.95425        32.60025  26048333.55024      2173.35724        26.50024  26050238.43225      2910.15425        31.80025
C38  39199735.82424      -188.95024        26.20024  39197843.83424      -141.18424        24.70024  39199767.00225      -189.10225        31.00025
C35  22479773.51327      1646.28027        42.00027  22477894.71425      1240.58325        34.60025  22479805.89127      1661.34927        43.60027
C30  26131514.56524     -3077.25024        28.80024                                                  26131537.05025     -3106.14525        30.70025
C29  22008071.96525     -1563.00825        32.90025  22006192.56625     -1178.07425        30.10025  22008103.74325     -1577.42325        34.90025
C26  22700471.12726       928.97726        37.60026  22698589.63025       699.97525        32.40025  22700502.30626       937.39026        40.60026
C24  25886677.36224      2950.95024        27.60024  25884798.56323      2223.25023        22.50023  25886714.53725      2978.91825        29.80025
E05  27105990.55023     -1768.80023        22.10023                                                
E12  26984001.10123      2945.90023        23.10023                                                
E23  24828331.44025     -2046.32125        29.60025  24826416.06624     -1528.11124        28.30024
E24  26609621.47925      2359.93125        30.80025  26607703.10724      1762.33824        26.20024
E26  24950769.67824     -1916.65024        24.80024  24948863.89725     -1430.93525        30.30025
E31  23319939.77825       366.21025        34.70025  23318026.50225       273.57925        32.60025
E33  23520230.22026       822.18926        36.80026  23518319.34325       613.98425        34.40025
C32                                                                                                  26827283.99423       880.75023        20.90023
> 2025 05 10 08 41 30.4230359  0 29                      
G05  23512154.85123      -754.50023        20.70023                                                
G16  21854146.96625      2637.89825        35.20025                                                
G18  20668663.55925       482.63525        33.90025  20666311.68726       360.47726        37.90026
G26  20579054.69426       923.05026        39.00026  20576704.62126       689.24026        36.80026
G27  23960201.57525      3119.45125        32.20025  23957841.30925      2329.62325        32.10025
G28  23474538.39325     -3485.07525        30.60025  23472189.81824     -2602.28724        25.60024
G31  22203439.65626     -2554.57726        40.80026                                                
R10  22377167.88624      3743.05024        23.50024
R18  20540134.73825     -3036.28225        30.30025
R09  19374396.26226      1118.60126        36.70026
R16  20440777.52126     -3140.48826        37.30026
R20  22664305.80524      3647.25024        26.50024
R19  19198523.91623       -87.35023        21.20023
C45  22776176.35926     -2350.29426        40.80026  22774288.56526     -1770.97326        37.40026  22776208.13727     -2371.43227        43.20027
C44  26049629.09425      2884.06225        31.30025  26047748.49624      2173.64424        26.30024  26049650.97925      2910.66225        31.50025
C38  39199733.26723      -184.50023        23.20023  39197850.57024      -140.77424        26.30024  39199773.73924      -188.68224        28.90024
C35  22479429.19226      1646.08626        41.40026  22477547.99525      1240.49825        34.80025  22479459.77127      1661.35627        43.10027
C32  26827086.87223       867.80023        18.50023                                                  26827097.66424       882.60024        25.50024
C30  26132072.02024     -3083.75024        27.20024                                                                                                
C29  22008342.21925     -1563.18425        30.60025  22006462.52025     -1177.86225        31.20025  22008373.09825     -1577.29325        32.80025
C26  22700260.21426       928.50226        36.70026  22698382.31425       699.88925        33.30025  22700294.99026       937.21026        39.80026
C24  25886082.11624      2949.35024        28.00024  25884197.62023      2222.70023        22.00023  25886124.98624      2979.36324        28.60024
E05  27106283.28823     -1768.00023        19.90023                                                
E12  26983395.06223      2946.10023        20.70023                                                
E23  24828687.13524     -2046.13124        26.30024  24826774.75924     -1528.06824        28.70024
E24  26609146.74825      2360.16725        30.00025  26607224.47924      1762.45024        26.00024
E26  24951104.38724     -1916.28424        24.70024  24949199.20624     -1430.94324        29.30024
E31  23319837.98925       366.23525        33.30025  23317926.81225       273.46325        33.60025
E33  23520042.39125       822.07525        34.10025  23518132.71325       613.70725        35.00025
> 2025 05 10 08 41 31.4230359  0 28                      
G05  23512304.47024      -755.90024        23.90024                                                
G16  21853650.23225      2634.47925        35.20025                                                
G18  20668573.94325       478.92825        30.30025  20666220.27326       357.48226        38.10026
G26  20578883.83426       919.32426        37.20026  20576529.26426       686.36726        37.90026
G27  23959595.41625      3116.34425        33.80025  23957250.44025      2326.98025        32.80025
G28  23475205.45324     -3488.40924        29.40024  23472853.28124     -2605.32424        27.00024
G29  22125365.62723     -2482.70023        20.50023                                                
G31  22203925.94126     -2558.14926        40.50026                                                
R10  22376404.93623      3737.75023        22.10023
R02  24072539.82723      1532.90023        17.70023
R18  20540695.37224     -3038.55024        26.70024
R09  19374184.03125      1114.46425        33.10025
R16  20441363.33825     -3144.29925        35.30025
R20  22663642.98624      3644.00024        25.10024
C45  22776626.36926     -2353.78326        40.10026  22774741.27426     -1773.86726        37.10026  22776658.74627     -2375.55027        42.10027
C44  26049069.70325      2880.75725        30.40025  26047196.60024      2170.61324        26.70024  26049098.18425      2906.61625        29.70025
C35  22479112.33426      1642.68726        40.70026  22477232.93525      1237.74625        35.30025  22479142.91227      1657.51427        42.10027
C30  26132672.52624     -3083.15024        28.20024                                                  26132696.81024     -3109.82924        29.40024
C29  22008629.14224     -1567.90024        26.10024  22006762.33525     -1180.72725        30.90025  22008675.91024     -1581.64224        28.90024
C26  22700083.65826       924.98326        36.40026  22698204.55925       696.81525        33.30025  22700117.83526       933.21426        39.60026
C24  25885525.42324      2949.15024        28.30024  25883634.63224      2221.94624        23.60024  25885555.40224      2975.13724        26.80024
C08  38643816.44223       278.45023        18.00023                                                                                                
E23  24829082.88324     -2050.56624        26.00024  24827165.41024     -1531.17124        28.90024
E24  26608694.38325      2356.58825        29.90025  26606777.21124      1759.62824        28.70024
E26  24951476.45123     -1919.50023        23.20023  24949564.67525     -1433.98725        30.70025
E31  23319770.55825       362.44825        32.90025  23317857.58225       270.71125        34.00025
E33  23519889.81825       818.03225        31.20025  23517976.84325       610.94325        34.90025
C38                                                  39197886.86724      -144.06824        27.40024  39199804.33924      -193.09724        28.20024
> 2025 05 10 08 41 32.4230358  0 29                      
G05  23512433.63323      -758.30023        21.50023                                                
G16  21853118.95325      2635.27525        34.40025                                                
G18  20668461.17425       479.42225        31.50025  20666099.40926       358.00226        38.60026
G26  20578679.92826       919.96326        36.60026  20576324.15926       687.02726        38.30026
G27  23958974.49925      3117.23225        33.40025  23956628.32325      2327.91625        33.20025
G28  23475845.16324     -3487.57024        28.80024  23473486.99524     -2604.31024        27.30024
G31  22204382.17826     -2557.49026        41.20026                                                
R10  22375705.47423      3737.85023        22.60023
R18  20541259.23424     -3041.75024        28.00024
R09  19373942.35125      1114.87625        33.30025
R16  20441922.40426     -3143.71426        36.40026
R20  22662909.34624      3649.10024        24.60024
R19  19198496.01023       -86.05023        20.10023
C45  22777048.13026     -2353.09526        40.40026  22775163.03526     -1773.05026        38.20026  22777079.60827     -2374.29227        42.50027
C44  26048492.25625      2881.74525        31.60025  26046613.75724      2172.03624        27.20024  26048518.63825      2908.44125        30.70025
C38  39199787.50423      -189.25023        22.30023  39197893.71524      -142.66224        27.90024  39199814.78524      -191.40524        28.10024
C35  22478766.02626      1643.41126        41.10026  22476887.22726      1238.64726        36.20026  22478798.40427      1658.71227        42.90027
C32  26826720.20023       867.20023        20.90023                                                  26826746.88223       880.35023        22.60023
C30  26133225.29725     -3079.67825        29.60025                                                                                                
C29  22008899.50824     -1566.05024        27.70024  22007033.60025     -1179.89325        31.20025  22008945.67625     -1579.90425        30.40025
C26  22699876.75426       925.52626        36.20026  22697996.45625       697.62025        33.50025  22699909.73226       934.22426        40.00026
C24  25884918.29624      2951.50024        27.90024                                                  25884950.97324      2976.94924        28.30024
E05  27106949.40223     -1772.20023        19.50023                                                
E12  26982241.13523      2943.05023        21.50023                                                
E23  24829443.48624     -2048.83224        26.80024  24827526.01324     -1530.17424        29.40024
E24  26608220.06525      2357.98525        30.70025  26606298.69525      1760.85325        30.70025
E26  24951808.27524     -1919.05324        25.30024  24949899.19625     -1433.02125        31.10025
E31  23319670.98025       363.55625        34.40025  23317758.00425       271.45125        35.00025
E33  23519699.40325       819.11225        31.90025  23517790.62426       611.55326        35.90026
> 2025 05 10 08 41 33.4230357  0 28                      
G16  21852587.57325      2634.34125        34.90025                                                
G18  20668335.71325       478.12525        30.90025  20665978.44526       356.86826        38.70026
G26  20578473.52426       918.74826        36.40026  20576119.85326       685.92326        38.60026
G27  23958359.17825      3116.59725        32.70025  23956004.30825      2327.09225        33.20025
G28  23476467.98424     -3488.43124        29.40024  23474121.80824     -2605.04224        27.80024
G29  22126256.11623     -2484.70023        19.80023                                                
G31  22204841.31326     -2558.60226        41.30026                                                
R10  22374955.24523      3738.80023        22.20023
R18  20541775.03024     -3039.90024        27.60024
R09  19373708.96525      1113.30825        33.30025
R16  20442481.06926     -3145.00426        36.50026
R20  22662197.19224      3644.45024        25.10024
R19  19198496.16223       -84.90023        22.20023
C45  22777471.28926     -2354.13426        40.80026  22775584.99526     -1774.18726        37.70026  22777503.06727     -2375.93727        42.30027
C44  26047909.91225      2880.97425        31.50025  26046029.61324      2170.88524        27.90024  26047933.59525      2907.32625        31.00025
C35  22478422.31726      1642.49726        41.30026  22476542.01826      1237.67026        36.20026  22478452.59627      1657.35727        42.20027
C32  26826516.49423       865.65023        23.10023                                                                                                
C30  26133794.75524     -3080.39824        29.40024                                                  26133827.73225     -3108.68925        32.10025
C29  22009177.86824     -1566.10024        27.80024  22007304.76425     -1180.80625        31.10025  22009216.24125     -1581.09925        29.70025
C26  22699667.95126       924.40026        36.10026  22697789.15225       696.48825        33.00025  22699703.32726       932.68426        39.60026
C24  25884331.15524      2947.95024        27.50024  25882439.46523      2222.45023        23.10023  25884358.13624      2975.62424        29.10024
E12  26981669.28423      2942.25023        22.40023                                                
E23  24829794.99524     -2050.25224        27.20024  24827884.71824     -1530.81624        28.90024
E24  26607740.84925      2356.72925        29.70025  26605818.58025      1760.16525        30.10025
E26  24952148.99124     -1920.36624        24.20024  24950234.81625     -1433.88525        30.80025
