NMEA,$GPGSV,3,1,11,05,21,053,28,16,37,305,36,18,74,137,33,20,02,026,29,1*6C,1746866459013
NMEA,$GPGSV,3,2,11,26,66,293,39,27,13,267,41,28,24,203,27,29,40,066,31,1*67,1746866459013
NMEA,$GPGSV,3,3,11,31,40,228,41,23,15,143,,25,13,131,,1*5A,1746866459013
NMEA,$GPGSV,2,1,06,18,74,137,38,26,66,293,40,27,13,267,40,28,24,203,26,8*6D,1746866459013
NMEA,$GPGSV,2,2,06,23,15,143,,25,13,131,,8*6E,1746866459013
NMEA,$GLGSV,3,1,09,74,23,324,28,66,06,039,28,82,45,035,38,73,68,304,36,1*76,1746866459013
NMEA,$GLGSV,3,2,09,80,47,156,30,65,03,354,28,84,19,226,33,83,82,289,25,1*75,1746866459013
NMEA,$GLGSV,3,3,09,81,01,043,24,1*48,1746866459013
NMEA,$GAGSV,3,1,10,05,03,297,33,10,01,209,15,12,22,202,22,23,43,123,29,7*7B,1746866459013
NMEA,$GAGSV,3,2,10,24,26,305,38,26,42,051,29,31,80,312,36,33,69,150,35,7*73,1746866459013
NMEA,$GAGSV,3,3,10,03,00,000,,16,02,305,,7*72,1746866459013
NMEA,$GAGSV,3,1,10,05,03,297,30,12,22,202,21,23,43,123,31,24,26,305,26,1*7B,1746866459013
NMEA,$GAGSV,3,2,10,26,42,051,31,31,80,312,37,33,69,150,31,03,00,000,,1*75,1746866459013
NMEA,$GAGSV,3,3,10,10,01,209,,16,02,305,,1*7C,1746866459013
NMEA,$GBGSV,4,1,14,45,51,180,37,44,07,241,39,38,23,042,35,35,53,244,44,1*7C,1746866459013
NMEA,$GBGSV,4,2,14,32,05,049,24,30,09,058,33,29,61,053,41,26,52,290,45,1*7B,1746866459013
NMEA,$GBGSV,4,3,14,24,10,319,33,13,35,070,29,08,31,051,26,05,17,120,,1*7A,1746866459013
NMEA,$GBGSV,4,4,14,36,08,154,,60,05,101,,1*7D,1746866459013
NMEA,$GBGSV,3,1,09,24,10,319,36,26,52,290,47,29,61,053,41,30,09,058,32,3*74,1746866459013
NMEA,$GBGSV,3,2,09,32,05,049,29,35,53,244,45,38,23,042,37,44,07,241,40,3*71,1746866459013
NMEA,$GBGSV,3,3,09,45,51,180,38,3*4A,1746866459013
NMEA,$GBGSV,3,1,09,24,10,319,29,26,52,290,31,29,61,053,24,30,09,058,21,5*7C,1746866459013
NMEA,$GBGSV,3,2,09,32,05,049,23,35,53,244,32,38,23,042,24,44,07,241,27,5*7E,1746866459013
NMEA,$GBGSV,3,3,09,45,51,180,27,5*42,1746866459013
NMEA,$GNGSA,A,3,05,16,18,26,27,28,29,31,,,,,0.6,0.4,0.4,1*3E,1746866459049
NMEA,$GNGSA,A,3,66,73,74,80,82,83,84,,,,,,0.6,0.4,0.4,2*36,1746866459049
NMEA,$GNGSA,A,3,12,23,24,26,31,33,,,,,,,0.6,0.4,0.4,3*37,1746866459049
NMEA,$GNGSA,A,3,08,13,24,26,29,30,32,35,38,44,45,,0.6,0.4,0.4,4*3F,1746866459049
NMEA,$GNVTG,,T,,M,0.0,N,0.0,K,A*3D,1746866459049
NMEA,$GNDTM,P90,,0000.000026,S,00000.000000,E,0.978,W84*5C,1746866459049
NMEA,$GNRMC,084059.00,A,4503.592381,N,00741.839264,E,0.0,,100525,3.3,E,A,V*7A,1746866459049
NMEA,$GNGNS,084059.00,4503.592381,N,00741.839264,E,AAAANN,32,0.4,279.6,48.0,,,V*27,1746866459049
NMEA,$GNGGA,084059.00,4503.592381,N,00741.839264,E,1,12,0.4,279.6,M,48.0,M,,*75,1746866459049
NMEA,$GPGSV,3,1,11,05,21,053,30,16,37,305,36,18,74,137,32,20,02,026,32,1*6E,1746866460016
NMEA,$GPGSV,3,2,11,26,66,293,34,27,13,267,39,28,24,203,25,29,40,066,35,1*63,1746866460016
NMEA,$GPGSV,3,3,11,31,40,228,44,23,15,143,,25,13,131,,1*5F,1746866460016
NMEA,$GPGSV,2,1,06,18,74,137,38,26,66,293,40,27,13,267,40,28,24,203,27,8*6C,1746866460016
NMEA,$GPGSV,2,2,06,23,15,143,,25,13,131,,8*6E,1746866460016
NMEA,$GLGSV,3,1,09,74,23,324,31,66,06,039,32,82,45,035,40,73,68,304,35,1*79,1746866460016
NMEA,$GLGSV,3,2,09,80,47,156,29,65,03,354,37,84,19,226,33,83,82,289,27,1*71,1746866460016
NMEA,$GLGSV,3,3,09,81,01,043,24,1*48,1746866460016
NMEA,$GAGSV,3,1,10,05,03,297,36,10,01,209,15,12,22,202,18,23,43,123,31,7*7E,1746866460016
NMEA,$GAGSV,3,2,10,24,26,305,34,26,42,051,35,31,80,312,39,33,69,150,32,7*7A,1746866460016
NMEA,$GAGSV,3,3,10,03,00,000,,16,02,305,,7*72,1746866460016
NMEA,$GAGSV,3,1,10,05,03,297,25,12,22,202,21,23,43,123,34,24,26,305,35,1*78,1746866460016
NMEA,$GAGSV,3,2,10,26,42,051,34,31,80,312,36,33,69,150,34,03,00,000,,1*74,1746866460016
NMEA,$GAGSV,3,3,10,10,01,209,,16,02,305,,1*7C,1746866460016
NMEA,$GBGSV,4,1,14,45,51,180,35,44,07,241,38,38,23,042,35,35,53,244,46,1*7D,1746866460016
NMEA,$GBGSV,4,2,14,32,05,049,27,30,09,058,29,29,61,053,36,26,52,290,47,1*71,1746866460016
NMEA,$GBGSV,4,3,14,24,10,319,37,13,35,070,29,08,31,051,32,05,17,120,,1*7B,1746866460016
NMEA,$GBGSV,4,4,14,36,08,154,,60,05,101,,1*7D,1746866460016
NMEA,$GBGSV,3,1,09,24,10,319,38,26,52,290,50,29,61,053,36,30,09,058,29,3*76,1746866460016
NMEA,$GBGSV,3,2,09,32,05,049,30,35,53,244,47,38,23,042,38,44,07,241,40,3*74,1746866460016
NMEA,$GBGSV,3,3,09,45,51,180,38,3*4A,1746866460016
NMEA,$GBGSV,3,1,09,24,10,319,38,26,52,290,35,29,61,053,32,30,09,058,22,5*7C,1746866460016
NMEA,$GBGSV,3,2,09,32,05,049,27,35,53,244,37,38,23,042,30,44,07,241,32,5*7E,1746866460016
NMEA,$GBGSV,3,3,09,45,51,180,33,5*47,1746866460016
NMEA,$GNGSA,A,3,05,16,18,26,27,28,29,31,,,,,0.6,0.4,0.4,1*3E,1746866460051
NMEA,$GNGSA,A,3,66,73,74,80,82,83,84,,,,,,0.6,0.4,0.4,2*36,1746866460051
NMEA,$GNGSA,A,3,12,23,24,26,31,33,,,,,,,0.6,0.4,0.4,3*37,1746866460051
NMEA,$GNGSA,A,3,08,13,24,26,29,30,32,35,38,44,45,,0.6,0.4,0.4,4*3F,1746866460051
NMEA,$GNVTG,,T,,M,0.0,N,0.0,K,A*3D,1746866460051
NMEA,$GNDTM,P90,,0000.000026,S,00000.000000,E,0.978,W84*5C,1746866460051
NMEA,$GNRMC,084100.00,A,4503.592331,N,00741.839184,E,0.0,,100525,3.3,E,A,V*71,1746866460051
NMEA,$GNGNS,084100.00,4503.592331,N,00741.839184,E,AAAANN,32,0.4,279.5,48.0,,,V*2F,1746866460051
NMEA,$GNGGA,084100.00,4503.592331,N,00741.839184,E,1,12,0.4,279.5,M,48.0,M,,*7D,1746866460051
NMEA,$GPGSV,3,1,11,05,21,053,30,16,37,305,42,18,74,137,37,20,02,026,34,1*6E,1746866461020
NMEA,$GPGSV,3,2,11,25,13,131,17,26,66,293,48,27,13,267,41,28,24,203,31,1*6B,1746866461020
NMEA,$GPGSV,3,3,11,29,40,066,31,31,40,228,43,23,15,143,,1*53,1746866461020
NMEA,$GPGSV,2,1,06,18,74,137,33,26,66,293,34,27,13,267,39,28,24,203,29,8*64,1746866461020
NMEA,$GPGSV,2,2,06,23,15,143,,25,13,131,,8*6E,1746866461020
NMEA,$GLGSV,3,1,09,74,23,324,37,66,06,039,34,82,45,035,36,73,68,304,46,1*7C,1746866461020
NMEA,$GLGSV,3,2,09,80,47,156,34,65,03,354,36,84,19,226,34,83,82,289,31,1*7C,1746866461020
NMEA,$GLGSV,3,3,09,81,01,043,27,1*4B,1746866461020
NMEA,$GAGSV,3,1,10,05,03,297,39,10,01,209,15,12,22,202,25,23,43,123,36,7*78,1746866461020
NMEA,$GAGSV,3,2,10,24,26,305,40,26,42,051,31,31,80,312,42,33,69,150,36,7*75,1746866461020
NMEA,$GAGSV,3,3,10,03,00,000,,16,02,305,,7*72,1746866461020
NMEA,$GAGSV,3,1,10,05,03,297,36,12,22,202,23,23,43,123,27,24,26,305,38,1*77,1746866461020
NMEA,$GAGSV,3,2,10,26,42,051,29,31,80,312,28,33,69,150,31,03,00,000,,1*72,1746866461020
NMEA,$GAGSV,3,3,10,10,01,209,,16,02,305,,1*7C,1746866461020
NMEA,$GBGSV,4,1,14,45,51,180,39,44,07,241,38,38,23,042,33,35,53,244,46,1*77,1746866461020
NMEA,$GBGSV,4,2,14,32,05,049,27,30,09,058,31,29,61,053,41,26,52,290,47,1*78,1746866461020
NMEA,$GBGSV,4,3,14,24,10,319,44,13,35,070,27,08,31,051,29,05,17,120,,1*7B,1746866461020
NMEA,$GBGSV,4,4,14,36,08,154,,60,05,101,,1*7D,1746866461020
NMEA,$GBGSV,3,1,09,24,10,319,46,26,52,290,48,29,61,053,42,30,09,058,34,3*79,1746866461020
NMEA,$GBGSV,3,2,09,32,05,049,28,35,53,244,48,38,23,042,35,44,07,241,40,3*7F,1746866461020
NMEA,$GBGSV,3,3,09,45,51,180,42,3*47,1746866461020
NMEA,$GBGSV,3,1,09,24,10,319,39,26,52,290,33,29,61,053,26,30,09,058,21,5*7D,1746866461020
NMEA,$GBGSV,3,2,09,32,05,049,23,35,53,244,35,38,23,042,32,44,07,241,29,5*70,1746866461020
NMEA,$GBGSV,3,3,09,45,51,180,33,5*47,1746866461020
NMEA,$GNGSA,A,3,05,16,18,26,27,28,29,31,,,,,0.6,0.4,0.4,1*3E,1746866461055
NMEA,$GNGSA,A,3,66,73,74,80,82,83,84,,,,,,0.6,0.4,0.4,2*36,1746866461055
NMEA,$GNGSA,A,3,12,23,24,26,31,33,,,,,,,0.6,0.4,0.4,3*37,1746866461055
NMEA,$GNGSA,A,3,08,13,24,26,29,30,32,35,38,44,45,,0.6,0.4,0.4,4*3F,1746866461055
NMEA,$GNVTG,,T,,M,0.0,N,0.0,K,A*3D,1746866461055
NMEA,$GNDTM,P90,,0000.000026,S,00000.000000,E,0.978,W84*5C,1746866461055
NMEA,$GNRMC,084101.00,A,4503.592239,N,00741.839142,E,0.0,,100525,3.3,E,A,V*73,1746866461055
NMEA,$GNGNS,084101.00,4503.592239,N,00741.839142,E,AAAANN,32,0.4,279.0,48.0,,,V*28,1746866461055
NMEA,$GNGGA,084101.00,4503.592239,N,00741.839142,E,1,12,0.4,279.0,M,48.0,M,,*7A,1746866461055
NMEA,$GPGSV,3,1,11,05,21,053,36,16,37,305,48,18,74,137,30,20,02,026,30,1*61,1746866462012
NMEA,$GPGSV,3,2,11,25,13,131,17,26,66,293,47,27,13,267,39,28,24,203,32,1*68,1746866462012
NMEA,$GPGSV,3,3,11,29,40,066,32,31,39,228,48,23,15,143,,1*55,1746866462012
NMEA,$GPGSV,2,1,06,18,74,137,38,26,66,293,40,27,13,267,38,28,24,203,32,8*67,1746866462012
NMEA,$GPGSV,2,2,06,23,15,143,,25,13,131,,8*6E,1746866462012
NMEA,$GLGSV,3,1,09,74,23,324,40,66,06,039,34,82,45,035,41,73,68,304,45,1*7F,1746866462012
NMEA,$GLGSV,3,2,09,80,47,156,28,65,03,354,33,84,19,226,34,83,82,289,29,1*7D,1746866462012
NMEA,$GLGSV,3,3,09,81,01,043,28,1*44,1746866462012
NMEA,$GAGSV,3,1,10,05,03,297,35,10,01,209,15,12,22,202,26,23,43,123,27,7*77,1746866462012
NMEA,$GAGSV,3,2,10,24,26,305,45,26,42,051,37,31,80,312,41,33,69,150,30,7*73,1746866462012
NMEA,$GAGSV,3,3,10,03,00,000,,16,02,305,,7*72,1746866462012
NMEA,$GAGSV,2,1,07,05,03,297,28,12,22,202,26,23,43,123,31,24,26,305,40,1*72,1746866462012
NMEA,$GAGSV,2,2,07,26,42,051,24,31,80,312,35,33,69,150,34,1*42,1746866462012
NMEA,$GBGSV,4,1,14,45,51,180,37,44,07,241,37,38,23,042,40,35,53,244,46,1*72,1746866462012
NMEA,$GBGSV,4,2,14,32,05,049,26,29,61,053,38,26,52,290,48,24,10,319,43,1*76,1746866462012
NMEA,$GBGSV,4,3,14,13,35,070,24,08,31,051,34,05,17,120,,30,09,058,,1*7F,1746866462012
NMEA,$GBGSV,4,4,14,36,08,154,,60,05,101,,1*7D,1746866462012
NMEA,$GBGSV,3,1,09,24,10,319,46,26,52,290,50,29,61,053,40,30,09,058,29,3*7E,1746866462012
NMEA,$GBGSV,3,2,09,32,05,049,30,35,53,244,46,38,23,042,42,44,07,241,39,3*76,1746866462012
NMEA,$GBGSV,3,3,09,45,51,180,40,3*45,1746866462012
NMEA,$GBGSV,3,1,09,24,10,319,39,26,52,290,39,29,61,053,30,30,09,058,21,5*70,1746866462012
NMEA,$GBGSV,3,2,09,32,05,049,23,35,53,244,42,38,23,042,27,44,07,241,28,5*75,1746866462012
NMEA,$GBGSV,3,3,09,45,51,180,37,5*43,1746866462012
NMEA,$GNGSA,A,3,05,16,18,26,27,28,29,31,,,,,0.6,0.4,0.4,1*3E,1746866462046
NMEA,$GNGSA,A,3,66,73,74,80,82,83,84,,,,,,0.6,0.4,0.4,2*36,1746866462046
NMEA,$GNGSA,A,3,12,23,24,26,31,33,,,,,,,0.6,0.4,0.4,3*37,1746866462046
NMEA,$GNGSA,A,3,08,13,24,26,29,30,32,35,38,44,45,,0.6,0.4,0.4,4*3F,1746866462046
NMEA,$GNVTG,,T,,M,0.0,N,0.0,K,A*3D,1746866462046
NMEA,$GNDTM,P90,,0000.000026,S,00000.000000,E,0.978,W84*5C,1746866462046
NMEA,$GNRMC,084102.00,A,4503.592265,N,00741.839139,E,0.0,,100525,3.3,E,A,V*75,1746866462046
NMEA,$GNGNS,084102.00,4503.592265,N,00741.839139,E,AAAANN,32,0.4,278.8,48.0,,,V*27,1746866462046
NMEA,$GNGGA,084102.00,4503.592265,N,00741.839139,E,1,12,0.4,278.8,M,48.0,M,,*75,1746866462046
NMEA,$GPGSV,3,1,11,05,21,053,33,16,37,305,47,18,74,137,32,20,02,026,22,1*6A,1746866463012
NMEA,$GPGSV,3,2,11,25,13,131,17,26,66,293,48,27,13,267,36,28,24,203,33,1*69,1746866463012
NMEA,$GPGSV,3,3,11,29,40,066,28,31,39,228,47,23,15,143,,1*51,1746866463012
NMEA,$GPGSV,2,1,06,18,74,137,38,26,66,293,39,27,13,267,35,28,24,203,32,8*64,1746866463012
NMEA,$GPGSV,2,2,06,23,15,143,,25,13,131,,8*6E,1746866463012
NMEA,$GLGSV,3,1,09,74,23,324,38,66,06,039,30,82,45,035,41,73,68,304,46,1*77,1746866463012
NMEA,$GLGSV,3,2,09,80,47,156,28,65,03,354,31,84,19,226,32,83,82,289,26,1*76,1746866463012
NMEA,$GLGSV,3,3,09,81,01,043,25,1*49,1746866463012
NMEA,$GAGSV,3,1,10,05,03,297,35,10,01,209,15,12,22,202,22,23,43,123,29,7*7D,1746866463012
NMEA,$GAGSV,3,2,10,24,26,305,43,26,42,051,37,31,80,312,40,33,69,150,33,7*77,1746866463012
NMEA,$GAGSV,3,3,10,03,00,000,,16,02,305,,7*72,1746866463012
NMEA,$GAGSV,3,1,10,05,03,297,31,12,22,202,26,23,43,123,31,24,26,305,38,1*72,1746866463012
NMEA,$GAGSV,3,2,10,26,42,051,22,31,80,312,32,33,69,150,35,03,00,000,,1*76,1746866463012
NMEA,$GAGSV,3,3,10,10,01,209,,16,02,305,,1*7C,1746866463012
NMEA,$GBGSV,4,1,14,45,51,180,41,44,07,241,36,38,23,042,36,35,53,244,46,1*73,1746866463012
NMEA,$GBGSV,4,2,14,32,05,049,26,29,61,053,37,26,52,290,50,24,10,319,39,1*7D,1746866463012
NMEA,$GBGSV,4,3,14,13,35,070,26,08,31,051,32,05,17,120,,30,09,058,,1*7B,1746866463012
NMEA,$GBGSV,4,4,14,36,08,154,,60,05,101,,1*7D,1746866463012
NMEA,$GBGSV,3,1,09,24,10,319,42,26,52,290,52,29,61,053,40,30,09,058,26,3*77,1746866463012
NMEA,$GBGSV,3,2,09,32,05,049,24,35,53,244,47,38,23,042,40,44,07,241,37,3*7E,1746866463012
NMEA,$GBGSV,3,3,09,45,51,180,42,3*47,1746866463012
NMEA,$GBGSV,3,1,09,24,10,319,37,26,52,290,37,29,61,053,28,30,09,058,19,5*72,1746866463012
NMEA,$GBGSV,3,2,09,32,05,049,19,35,53,244,41,38,23,042,23,44,07,241,24,5*77,1746866463012
NMEA,$GBGSV,3,3,09,45,51,180,38,5*4C,1746866463012
NMEA,$GNGSA,A,3,05,16,18,26,27,28,29,31,,,,,0.6,0.4,0.4,1*3E,1746866463026
NMEA,$GNGSA,A,3,66,73,74,80,82,83,84,,,,,,0.6,0.4,0.4,2*36,1746866463026
NMEA,$GNGSA,A,3,12,23,24,26,31,33,,,,,,,0.6,0.4,0.4,3*37,1746866463026
NMEA,$GNGSA,A,3,08,13,24,26,29,30,32,35,38,44,45,,0.6,0.4,0.4,4*3F,1746866463026
NMEA,$GNVTG,,T,,M,0.0,N,0.0,K,A*3D,1746866463026
NMEA,$GNDTM,P90,,0000.000026,S,00000.000000,E,0.978,W84*5C,1746866463026
NMEA,$GNRMC,084103.00,A,4503.592315,N,00741.838993,E,0.0,,100525,3.3,E,A,V*7B,1746866463026
NMEA,$GNGNS,084103.00,4503.592315,N,00741.838993,E,AAAANN,32,0.4,278.8,48.0,,,V*29,1746866463026
NMEA,$GNGGA,084103.00,4503.592315,N,00741.838993,E,1,12,0.4,278.8,M,48.0,M,,*7B,1746866463026
NMEA,$GPGSV,3,1,11,05,21,053,31,16,37,305,46,18,74,137,31,20,02,026,26,1*6E,1746866464009
NMEA,$GPGSV,3,2,11,25,13,131,21,26,66,293,43,27,13,267,38,28,24,203,33,1*69,1746866464009
NMEA,$GPGSV,3,3,11,29,40,066,31,31,39,228,41,23,15,143,,1*5F,1746866464009
NMEA,$GPGSV,2,1,06,18,74,137,32,26,66,293,34,27,13,267,33,28,24,203,24,8*62,1746866464009
NMEA,$GPGSV,2,2,06,23,15,143,,25,13,131,,8*6E,1746866464009
NMEA,$GLGSV,3,1,09,74,23,324,38,66,06,039,29,82,45,035,42,73,68,304,40,1*7A,1746866464009
NMEA,$GLGSV,3,2,09,80,47,156,26,65,03,354,35,84,19,226,29,83,82,289,26,1*76,1746866464009
NMEA,$GLGSV,3,3,09,81,01,043,22,1*4E,1746866464009
NMEA,$GAGSV,3,1,10,05,03,297,36,10,01,209,15,12,22,202,22,23,43,123,26,7*71,1746866464009
NMEA,$GAGSV,3,2,10,24,26,305,43,26,42,051,37,31,80,312,37,33,69,150,32,7*76,1746866464009
NMEA,$GAGSV,3,3,10,03,00,000,,16,02,305,,7*72,1746866464009
NMEA,$GAGSV,3,1,10,05,03,297,28,12,22,202,26,23,43,123,31,24,26,305,35,1*77,1746866464009
NMEA,$GAGSV,3,2,10,26,42,051,22,31,80,312,26,33,69,150,31,03,00,000,,1*77,1746866464009
NMEA,$GAGSV,3,3,10,10,01,209,,16,02,305,,1*7C,1746866464009
NMEA,$GBGSV,4,1,14,45,51,180,33,44,07,241,37,38,23,042,36,35,53,244,42,1*73,1746866464009
NMEA,$GBGSV,4,2,14,32,05,049,26,29,61,053,36,26,52,290,46,24,10,319,40,1*75,1746866464009
NMEA,$GBGSV,4,3,14,08,31,051,33,05,17,120,,13,35,070,,30,09,058,,1*7E,1746866464009
NMEA,$GBGSV,4,4,14,36,08,154,,60,05,101,,1*7D,1746866464009
NMEA,$GBGSV,3,1,09,24,10,319,43,26,52,290,47,29,61,053,39,30,09,058,29,3*73,1746866464009
NMEA,$GBGSV,3,2,09,32,05,049,23,35,53,244,43,38,23,042,40,44,07,241,38,3*72,1746866464009
NMEA,$GBGSV,3,3,09,45,51,180,36,3*44,1746866464009
NMEA,$GBGSV,3,1,09,24,10,319,33,26,52,290,32,29,61,053,24,30,09,058,19,5*7F,1746866464009
NMEA,$GBGSV,3,2,09,32,05,049,19,35,53,244,35,38,23,042,23,44,07,241,24,5*74,1746866464009
NMEA,$GBGSV,3,3,09,45,51,180,29,5*4C,1746866464009
NMEA,$GNGSA,A,3,05,16,18,26,27,28,29,31,,,,,0.6,0.4,0.4,1*3E,1746866464018
NMEA,$GNGSA,A,3,66,73,74,80,82,83,84,,,,,,0.6,0.4,0.4,2*36,1746866464018
NMEA,$GNGSA,A,3,12,23,24,26,31,33,,,,,,,0.6,0.4,0.4,3*37,1746866464018
NMEA,$GNGSA,A,3,08,13,24,26,29,30,32,35,38,44,45,,0.6,0.4,0.4,4*3F,1746866464018
NMEA,$GNVTG,,T,,M,0.0,N,0.0,K,A*3D,1746866464018
NMEA,$GNDTM,P90,,0000.000026,S,00000.000000,E,0.978,W84*5C,1746866464018
NMEA,$GNRMC,084104.00,A,4503.592393,N,00741.839077,E,0.0,,100525,3.3,E,A,V*70,1746866464018
NMEA,$GNGNS,084104.00,4503.592393,N,00741.839077,E,AAAANN,32,0.4,278.7,48.0,,,V*2D,1746866464018
NMEA,$GNGGA,084104.00,4503.592393,N,00741.839077,E,1,12,0.4,278.7,M,48.0,M,,*7F,1746866464018
NMEA,$GPGSV,3,1,11,05,21,053,27,16,37,305,40,18,74,137,33,20,02,026,26,1*6D,1746866465012
NMEA,$GPGSV,3,2,11,25,13,131,21,26,66,293,44,27,13,267,29,28,24,203,24,1*68,1746866465012
NMEA,$GPGSV,3,3,11,29,40,066,32,31,39,228,40,23,15,143,,1*5D,1746866465012
NMEA,$GPGSV,2,1,06,18,74,137,32,26,66,293,34,27,13,267,35,28,24,203,24,8*64,1746866465012
NMEA,$GPGSV,2,2,06,23,15,143,,25,13,131,,8*6E,1746866465012
NMEA,$GLGSV,3,1,09,74,23,324,32,66,06,039,23,82,45,035,40,73,68,304,43,1*7B,1746866465012
NMEA,$GLGSV,3,2,09,80,47,156,31,65,03,354,23,84,19,226,28,83,82,289,26,1*76,1746866465012
NMEA,$GLGSV,3,3,09,81,01,043,22,1*4E,1746866465012
NMEA,$GAGSV,3,1,10,05,03,297,26,10,01,209,15,12,22,202,18,23,43,123,30,7*7E,1746866465012
NMEA,$GAGSV,3,2,10,24,26,305,36,26,42,051,34,31,80,312,38,33,69,150,33,7*79,1746866465012
NMEA,$GAGSV,3,3,10,03,00,000,,16,02,305,,7*72,1746866465012
NMEA,$GAGSV,3,1,10,05,03,297,25,12,22,202,26,23,43,123,21,24,26,305,33,1*7D,1746866465012
NMEA,$GAGSV,3,2,10,26,42,051,22,31,80,312,32,33,69,150,27,03,00,000,,1*75,1746866465012
NMEA,$GAGSV,3,3,10,10,01,209,,16,02,305,,1*7C,1746866465012
NMEA,$GBGSV,4,1,14,45,51,180,31,44,07,241,33,38,23,042,29,35,53,244,41,1*78,1746866465012
NMEA,$GBGSV,4,2,14,29,61,053,37,26,52,290,43,24,10,319,35,08,31,051,29,1*7B,1746866465012
NMEA,$GBGSV,4,3,14,05,17,120,,13,35,070,,30,09,058,,32,05,049,,1*79,1746866465012
NMEA,$GBGSV,4,4,14,36,08,154,,60,05,101,,1*7D,1746866465012
NMEA,$GBGSV,3,1,09,24,10,319,36,26,52,290,45,29,61,053,39,30,09,058,25,3*7F,1746866465012
NMEA,$GBGSV,3,2,09,32,05,049,26,35,53,244,43,38,23,042,30,44,07,241,34,3*7C,1746866465012
NMEA,$GBGSV,3,3,09,45,51,180,33,3*41,1746866465012
NMEA,$GBGSV,3,1,09,24,10,319,27,26,52,290,33,29,61,053,28,30,09,058,19,5*77,1746866465012
NMEA,$GBGSV,3,2,09,32,05,049,19,35,53,244,36,38,23,042,22,44,07,241,27,5*75,1746866465012
NMEA,$GBGSV,3,3,09,45,51,180,28,5*4D,1746866465012
NMEA,$GNGSA,A,3,05,16,18,26,27,28,29,31,,,,,0.6,0.4,0.4,1*3E,1746866465022
NMEA,$GNGSA,A,3,66,73,74,80,82,83,84,,,,,,0.6,0.4,0.4,2*36,1746866465022
NMEA,$GNGSA,A,3,12,23,24,26,31,33,,,,,,,0.6,0.4,0.4,3*37,1746866465022
NMEA,$GNGSA,A,3,08,13,24,26,29,30,32,35,38,44,45,,0.6,0.4,0.4,4*3F,1746866465022
NMEA,$GNVTG,,T,,M,0.0,N,0.0,K,A*3D,1746866465022
NMEA,$GNDTM,P90,,0000.000026,S,00000.000000,E,0.978,W84*5C,1746866465022
NMEA,$GNRMC,084105.00,A,4503.592384,N,00741.839018,E,0.0,,100525,3.3,E,A,V*7E,1746866465022
NMEA,$GNGNS,084105.00,4503.592384,N,00741.839018,E,AAAANN,32,0.4,278.8,48.0,,,V*2C,1746866465022
NMEA,$GNGGA,084105.00,4503.592384,N,00741.839018,E,1,12,0.4,278.8,M,48.0,M,,*7E,1746866465022
NMEA,$GPGSV,3,1,11,05,21,053,27,16,37,305,33,18,74,137,34,20,02,026,26,1*6E,1746866466019
NMEA,$GPGSV,3,2,11,25,13,131,21,26,66,293,37,27,13,267,31,28,24,203,24,1*65,1746866466019
NMEA,$GPGSV,3,3,11,29,40,066,28,31,39,228,36,23,15,143,,1*57,1746866466019
NMEA,$GPGSV,2,1,06,18,74,137,34,26,66,293,33,27,13,267,31,28,24,203,23,8*66,1746866466019
NMEA,$GPGSV,2,2,06,23,15,143,,25,13,131,,8*6E,1746866466019
NMEA,$GLGSV,3,1,09,74,23,324,32,66,06,039,22,82,45,035,30,73,68,304,35,1*7C,1746866466019
NMEA,$GLGSV,3,2,09,80,47,156,24,65,03,354,23,84,19,226,23,83,82,289,26,1*79,1746866466019
NMEA,$GLGSV,3,3,09,81,01,043,22,1*4E,1746866466019
NMEA,$GAGSV,3,1,10,05,03,297,25,10,01,209,15,12,22,202,18,23,43,123,31,7*7C,1746866466019
NMEA,$GAGSV,3,2,10,24,26,305,33,26,42,051,30,31,80,312,31,33,69,150,33,7*71,1746866466019
NMEA,$GAGSV,3,3,10,03,00,000,,16,02,305,,7*72,1746866466019
NMEA,$GAGSV,3,1,10,05,03,297,25,12,22,202,17,23,43,123,21,24,26,305,27,1*7A,1746866466019
NMEA,$GAGSV,3,2,10,26,42,051,26,31,80,312,30,33,69,150,29,03,00,000,,1*7D,1746866466019
NMEA,$GAGSV,3,3,10,10,01,209,,16,02,305,,1*7C,1746866466019
NMEA,$GBGSV,4,1,14,45,51,180,23,44,07,241,32,38,23,042,27,35,53,244,37,1*75,1746866466019
NMEA,$GBGSV,4,2,14,29,61,053,29,26,52,290,36,24,10,319,27,13,35,070,22,1*73,1746866466019
NMEA,$GBGSV,4,3,14,08,31,051,29,05,17,120,,30,09,058,,32,05,049,,1*7F,1746866466019
NMEA,$GBGSV,4,4,14,36,08,154,,60,05,101,,1*7D,1746866466019
NMEA,$GBGSV,3,1,09,24,10,319,28,26,52,290,38,29,61,053,32,30,09,058,25,3*71,1746866466019
NMEA,$GBGSV,3,2,09,32,05,049,26,35,53,244,38,38,23,042,29,44,07,241,33,3*7F,1746866466019
NMEA,$GBGSV,3,3,09,45,51,180,25,3*46,1746866466019
NMEA,$GBGSV,3,1,09,24,10,319,26,26,52,290,31,29,61,053,28,30,09,058,19,5*74,1746866466019
NMEA,$GBGSV,3,2,09,32,05,049,19,35,53,244,31,38,23,042,23,44,07,241,25,5*71,1746866466019
NMEA,$GBGSV,3,3,09,45,51,180,24,5*41,1746866466019
NMEA,$GNGSA,A,3,05,16,18,26,27,28,29,31,,,,,0.6,0.4,0.4,1*3E,1746866466050
NMEA,$GNGSA,A,3,66,73,74,80,82,83,84,,,,,,0.6,0.4,0.4,2*36,1746866466050
NMEA,$GNGSA,A,3,12,23,24,26,31,33,,,,,,,0.6,0.4,0.4,3*37,1746866466050
NMEA,$GNGSA,A,3,08,13,24,26,29,30,32,35,38,44,45,,0.6,0.4,0.4,4*3F,1746866466050
NMEA,$GNVTG,,T,,M,0.0,N,0.0,K,A*3D,1746866466050
NMEA,$GNDTM,P90,,0000.000026,S,00000.000000,E,0.978,W84*5C,1746866466050
NMEA,$GNRMC,084106.00,A,4503.592285,N,00741.838980,E,0.0,,100525,3.3,E,A,V*74,1746866466050
NMEA,$GNGNS,084106.00,4503.592285,N,00741.838980,E,AAAANN,32,0.4,278.5,48.0,,,V*2B,1746866466050
NMEA,$GNGGA,084106.00,4503.592285,N,00741.838980,E,1,12,0.4,278.5,M,48.0,M,,*79,1746866466050
NMEA,$GPGSV,3,1,11,05,21,053,24,16,37,305,32,18,74,137,31,20,02,026,26,1*69,1746866467014
NMEA,$GPGSV,3,2,11,25,13,131,21,26,66,293,39,27,13,267,30,28,24,203,22,1*6C,1746866467014
NMEA,$GPGSV,3,3,11,29,40,066,28,31,39,228,40,23,15,143,,1*56,1746866467014
NMEA,$GPGSV,2,1,06,18,74,137,34,26,66,293,35,27,13,267,32,28,24,203,22,8*62,1746866467014
NMEA,$GPGSV,2,2,06,23,15,143,,25,13,131,,8*6E,1746866467014
NMEA,$GLGSV,3,1,09,74,23,324,22,66,06,039,22,82,45,035,31,73,68,304,36,1*7F,1746866467014
NMEA,$GLGSV,3,2,09,80,47,156,24,65,03,354,22,84,19,226,23,83,82,289,21,1*7F,1746866467014
NMEA,$GLGSV,3,3,09,81,01,043,22,1*4E,1746866467014
NMEA,$GAGSV,3,1,10,05,03,297,25,10,01,209,15,12,22,202,18,23,43,123,27,7*7B,1746866467014
NMEA,$GAGSV,3,2,10,24,26,305,24,26,42,051,26,31,80,312,35,33,69,150,29,7*7F,1746866467014
NMEA,$GAGSV,3,3,10,03,00,000,,16,02,305,,7*72,1746866467014
NMEA,$GAGSV,3,1,10,05,03,297,25,12,22,202,17,23,43,123,23,24,26,305,24,1*7B,1746866467014
NMEA,$GAGSV,3,2,10,26,42,051,29,31,80,312,31,33,69,150,29,03,00,000,,1*73,1746866467014
NMEA,$GAGSV,3,3,10,10,01,209,,16,02,305,,1*7C,1746866467014
NMEA,$GBGSV,4,1,14,45,51,180,30,44,07,241,33,38,23,042,25,35,53,244,40,1*74,1746866467014
NMEA,$GBGSV,4,2,14,29,61,053,32,26,52,290,35,24,10,319,25,13,35,070,22,1*78,1746866467014
NMEA,$GBGSV,4,3,14,08,31,051,21,05,17,120,,30,09,058,,32,05,049,,1*77,1746866467014
NMEA,$GBGSV,4,4,14,36,08,154,,60,05,101,,1*7D,1746866467014
NMEA,$GBGSV,3,1,09,24,10,319,27,26,52,290,38,29,61,053,35,30,09,058,25,3*79,1746866467014
NMEA,$GBGSV,3,2,09,32,05,049,26,35,53,244,42,38,23,042,28,44,07,241,34,3*74,1746866467014
NMEA,$GBGSV,3,3,09,45,51,180,33,3*41,1746866467014
NMEA,$GBGSV,3,1,09,24,10,319,25,26,52,290,33,29,61,053,29,30,09,058,19,5*74,1746866467014
NMEA,$GBGSV,3,2,09,32,05,049,19,35,53,244,35,38,23,042,27,44,07,241,27,5*73,1746866467014
NMEA,$GBGSV,3,3,09,45,51,180,31,5*45,1746866467014
NMEA,$GNGSA,A,3,05,16,18,26,27,28,29,31,,,,,0.6,0.4,0.4,1*3E,1746866467038
NMEA,$GNGSA,A,3,66,73,74,80,82,83,84,,,,,,0.6,0.4,0.4,2*36,1746866467038
NMEA,$GNGSA,A,3,12,23,24,26,31,33,,,,,,,0.6,0.4,0.4,3*37,1746866467038
NMEA,$GNGSA,A,3,08,13,24,26,29,30,32,35,38,44,45,,0.6,0.4,0.4,4*3F,1746866467038
NMEA,$GNVTG,,T,,M,0.0,N,0.0,K,A*3D,1746866467038
NMEA,$GNDTM,P90,,0000.000026,S,00000.000000,E,0.978,W84*5C,1746866467038
NMEA,$GNRMC,084107.00,A,4503.592331,N,00741.838982,E,0.0,,100525,3.3,E,A,V*79,1746866467038
NMEA,$GNGNS,084107.00,4503.592331,N,00741.838982,E,AAAANN,32,0.4,278.8,48.0,,,V*2B,1746866467038
NMEA,$GNGGA,084107.00,4503.592331,N,00741.838982,E,1,12,0.4,278.8,M,48.0,M,,*79,1746866467038
NMEA,$GPGSV,3,1,11,05,21,053,27,16,37,305,36,18,74,137,31,20,02,026,26,1*6E,1746866468011
NMEA,$GPGSV,3,2,11,25,13,131,21,26,66,293,39,27,13,267,32,28,24,203,22,1*6E,1746866468011
NMEA,$GPGSV,3,3,11,29,40,066,21,31,39,228,39,23,15,143,,1*51,1746866468011
NMEA,$GPGSV,2,1,06,18,74,137,37,26,66,293,39,27,13,267,32,28,24,203,23,8*6C,1746866468011
NMEA,$GPGSV,2,2,06,23,15,143,,25,13,131,,8*6E,1746866468011
NMEA,$GLGSV,3,1,09,74,23,324,24,66,06,039,22,82,45,035,29,73,68,304,36,1*70,1746866468011
NMEA,$GLGSV,3,2,09,80,47,156,23,65,03,354,22,84,19,226,25,83,82,289,23,1*7C,1746866468011
NMEA,$GLGSV,3,3,09,81,01,043,22,1*4E,1746866468011
NMEA,$GAGSV,3,1,10,05,03,297,19,10,01,209,15,12,22,202,18,23,43,123,25,7*76,1746866468011
NMEA,$GAGSV,3,2,10,24,26,305,30,26,42,051,27,31,80,311,35,33,69,150,29,7*78,1746866468011
NMEA,$GAGSV,3,3,10,03,00,000,,16,02,305,,7*72,1746866468011
NMEA,$GAGSV,3,1,10,05,03,297,17,12,22,202,17,23,43,123,29,24,26,305,29,1*7D,1746866468011
NMEA,$GAGSV,3,2,10,26,42,051,31,31,80,311,35,33,69,150,33,03,00,000,,1*76,1746866468011
NMEA,$GAGSV,3,3,10,10,01,209,,16,02,305,,1*7C,1746866468011
NMEA,$GBGSV,4,1,14,45,51,180,33,44,07,241,32,38,23,042,24,35,53,244,41,1*76,1746866468011
NMEA,$GBGSV,4,2,14,29,61,053,32,26,52,290,38,24,10,319,28,13,35,070,22,1*78,1746866468011
NMEA,$GBGSV,4,3,14,08,31,051,23,05,17,120,,30,09,058,,32,05,049,,1*75,1746866468011
NMEA,$GBGSV,4,4,14,36,08,154,,60,05,101,,1*7D,1746866468011
NMEA,$GBGSV,3,1,09,24,10,319,30,26,52,290,40,29,61,053,33,30,09,058,19,3*79,1746866468011
NMEA,$GBGSV,3,2,09,32,05,049,26,35,53,244,43,38,23,042,27,44,07,241,33,3*7D,1746866468011
NMEA,$GBGSV,3,3,09,45,51,180,35,3*47,1746866468011
NMEA,$GBGSV,3,1,09,24,10,319,24,26,52,290,35,29,61,053,34,30,09,058,19,5*7F,1746866468011
NMEA,$GBGSV,3,2,09,32,05,049,19,35,53,244,36,38,23,042,26,44,07,241,27,5*71,1746866468011
NMEA,$GBGSV,3,3,09,45,51,180,32,5*46,1746866468011
NMEA,$GNGSA,A,3,05,16,18,26,27,28,29,31,,,,,0.6,0.4,0.4,1*3E,1746866468031
NMEA,$GNGSA,A,3,66,73,74,80,82,83,84,,,,,,0.6,0.4,0.4,2*36,1746866468031
NMEA,$GNGSA,A,3,12,23,24,26,31,33,,,,,,,0.6,0.4,0.4,3*37,1746866468031
NMEA,$GNGSA,A,3,08,13,24,26,29,30,32,35,38,44,45,,0.6,0.4,0.4,4*3F,1746866468031
NMEA,$GNVTG,,T,,M,0.0,N,0.0,K,A*3D,1746866468031
NMEA,$GNDTM,P90,,0000.000026,S,00000.000000,E,0.978,W84*5C,1746866468031
NMEA,$GNRMC,084108.00,A,4503.592327,N,00741.839018,E,0.0,,100525,3.3,E,A,V*7A,1746866468031
NMEA,$GNGNS,084108.00,4503.592327,N,00741.839018,E,AAAANN,32,0.4,279.0,48.0,,,V*21,1746866468031
NMEA,$GNGGA,084108.00,4503.592327,N,00741.839018,E,1,12,0.4,279.0,M,48.0,M,,*73,1746866468031
NMEA,$GPGSV,3,1,11,05,21,053,24,16,37,305,34,18,74,137,34,20,02,026,26,1*6A,1746866469009
NMEA,$GPGSV,3,2,11,25,13,131,21,26,66,293,37,27,13,267,31,28,24,203,22,1*63,1746866469009
NMEA,$GPGSV,3,3,11,29,40,066,22,31,39,228,39,23,15,143,,1*52,1746866469009
NMEA,$GPGSV,2,1,06,18,74,137,37,26,66,293,37,27,13,267,31,28,24,203,23,8*61,1746866469009
NMEA,$GPGSV,2,2,06,23,15,143,,25,13,131,,8*6E,1746866469009
NMEA,$GLGSV,3,1,09,74,23,324,26,66,06,039,20,82,45,035,28,73,68,304,35,1*72,1746866469009
NMEA,$GLGSV,3,2,09,80,47,156,28,65,03,354,22,84,19,226,27,83,82,289,23,1*75,1746866469009
NMEA,$GLGSV,3,3,09,81,01,043,22,1*4E,1746866469009
NMEA,$GAGSV,3,1,10,05,03,297,20,10,01,209,15,12,22,202,18,23,43,123,24,7*7D,1746866469009
NMEA,$GAGSV,3,2,10,24,26,305,29,26,42,051,23,31,80,311,31,33,69,150,33,7*7B,1746866469009
NMEA,$GAGSV,3,3,10,03,00,000,,16,02,305,,7*72,1746866469009
NMEA,$GAGSV,3,1,10,05,03,297,17,12,22,202,17,23,43,123,29,24,26,305,28,1*7C,1746866469009
NMEA,$GAGSV,3,2,10,26,42,051,31,31,80,311,35,33,69,150,33,03,00,000,,1*76,1746866469009
NMEA,$GAGSV,3,3,10,10,01,209,,16,02,305,,1*7C,1746866469009
NMEA,$GBGSV,4,1,14,45,51,180,32,44,07,241,31,38,23,042,23,35,53,244,41,1*73,1746866469009
NMEA,$GBGSV,4,2,14,30,09,058,21,29,61,053,28,26,52,290,36,24,10,319,27,1*75,1746866469009
NMEA,$GBGSV,4,3,14,13,35,070,20,08,31,051,23,05,17,120,,32,05,049,,1*73,1746866469009
NMEA,$GBGSV,4,4,14,36,08,154,,60,05,101,,1*7D,1746866469009
NMEA,$GBGSV,3,1,09,24,10,319,31,26,52,290,39,29,61,053,29,30,09,058,24,3*73,1746866469009
NMEA,$GBGSV,3,2,09,32,05,049,26,35,53,244,43,38,23,042,24,44,07,241,32,3*7F,1746866469009
NMEA,$GBGSV,3,3,09,45,51,180,34,3*46,1746866469009
NMEA,$GBGSV,3,1,09,24,10,319,27,26,52,290,32,29,61,053,32,30,09,058,19,5*7D,1746866469009
NMEA,$GBGSV,3,2,09,32,05,049,19,35,53,244,36,38,23,042,23,44,07,241,28,5*7B,1746866469009
NMEA,$GBGSV,3,3,09,45,51,180,32,5*46,1746866469009
NMEA,$GNGSA,A,3,05,16,18,26,27,28,29,31,,,,,0.6,0.4,0.4,1*3E,1746866469032
NMEA,$GNGSA,A,3,66,73,74,80,82,83,84,,,,,,0.6,0.4,0.4,2*36,1746866469032
NMEA,$GNGSA,A,3,12,23,24,26,31,33,,,,,,,0.6,0.4,0.4,3*37,1746866469032
NMEA,$GNGSA,A,3,08,13,24,26,29,30,32,35,38,44,45,,0.6,0.4,0.4,4*3F,1746866469032
NMEA,$GNVTG,,T,,M,0.0,N,0.0,K,A*3D,1746866469032
NMEA,$GNDTM,P90,,0000.000026,S,00000.000000,E,0.978,W84*5C,1746866469032
NMEA,$GNRMC,084109.00,A,4503.592328,N,00741.839020,E,0.0,,100525,3.3,E,A,V*7F,1746866469032
NMEA,$GNGNS,084109.00,4503.592328,N,00741.839020,E,AAAANN,32,0.4,278.9,48.0,,,V*2C,1746866469032
NMEA,$GNGGA,084109.00,4503.592328,N,00741.839020,E,1,12,0.4,278.9,M,48.0,M,,*7E,1746866469032
NMEA,$GPGSV,3,1,11,05,21,053,23,16,37,305,38,18,74,137,33,20,02,026,26,1*66,1746866470015
NMEA,$GPGSV,3,2,11,25,13,131,21,26,66,293,38,27,13,267,30,28,24,203,29,1*66,1746866470015
NMEA,$GPGSV,3,3,11,29,40,066,24,31,39,228,40,23,15,143,,1*5A,1746866470015
NMEA,$GPGSV,2,1,05,18,74,137,36,26,66,293,38,27,13,267,32,28,24,203,27,8*6B,1746866470015
NMEA,$GPGSV,2,2,05,23,15,143,,8*5B,1746866470015
NMEA,$GLGSV,3,1,09,74,23,324,24,66,06,039,20,82,45,035,28,73,68,304,34,1*71,1746866470015
NMEA,$GLGSV,3,2,09,80,47,156,31,65,03,354,22,84,19,226,25,83,82,289,22,1*7E,1746866470015
NMEA,$GLGSV,3,3,09,81,01,043,22,1*4E,1746866470015
NMEA,$GAGSV,3,1,10,05,03,297,23,10,01,209,15,12,22,202,18,23,43,123,25,7*7F,1746866470015
NMEA,$GAGSV,3,2,10,24,26,305,34,26,42,051,27,31,80,311,36,33,69,150,30,7*77,1746866470015
NMEA,$GAGSV,3,3,10,03,00,000,,16,02,305,,7*72,1746866470015
NMEA,$GAGSV,3,1,10,05,03,297,17,12,22,202,17,23,43,123,24,24,26,305,25,1*7C,1746866470015
NMEA,$GAGSV,3,2,10,26,42,051,30,31,80,311,35,33,69,150,33,03,00,000,,1*77,1746866470015
NMEA,$GAGSV,3,3,10,10,01,209,,16,02,305,,1*7C,1746866470015
NMEA,$GBGSV,4,1,14,45,51,180,35,44,07,241,32,38,23,042,25,35,53,244,41,1*71,1746866470015
NMEA,$GBGSV,4,2,14,30,09,058,25,29,61,053,30,26,52,290,33,24,10,319,24,1*7E,1746866470015
NMEA,$GBGSV,4,3,14,13,35,070,22,08,31,051,23,05,17,120,,32,05,049,,1*71,1746866470015
NMEA,$GBGSV,4,4,14,36,08,154,,60,05,101,,1*7D,1746866470015
NMEA,$GBGSV,3,1,09,24,10,319,31,26,52,290,37,29,61,053,33,30,09,058,28,3*7A,1746866470015
NMEA,$GBGSV,3,2,09,32,05,049,19,35,53,244,43,38,23,042,26,44,07,241,32,3*71,1746866470015
NMEA,$GBGSV,3,3,09,45,51,180,37,3*45,1746866470015
NMEA,$GBGSV,3,1,09,24,10,319,24,26,52,290,34,29,61,053,32,30,09,058,16,5*77,1746866470015
NMEA,$GBGSV,3,2,09,32,05,049,19,35,53,244,35,38,23,042,26,44,07,241,28,5*7D,1746866470015
NMEA,$GBGSV,3,3,09,45,51,180,34,5*40,1746866470015
NMEA,$GNGSA,A,3,05,16,18,26,27,28,29,31,,,,,0.6,0.4,0.4,1*3E,1746866470037
NMEA,$GNGSA,A,3,66,73,74,80,82,83,84,,,,,,0.6,0.4,0.4,2*36,1746866470037
NMEA,$GNGSA,A,3,12,23,24,26,31,33,,,,,,,0.6,0.4,0.4,3*37,1746866470037
NMEA,$GNGSA,A,3,08,13,24,26,29,30,32,35,38,44,45,,0.6,0.4,0.4,4*3F,1746866470037
NMEA,$GNVTG,,T,,M,0.0,N,0.0,K,A*3D,1746866470037
NMEA,$GNDTM,P90,,0000.000026,S,00000.000000,E,0.978,W84*5C,1746866470037
NMEA,$GNRMC,084110.00,A,4503.592358,N,00741.839028,E,0.0,,100525,3.3,E,A,V*78,1746866470037
NMEA,$GNGNS,084110.00,4503.592358,N,00741.839028,E,AAAANN,32,0.4,279.0,48.0,,,V*23,1746866470037
NMEA,$GNGGA,084110.00,4503.592358,N,00741.839028,E,1,12,0.4,279.0,M,48.0,M,,*71,1746866470037
NMEA,$GPGSV,3,1,11,05,21,053,24,16,37,305,34,18,74,137,30,20,02,026,26,1*6E,1746866471017
NMEA,$GPGSV,3,2,11,25,13,131,21,26,66,293,39,27,13,267,26,28,24,203,30,1*68,1746866471017
NMEA,$GPGSV,3,3,11,29,40,066,24,31,39,228,40,23,15,143,,1*5A,1746866471017
NMEA,$GPGSV,2,1,06,18,74,137,35,26,66,293,37,27,13,267,31,28,24,203,27,8*67,1746866471017
NMEA,$GPGSV,2,2,06,23,15,143,,25,13,131,,8*6E,1746866471017
NMEA,$GLGSV,3,1,09,74,23,324,25,66,06,039,20,82,45,035,28,73,68,304,36,1*72,1746866471017
NMEA,$GLGSV,3,2,09,80,47,156,34,65,03,354,22,84,19,226,25,83,82,289,22,1*7B,1746866471017
NMEA,$GLGSV,3,3,09,81,01,043,22,1*4E,1746866471017
NMEA,$GAGSV,3,1,10,05,03,297,21,10,01,209,15,12,22,202,16,23,43,123,27,7*71,1746866471017
NMEA,$GAGSV,3,2,10,24,26,305,28,26,42,051,27,31,80,311,30,33,69,150,32,7*7E,1746866471017
NMEA,$GAGSV,3,3,10,03,00,000,,16,02,305,,7*72,1746866471017
NMEA,$GAGSV,3,1,10,05,03,297,17,12,22,202,18,23,43,123,31,24,26,305,26,1*74,1746866471017
NMEA,$GAGSV,3,2,10,26,42,051,29,31,80,311,33,33,69,150,33,03,00,000,,1*79,1746866471017
NMEA,$GAGSV,3,3,10,10,01,209,,16,02,305,,1*7C,1746866471017
NMEA,$GBGSV,4,1,14,45,51,180,38,44,07,241,31,38,23,042,25,35,53,244,40,1*7E,1746866471017
NMEA,$GBGSV,4,2,14,30,09,058,29,29,61,053,26,26,52,290,37,24,10,319,27,1*72,1746866471017
NMEA,$GBGSV,4,3,14,13,35,070,22,08,31,051,23,05,17,120,,32,05,049,,1*71,1746866471017
NMEA,$GBGSV,4,4,14,36,08,154,,60,05,101,,1*7D,1746866471017
NMEA,$GBGSV,3,1,09,24,10,319,28,26,52,290,40,29,61,053,30,30,09,058,33,3*7B,1746866471017
NMEA,$GBGSV,3,2,09,32,05,049,19,35,53,244,42,38,23,042,29,44,07,241,33,3*7E,1746866471017
NMEA,$GBGSV,3,3,09,45,51,180,40,3*45,1746866471017
NMEA,$GBGSV,3,1,09,24,10,319,20,26,52,290,34,29,61,053,30,30,09,058,16,5*71,1746866471017
NMEA,$GBGSV,3,2,09,32,05,049,19,35,53,244,35,38,23,042,27,44,07,241,29,5*7D,1746866471017
NMEA,$GBGSV,3,3,09,45,51,180,36,5*42,1746866471017
NMEA,$GNGSA,A,3,05,16,18,26,27,28,29,31,,,,,0.6,0.4,0.5,1*3F,1746866471042
NMEA,$GNGSA,A,3,66,73,74,80,82,83,84,,,,,,0.6,0.4,0.5,2*37,1746866471042
NMEA,$GNGSA,A,3,12,23,24,26,31,33,,,,,,,0.6,0.4,0.5,3*36,1746866471042
NMEA,$GNGSA,A,3,08,13,24,26,29,30,35,38,44,45,,,0.6,0.4,0.5,4*3F,1746866471042
NMEA,$GNVTG,,T,,M,0.0,N,0.0,K,A*3D,1746866471042
NMEA,$GNDTM,P90,,0000.000026,S,00000.000000,E,0.978,W84*5C,1746866471042
NMEA,$GNRMC,084111.00,A,4503.592330,N,00741.838981,E,0.0,,100525,3.3,E,A,V*7C,1746866471042
NMEA,$GNGNS,084111.00,4503.592330,N,00741.838981,E,AAAANN,31,0.4,279.1,48.0,,,V*25,1746866471042
NMEA,$GNGGA,084111.00,4503.592330,N,00741.838981,E,1,12,0.4,279.1,M,48.0,M,,*74,1746866471042
NMEA,$GPGSV,3,1,11,05,21,053,24,16,37,305,36,18,74,137,36,20,02,026,26,1*6A,1746866472012
NMEA,$GPGSV,3,2,11,25,13,131,21,26,66,293,39,27,13,267,33,28,24,203,31,1*6D,1746866472012
NMEA,$GPGSV,3,3,11,29,40,066,22,31,39,228,42,23,15,143,,1*5E,1746866472012
NMEA,$GPGSV,2,1,06,18,74,137,37,26,66,293,36,27,13,267,31,28,24,203,26,8*65,1746866472012
NMEA,$GPGSV,2,2,06,23,15,143,,25,13,131,,8*6E,1746866472012
NMEA,$GLGSV,3,1,09,74,23,324,23,66,06,039,20,82,45,035,34,73,68,304,38,1*77,1746866472012
NMEA,$GLGSV,3,2,09,80,47,156,40,65,03,354,22,84,19,226,27,83,82,289,22,1*7A,1746866472012
NMEA,$GLGSV,3,3,09,81,01,043,22,1*4E,1746866472012
NMEA,$GAGSV,3,1,10,05,03,297,22,10,01,209,15,12,22,202,23,23,43,123,30,7*72,1746866472012
NMEA,$GAGSV,3,2,10,24,26,305,31,26,42,051,25,31,80,311,35,33,69,150,37,7*74,1746866472012
NMEA,$GAGSV,3,3,10,03,00,000,,16,02,305,,7*72,1746866472012
NMEA,$GAGSV,3,1,10,05,03,297,17,12,22,202,18,23,43,123,28,24,26,305,26,1*7C,1746866472012
NMEA,$GAGSV,3,2,10,26,42,051,30,31,80,311,33,33,69,150,34,03,00,000,,1*76,1746866472012
NMEA,$GAGSV,3,3,10,10,01,209,,16,02,305,,1*7C,1746866472012
NMEA,$GBGSV,4,1,14,45,51,180,42,44,07,241,33,38,23,042,26,35,53,244,42,1*70,1746866472012
NMEA,$GBGSV,4,2,14,30,09,058,29,29,61,053,33,26,52,290,38,24,10,319,28,1*76,1746866472012
NMEA,$GBGSV,4,3,14,13,35,070,22,08,31,051,23,05,17,120,,32,05,049,,1*71,1746866472012
NMEA,$GBGSV,4,4,14,36,08,154,,60,05,101,,1*7D,1746866472012
NMEA,$GBGSV,3,1,09,24,10,319,30,26,52,290,41,29,61,053,35,30,09,058,31,3*74,1746866472012
NMEA,$GBGSV,3,2,09,32,05,049,21,35,53,244,44,38,23,042,31,44,07,241,32,3*7B,1746866472012
NMEA,$GBGSV,3,3,09,45,51,180,44,3*41,1746866472012
NMEA,$GBGSV,3,1,09,24,10,319,23,26,52,290,32,29,61,053,30,30,09,058,20,5*71,1746866472012
NMEA,$GBGSV,3,2,09,32,05,049,14,35,53,244,35,38,23,042,25,44,07,241,27,5*7C,1746866472012
NMEA,$GBGSV,3,3,09,45,51,180,37,5*43,1746866472012
NMEA,$GNGSA,A,3,05,16,18,26,27,28,29,31,,,,,0.6,0.4,0.4,1*3E,1746866472038
NMEA,$GNGSA,A,3,66,73,74,80,82,83,84,,,,,,0.6,0.4,0.4,2*36,1746866472038
NMEA,$GNGSA,A,3,12,23,24,26,31,33,,,,,,,0.6,0.4,0.4,3*37,1746866472038
NMEA,$GNGSA,A,3,08,13,24,26,29,30,32,35,38,44,45,,0.6,0.4,0.4,4*3F,1746866472038
NMEA,$GNVTG,,T,,M,0.0,N,0.0,K,A*3D,1746866472038
NMEA,$GNDTM,P90,,0000.000026,S,00000.000000,E,0.978,W84*5C,1746866472038
NMEA,$GNRMC,084112.00,A,4503.592360,N,00741.838919,E,0.0,,100525,3.3,E,A,V*7B,1746866472038
NMEA,$GNGNS,084112.00,4503.592360,N,00741.838919,E,AAAANN,32,0.4,279.3,48.0,,,V*23,1746866472038
NMEA,$GNGGA,084112.00,4503.592360,N,00741.838919,E,1,12,0.4,279.3,M,48.0,M,,*71,1746866472038
NMEA,$GPGSV,3,1,11,05,21,053,21,16,37,305,35,18,74,137,34,20,02,026,26,1*6E,1746866473011
NMEA,$GPGSV,3,2,11,25,13,131,21,26,66,293,39,27,13,267,32,28,24,203,31,1*6C,1746866473011
NMEA,$GPGSV,3,3,11,29,40,066,22,31,39,228,41,23,15,143,,1*5D,1746866473011
NMEA,$GPGSV,2,1,06,18,74,137,38,26,66,293,37,27,13,267,32,28,24,203,26,8*68,1746866473011
NMEA,$GPGSV,2,2,06,23,15,143,,25,13,131,,8*6E,1746866473011
NMEA,$GLGSV,3,1,09,74,23,324,24,66,06,039,20,82,45,035,30,73,68,304,37,1*7B,1746866473011
NMEA,$GLGSV,3,2,09,80,47,156,37,65,03,354,22,84,19,226,27,83,82,289,21,1*79,1746866473011
NMEA,$GLGSV,3,3,09,81,01,043,22,1*4E,1746866473011
NMEA,$GAGSV,3,1,10,05,03,297,20,10,01,209,15,12,22,202,21,23,43,123,26,7*75,1746866473011
NMEA,$GAGSV,3,2,10,24,26,305,30,26,42,051,25,31,80,311,33,33,69,150,34,7*70,1746866473011
NMEA,$GAGSV,3,3,10,03,00,000,,16,02,305,,7*72,1746866473011
NMEA,$GAGSV,3,1,10,05,03,297,17,12,22,202,18,23,43,123,29,24,26,305,26,1*7D,1746866473011
NMEA,$GAGSV,3,2,10,26,42,051,29,31,80,311,34,33,69,150,35,03,00,000,,1*78,1746866473011
NMEA,$GAGSV,3,3,10,10,01,209,,16,02,305,,1*7C,1746866473011
NMEA,$GBGSV,4,1,14,45,51,180,41,44,07,241,31,38,23,042,23,35,53,244,41,1*77,1746866473011
NMEA,$GBGSV,4,2,14,32,05,049,19,30,09,058,27,29,61,053,31,26,52,290,37,1*72,1746866473011
NMEA,$GBGSV,4,3,14,24,10,319,28,13,35,070,22,08,31,051,23,05,17,120,,1*7E,1746866473011
NMEA,$GBGSV,4,4,14,36,08,154,,60,05,101,,1*7D,1746866473011
NMEA,$GBGSV,3,1,09,24,10,319,29,26,52,290,40,29,61,053,33,30,09,058,30,3*7A,1746866473011
NMEA,$GBGSV,3,2,09,32,05,049,26,35,53,244,43,38,23,042,29,44,07,241,32,3*72,1746866473011
NMEA,$GBGSV,3,3,09,45,51,180,43,3*46,1746866473011
NMEA,$GBGSV,3,1,09,24,10,319,22,26,52,290,33,29,61,053,31,30,09,058,21,5*71,1746866473011
NMEA,$GBGSV,3,2,09,32,05,049,14,35,53,244,35,38,23,042,26,44,07,241,26,5*7E,1746866473011
NMEA,$GBGSV,3,3,09,45,51,180,37,5*43,1746866473011
NMEA,$GNGSA,A,3,05,16,18,26,27,28,29,31,,,,,0.6,0.4,0.4,1*3E,1746866473037
NMEA,$GNGSA,A,3,66,73,74,80,82,83,84,,,,,,0.6,0.4,0.4,2*36,1746866473037
NMEA,$GNGSA,A,3,12,23,24,26,31,33,,,,,,,0.6,0.4,0.4,3*37,1746866473037
NMEA,$GNGSA,A,3,08,13,24,26,29,30,32,35,38,44,45,,0.6,0.4,0.4,4*3F,1746866473037
NMEA,$GNVTG,,T,,M,0.0,N,0.0,K,A*3D,1746866473037
NMEA,$GNDTM,P90,,0000.000026,S,00000.000000,E,0.978,W84*5C,1746866473037
NMEA,$GNRMC,084113.00,A,4503.592389,N,00741.838845,E,0.0,,100525,3.3,E,A,V*75,1746866473037
NMEA,$GNGNS,084113.00,4503.592389,N,00741.838845,E,AAAANN,32,0.4,279.3,48.0,,,V*2D,1746866473037
NMEA,$GNGGA,084113.00,4503.592389,N,00741.838845,E,1,12,0.4,279.3,M,48.0,M,,*7F,1746866473037
NMEA,$GPGSV,3,1,11,05,21,053,24,16,37,305,35,18,74,137,30,20,02,026,26,1*6F,1746866474014
NMEA,$GPGSV,3,2,11,25,13,131,21,26,66,293,37,27,13,267,34,28,24,203,29,1*6D,1746866474014
NMEA,$GPGSV,3,3,11,29,40,066,21,31,39,228,41,23,15,143,,1*5E,1746866474014
NMEA,$GPGSV,2,1,06,18,74,137,38,26,66,293,38,27,13,267,33,28,24,203,27,8*67,1746866474014
NMEA,$GPGSV,2,2,06,23,15,143,,25,13,131,,8*6E,1746866474014
NMEA,$GLGSV,3,1,09,74,23,324,22,66,06,039,18,82,45,035,27,73,68,304,33,1*74,1746866474014
NMEA,$GLGSV,3,2,09,80,47,156,35,65,03,354,22,84,19,226,25,83,82,289,21,1*79,1746866474014
NMEA,$GLGSV,3,3,09,81,01,043,22,1*4E,1746866474014
NMEA,$GAGSV,3,1,10,05,03,297,20,10,01,209,15,12,22,202,21,23,43,123,26,7*75,1746866474014
NMEA,$GAGSV,3,2,10,24,26,305,30,26,42,051,23,31,80,311,33,33,69,150,31,7*73,1746866474014
NMEA,$GAGSV,3,3,10,03,00,000,,16,02,305,,7*72,1746866474014
NMEA,$GAGSV,3,1,10,05,03,297,17,12,22,202,18,23,43,123,29,24,26,305,29,1*72,1746866474014
NMEA,$GAGSV,3,2,10,26,42,051,31,31,80,311,34,33,69,150,35,03,00,000,,1*71,1746866474014
NMEA,$GAGSV,3,3,10,10,01,209,,16,02,305,,1*7C,1746866474014
NMEA,$GBGSV,4,1,14,45,51,180,40,44,07,241,30,38,23,042,23,35,53,244,41,1*77,1746866474014
NMEA,$GBGSV,4,2,14,32,05,049,19,30,09,058,28,29,61,053,26,26,52,290,36,1*7A,1746866474014
NMEA,$GBGSV,4,3,14,24,10,319,28,13,35,070,22,08,31,051,18,05,17,120,,1*76,1746866474014
NMEA,$GBGSV,4,4,14,36,08,154,,60,05,101,,1*7D,1746866474014
NMEA,$GBGSV,3,1,09,24,10,319,27,26,52,290,40,29,61,053,29,30,09,058,29,3*77,1746866474014
NMEA,$GBGSV,3,2,09,32,05,049,26,35,53,244,42,38,23,042,28,44,07,241,30,3*70,1746866474014
NMEA,$GBGSV,3,3,09,45,51,180,42,3*47,1746866474014
NMEA,$GBGSV,3,1,09,24,10,319,24,26,52,290,33,29,61,053,31,30,09,058,21,5*77,1746866474014
NMEA,$GBGSV,3,2,09,32,05,049,18,35,53,244,35,38,23,042,27,44,07,241,27,5*72,1746866474014
NMEA,$GBGSV,3,3,09,45,51,180,37,5*43,1746866474014
NMEA,$GNGSA,A,3,05,16,18,26,27,28,29,31,,,,,0.6,0.4,0.4,1*3E,1746866474036
NMEA,$GNGSA,A,3,66,73,74,80,82,83,84,,,,,,0.6,0.4,0.4,2*36,1746866474036
NMEA,$GNGSA,A,3,12,23,24,26,31,33,,,,,,,0.6,0.4,0.4,3*37,1746866474036
NMEA,$GNGSA,A,3,08,13,24,26,29,30,32,35,38,44,45,,0.6,0.4,0.4,4*3F,1746866474036
NMEA,$GNVTG,,T,,M,0.0,N,0.0,K,A*3D,1746866474036
NMEA,$GNDTM,P90,,0000.000026,S,00000.000000,E,0.978,W84*5C,1746866474036
NMEA,$GNRMC,084114.00,A,4503.592352,N,00741.838846,E,0.0,,100525,3.3,E,A,V*77,1746866474036
NMEA,$GNGNS,084114.00,4503.592352,N,00741.838846,E,AAAANN,32,0.4,279.3,48.0,,,V*2F,1746866474036
NMEA,$GNGGA,084114.00,4503.592352,N,00741.838846,E,1,12,0.4,279.3,M,48.0,M,,*7D,1746866474036
NMEA,$GPGSV,3,1,11,05,21,053,22,16,37,305,34,18,74,137,32,20,02,026,26,1*6A,1746866475012
NMEA,$GPGSV,3,2,11,25,13,131,21,26,66,293,37,27,13,267,33,28,24,203,29,1*6A,1746866475012
NMEA,$GPGSV,3,3,11,29,40,066,21,31,39,228,41,23,15,143,,1*5E,1746866475012
NMEA,$GPGSV,2,1,05,18,74,137,39,26,66,293,38,27,13,267,33,28,24,203,27,8*65,1746866475012
NMEA,$GPGSV,2,2,05,25,13,131,,8*5E,1746866475012
NMEA,$GLGSV,3,1,09,74,23,324,23,66,06,039,18,82,45,035,28,73,68,304,33,1*7A,1746866475012
NMEA,$GLGSV,3,2,09,80,47,156,36,65,03,354,22,84,19,226,25,83,82,289,20,1*7B,1746866475012
NMEA,$GLGSV,3,3,09,81,01,043,22,1*4E,1746866475012
NMEA,$GAGSV,3,1,10,05,03,297,20,10,01,209,15,12,22,202,22,23,43,123,27,7*77,1746866475012
NMEA,$GAGSV,3,2,10,24,26,305,31,26,42,051,25,31,80,311,34,33,69,150,32,7*70,1746866475012
NMEA,$GAGSV,3,3,10,03,00,000,,16,02,305,,7*72,1746866475012
NMEA,$GAGSV,3,1,10,05,03,297,17,12,22,202,18,23,43,123,29,24,26,305,31,1*7B,1746866475012
NMEA,$GAGSV,3,2,10,26,42,051,31,31,80,311,35,33,69,150,36,03,00,000,,1*73,1746866475012
NMEA,$GAGSV,3,3,10,10,01,209,,16,02,305,,1*7C,1746866475012
NMEA,$GBGSV,4,1,14,45,51,180,40,44,07,241,32,38,23,042,22,35,53,244,41,1*74,1746866475012
NMEA,$GBGSV,4,2,14,32,05,049,21,30,09,058,30,29,61,053,28,26,52,290,36,1*76,1746866475012
NMEA,$GBGSV,4,3,14,24,10,319,28,13,35,070,22,08,31,051,18,05,17,120,,1*76,1746866475012
NMEA,$GBGSV,4,4,14,36,08,154,,60,05,101,,1*7D,1746866475012
NMEA,$GBGSV,3,1,09,24,10,319,28,26,52,290,40,29,61,053,30,30,09,058,31,3*79,1746866475012
NMEA,$GBGSV,3,2,09,32,05,049,23,35,53,244,43,38,23,042,28,44,07,241,31,3*75,1746866475012
NMEA,$GBGSV,3,3,09,45,51,180,43,3*46,1746866475012
NMEA,$GBGSV,3,1,09,24,10,319,22,26,52,290,34,29,61,053,31,30,09,058,18,5*7C,1746866475012
NMEA,$GBGSV,3,2,09,32,05,049,18,35,53,244,36,38,23,042,28,44,07,241,27,5*7E,1746866475012
NMEA,$GBGSV,3,3,09,45,51,180,38,5*4C,1746866475012
NMEA,$GNGSA,A,3,05,16,18,26,27,28,29,31,,,,,0.6,0.4,0.4,1*3E,1746866475035
NMEA,$GNGSA,A,3,66,73,74,80,82,83,84,,,,,,0.6,0.4,0.4,2*36,1746866475035
NMEA,$GNGSA,A,3,12,23,24,26,31,33,,,,,,,0.6,0.4,0.4,3*37,1746866475035
NMEA,$GNGSA,A,3,08,13,24,26,29,30,32,35,38,44,45,,0.6,0.4,0.4,4*3F,1746866475035
NMEA,$GNVTG,,T,,M,0.0,N,0.0,K,A*3D,1746866475035
NMEA,$GNDTM,P90,,0000.000026,S,00000.000000,E,0.978,W84*5C,1746866475035
NMEA,$GNRMC,084115.00,A,4503.592300,N,00741.838841,E,0.0,,100525,3.3,E,A,V*76,1746866475035
NMEA,$GNGNS,084115.00,4503.592300,N,00741.838841,E,AAAANN,32,0.4,279.5,48.0,,,V*28,1746866475035
NMEA,$GNGGA,084115.00,4503.592300,N,00741.838841,E,1,12,0.4,279.5,M,48.0,M,,*7A,1746866475035
NMEA,$GPGSV,3,1,11,05,21,053,22,16,37,305,35,18,74,137,31,20,02,026,26,1*68,1746866476015
NMEA,$GPGSV,3,2,11,25,13,131,21,26,66,293,36,27,13,267,33,28,24,203,29,1*6B,1746866476015
NMEA,$GPGSV,3,3,11,29,40,066,20,31,39,228,41,23,15,143,,1*5F,1746866476015
NMEA,$GPGSV,2,1,06,18,74,137,39,26,66,293,39,27,13,267,33,28,24,203,28,8*68,1746866476015
NMEA,$GPGSV,2,2,06,23,15,143,,25,13,131,,8*6E,1746866476015
NMEA,$GLGSV,3,1,09,74,23,324,22,66,06,039,18,82,45,035,28,73,68,304,33,1*7B,1746866476015
NMEA,$GLGSV,3,2,09,80,47,156,37,65,03,354,22,84,19,226,25,83,82,289,22,1*78,1746866476015
NMEA,$GLGSV,3,3,09,81,01,043,22,1*4E,1746866476015
NMEA,$GAGSV,3,1,10,05,03,297,20,10,01,209,15,12,22,202,22,23,43,123,27,7*77,1746866476015
NMEA,$GAGSV,3,2,10,24,26,305,30,26,42,051,24,31,80,311,34,33,69,150,32,7*70,1746866476015
NMEA,$GAGSV,3,3,10,03,00,000,,16,02,305,,7*72,1746866476015
NMEA,$GAGSV,3,1,10,05,03,297,17,12,22,202,18,23,43,123,29,24,26,305,30,1*7A,1746866476015
NMEA,$GAGSV,3,2,10,26,42,051,31,31,80,311,35,33,69,150,36,03,00,000,,1*73,1746866476015
NMEA,$GAGSV,3,3,10,10,01,209,,16,02,305,,1*7C,1746866476015
NMEA,$GBGSV,4,1,14,45,51,180,41,44,07,241,32,38,23,042,22,35,53,244,41,1*75,1746866476015
NMEA,$GBGSV,4,2,14,32,05,049,23,30,09,058,29,29,61,053,28,26,52,290,36,1*7C,1746866476015
NMEA,$GBGSV,4,3,14,24,10,319,28,13,35,070,22,08,31,051,18,05,17,120,,1*76,1746866476015
NMEA,$GBGSV,4,4,14,36,08,154,,60,05,101,,1*7D,1746866476015
NMEA,$GBGSV,3,1,09,24,10,319,29,26,52,290,40,29,61,053,30,30,09,058,32,3*7B,1746866476015
NMEA,$GBGSV,3,2,09,32,05,049,23,35,53,244,42,38,23,042,29,44,07,241,31,3*75,1746866476015
NMEA,$GBGSV,3,3,09,45,51,180,42,3*47,1746866476015
NMEA,$GBGSV,3,1,09,24,10,319,23,26,52,290,33,29,61,053,31,30,09,058,18,5*7A,1746866476015
NMEA,$GBGSV,3,2,09,32,05,049,18,35,53,244,36,38,23,042,27,44,07,241,28,5*7E,1746866476015
NMEA,$GBGSV,3,3,09,45,51,180,38,5*4C,1746866476015
NMEA,$GNGSA,A,3,05,16,18,26,27,28,29,31,,,,,0.6,0.4,0.4,1*3E,1746866476039
NMEA,$GNGSA,A,3,66,73,74,80,82,83,84,,,,,,0.6,0.4,0.4,2*36,1746866476039
NMEA,$GNGSA,A,3,12,23,24,26,31,33,,,,,,,0.6,0.4,0.4,3*37,1746866476039
NMEA,$GNGSA,A,3,08,24,26,29,30,32,35,38,44,45,,,0.6,0.4,0.4,4*3D,1746866476039
NMEA,$GNVTG,,T,,M,0.0,N,0.0,K,A*3D,1746866476039
NMEA,$GNDTM,P90,,0000.000026,S,00000.000000,E,0.978,W84*5C,1746866476039
NMEA,$GNRMC,084116.00,A,4503.592301,N,00741.838908,E,0.0,,100525,3.3,E,A,V*78,1746866476039
NMEA,$GNGNS,084116.00,4503.592301,N,00741.838908,E,AAAANN,31,0.4,279.6,48.0,,,V*26,1746866476039
NMEA,$GNGGA,084116.00,4503.592301,N,00741.838908,E,1,12,0.4,279.6,M,48.0,M,,*77,1746866476039
NMEA,$GPGSV,3,1,11,05,21,053,21,16,37,305,34,18,74,137,31,20,02,026,26,1*6A,1746866477010
NMEA,$GPGSV,3,2,11,25,13,131,21,26,66,293,36,27,13,267,33,28,24,203,30,1*63,1746866477010
NMEA,$GPGSV,3,3,11,29,40,066,20,31,39,228,41,23,15,143,,1*5F,1746866477010
NMEA,$GPGSV,2,1,06,18,74,137,39,26,66,293,39,27,13,267,33,28,24,203,28,8*68,1746866477010
NMEA,$GPGSV,2,2,06,23,15,143,,25,13,131,,8*6E,1746866477010
NMEA,$GLGSV,3,1,09,74,23,324,22,66,06,039,18,82,45,035,26,73,68,304,34,1*72,1746866477010
NMEA,$GLGSV,3,2,09,80,47,156,37,65,03,354,22,84,19,226,26,83,82,289,22,1*7B,1746866477010
NMEA,$GLGSV,3,3,09,81,01,043,22,1*4E,1746866477010
NMEA,$GAGSV,3,1,10,05,03,297,19,10,01,209,15,12,22,202,21,23,43,123,28,7*71,1746866477010
NMEA,$GAGSV,3,2,10,24,26,305,30,26,42,051,25,31,80,311,34,33,69,150,32,7*71,1746866477010
NMEA,$GAGSV,3,3,10,03,00,000,,16,02,305,,7*72,1746866477010
NMEA,$GAGSV,3,1,10,05,03,297,17,12,22,202,19,23,43,123,29,24,26,305,31,1*7A,1746866477010
NMEA,$GAGSV,3,2,10,26,42,051,31,31,80,311,36,33,69,150,36,03,00,000,,1*70,1746866477010
NMEA,$GAGSV,3,3,10,10,01,209,,16,02,305,,1*7C,1746866477010
NMEA,$GBGSV,4,1,14,45,51,180,41,44,07,241,33,38,23,042,22,35,53,244,41,1*74,1746866477010
NMEA,$GBGSV,4,2,14,32,05,049,23,30,09,058,29,29,61,053,28,26,52,290,36,1*7C,1746866477010
NMEA,$GBGSV,4,3,14,24,10,319,28,13,35,070,22,08,31,051,18,05,17,120,,1*76,1746866477010
NMEA,$GBGSV,4,4,14,36,08,154,,60,05,101,,1*7D,1746866477010
NMEA,$GBGSV,3,1,09,24,10,319,30,26,52,290,40,29,61,053,30,30,09,058,31,3*70,1746866477010
NMEA,$GBGSV,3,2,09,32,05,049,22,35,53,244,42,38,23,042,29,44,07,241,33,3*76,1746866477010
NMEA,$GBGSV,3,3,09,45,51,180,43,3*46,1746866477010
NMEA,$GBGSV,3,1,09,24,10,319,24,26,52,290,33,29,61,053,32,30,09,058,20,5*75,1746866477010
NMEA,$GBGSV,3,2,09,32,05,049,18,35,53,244,37,38,23,042,27,44,07,241,29,5*7E,1746866477010
NMEA,$GBGSV,3,3,09,45,51,180,38,5*4C,1746866477010
NMEA,$GNGSA,A,3,05,16,18,26,27,28,29,31,,,,,0.6,0.4,0.4,1*3E,1746866477021
NMEA,$GNGSA,A,3,66,73,74,80,82,83,84,,,,,,0.6,0.4,0.4,2*36,1746866477021
NMEA,$GNGSA,A,3,12,23,24,26,31,33,,,,,,,0.6,0.4,0.4,3*37,1746866477021
NMEA,$GNGSA,A,3,08,24,26,29,30,32,35,38,44,45,,,0.6,0.4,0.4,4*3D,1746866477021
NMEA,$GNVTG,,T,,M,0.0,N,0.0,K,A*3D,1746866477021
NMEA,$GNDTM,P90,,0000.000026,S,00000.000000,E,0.978,W84*5C,1746866477021
NMEA,$GNRMC,084117.00,A,4503.592251,N,00741.838941,E,0.0,,100525,3.3,E,A,V*70,1746866477021
NMEA,$GNGNS,084117.00,4503.592251,N,00741.838941,E,AAAANN,31,0.4,279.7,48.0,,,V*2F,1746866477021
NMEA,$GNGGA,084117.00,4503.592251,N,00741.838941,E,1,12,0.4,279.7,M,48.0,M,,*7E,1746866477021
NMEA,$GPGSV,3,1,11,05,21,053,21,16,37,305,35,18,74,137,33,20,02,026,26,1*69,1746866478015
NMEA,$GPGSV,3,2,11,25,13,131,21,26,66,293,39,27,13,267,31,28,24,203,30,1*6E,1746866478015
NMEA,$GPGSV,3,3,11,29,40,066,20,31,39,228,42,23,15,143,,1*5C,1746866478015
NMEA,$GPGSV,2,1,06,18,74,137,39,26,66,293,38,27,13,267,32,28,24,203,28,8*68,1746866478015
NMEA,$GPGSV,2,2,06,23,15,143,,25,13,131,,8*6E,1746866478015
NMEA,$GLGSV,3,1,09,74,23,324,24,66,06,039,18,82,45,035,29,73,68,304,36,1*79,1746866478015
NMEA,$GLGSV,3,2,09,80,47,156,38,65,03,354,22,84,19,226,27,83,82,289,22,1*75,1746866478015
NMEA,$GLGSV,3,3,09,81,01,043,22,1*4E,1746866478015
NMEA,$GAGSV,3,1,10,05,03,297,19,12,22,202,21,23,43,123,29,24,26,305,32,7*7A,1746866478015
NMEA,$GAGSV,3,2,10,26,42,051,26,31,80,311,34,33,69,150,34,03,00,000,,7*70,1746866478015
NMEA,$GAGSV,3,3,10,10,01,209,,16,02,305,,7*7A,1746866478015
NMEA,$GAGSV,3,1,10,05,03,297,17,12,22,202,19,23,43,123,28,24,26,305,29,1*72,1746866478015
NMEA,$GAGSV,3,2,10,26,42,051,31,31,80,311,35,33,69,150,36,03,00,000,,1*73,1746866478015
NMEA,$GAGSV,3,3,10,10,01,209,,16,02,305,,1*7C,1746866478015
NMEA,$GBGSV,4,1,14,45,51,180,42,44,07,241,33,38,23,042,26,35,53,244,42,1*70,1746866478015
NMEA,$GBGSV,4,2,14,32,05,049,23,30,09,058,31,29,61,053,30,26,52,290,37,1*7D,1746866478015
NMEA,$GBGSV,4,3,14,24,10,319,30,13,35,070,22,08,31,051,18,05,17,120,,1*7F,1746866478015
NMEA,$GBGSV,4,4,14,36,08,154,,60,05,101,,1*7D,1746866478015
NMEA,$GBGSV,3,1,09,24,10,319,33,26,52,290,40,29,61,053,32,30,09,058,33,3*73,1746866478015
NMEA,$GBGSV,3,2,09,32,05,049,22,35,53,244,43,38,23,042,31,44,07,241,35,3*78,1746866478015
NMEA,$GBGSV,3,3,09,45,51,180,44,3*41,1746866478015
NMEA,$GBGSV,3,1,09,24,10,319,24,26,52,290,33,29,61,053,31,30,09,058,20,5*76,1746866478015
NMEA,$GBGSV,3,2,09,32,05,049,18,35,53,244,36,38,23,042,27,44,07,241,28,5*7E,1746866478015
NMEA,$GBGSV,3,3,09,45,51,180,38,5*4C,1746866478015
NMEA,$GNGSA,A,3,05,16,18,26,27,28,29,31,,,,,0.6,0.4,0.4,1*3E,1746866478037
NMEA,$GNGSA,A,3,66,73,74,80,82,83,84,,,,,,0.6,0.4,0.4,2*36,1746866478037
NMEA,$GNGSA,A,3,12,23,24,26,31,33,,,,,,,0.6,0.4,0.4,3*37,1746866478037
NMEA,$GNGSA,A,3,08,24,26,29,30,32,35,38,44,45,,,0.6,0.4,0.4,4*3D,1746866478037
NMEA,$GNVTG,,T,,M,0.0,N,0.0,K,A*3D,1746866478037
NMEA,$GNDTM,P90,,0000.000026,S,00000.000000,E,0.978,W84*5C,1746866478037
NMEA,$GNRMC,084118.00,A,4503.592194,N,00741.838958,E,0.0,,100525,3.3,E,A,V*7D,1746866478037
NMEA,$GNGNS,084118.00,4503.592194,N,00741.838958,E,AAAANN,31,0.4,279.9,48.0,,,V*2C,1746866478037
NMEA,$GNGGA,084118.00,4503.592194,N,00741.838958,E,1,12,0.4,279.9,M,48.0,M,,*7D,1746866478037
NMEA,$GPGSV,3,1,11,05,21,053,21,16,37,305,37,18,74,137,36,20,02,026,26,1*6E,1746866479016
NMEA,$GPGSV,3,2,11,25,13,131,21,26,66,293,40,27,13,267,32,28,24,203,32,1*61,1746866479016
NMEA,$GPGSV,3,3,11,29,40,066,25,31,39,228,42,23,15,143,,1*59,1746866479016
NMEA,$GPGSV,2,1,06,18,74,137,37,26,66,293,37,27,13,267,31,28,24,203,26,8*64,1746866479016
NMEA,$GPGSV,2,2,06,23,15,143,,25,13,131,,8*6E,1746866479016
NMEA,$GLGSV,3,1,09,74,23,324,27,66,06,039,18,82,45,035,33,73,68,304,38,1*7F,1746866479016
NMEA,$GLGSV,3,2,09,80,47,156,39,65,03,354,12,84,19,226,28,83,82,289,24,1*7E,1746866479016
NMEA,$GLGSV,3,3,09,81,01,043,22,1*4E,1746866479016
NMEA,$GAGSV,3,1,10,05,03,297,18,12,22,202,24,23,43,123,31,24,26,305,31,7*74,1746866479016
NMEA,$GAGSV,3,2,10,26,42,051,29,31,80,311,36,33,69,150,36,03,00,000,,7*7F,1746866479016
NMEA,$GAGSV,3,3,10,10,01,209,,16,02,305,,7*7A,1746866479016
NMEA,$GAGSV,3,1,10,05,03,297,17,12,22,202,20,23,43,123,30,24,26,305,26,1*7E,1746866479016
NMEA,$GAGSV,3,2,10,26,42,051,29,31,80,311,34,33,69,150,35,03,00,000,,1*78,1746866479016
NMEA,$GAGSV,3,3,10,10,01,209,,16,02,305,,1*7C,1746866479016
NMEA,$GBGSV,4,1,14,45,51,180,42,44,07,241,34,38,23,042,29,35,53,244,42,1*78,1746866479016
NMEA,$GBGSV,4,2,14,32,05,049,19,30,09,058,30,29,61,053,33,26,52,290,39,1*78,1746866479016
NMEA,$GBGSV,4,3,14,24,10,319,29,13,35,070,17,08,31,051,20,05,17,120,,1*7A,1746866479016
NMEA,$GBGSV,4,4,14,36,08,154,,60,05,101,,1*7D,1746866479016
NMEA,$GBGSV,3,1,09,24,10,319,31,26,52,290,41,29,61,053,35,30,09,058,32,3*76,1746866479016
NMEA,$GBGSV,3,2,09,32,05,049,22,35,53,244,43,38,23,042,32,44,07,241,34,3*7A,1746866479016
NMEA,$GBGSV,3,3,09,45,51,180,44,3*41,1746866479016
NMEA,$GBGSV,3,1,09,24,10,319,23,26,52,290,32,29,61,053,30,30,09,058,21,5*70,1746866479016
NMEA,$GBGSV,3,2,09,32,05,049,17,35,53,244,35,38,23,042,25,44,07,241,25,5*7D,1746866479016
NMEA,$GBGSV,3,3,09,45,51,180,37,5*43,1746866479016
NMEA,$GNGSA,A,3,05,16,18,26,27,28,29,31,,,,,0.6,0.4,0.4,1*3E,1746866479045
NMEA,$GNGSA,A,3,66,73,74,80,82,83,84,,,,,,0.6,0.4,0.4,2*36,1746866479045
NMEA,$GNGSA,A,3,12,23,24,26,31,33,,,,,,,0.6,0.4,0.4,3*37,1746866479045
NMEA,$GNGSA,A,3,08,13,24,26,29,30,32,35,38,44,45,,0.6,0.4,0.4,4*3F,1746866479045
NMEA,$GNVTG,,T,,M,0.0,N,0.0,K,A*3D,1746866479045
NMEA,$GNDTM,P90,,0000.000026,S,00000.000000,E,0.978,W84*5C,1746866479045
NMEA,$GNRMC,084119.00,A,4503.592156,N,00741.839078,E,0.0,,100525,3.3,E,A,V*78,1746866479045
NMEA,$GNGNS,084119.00,4503.592156,N,00741.839078,E,AAAANN,32,0.4,280.1,48.0,,,V*24,1746866479045
NMEA,$GNGGA,084119.00,4503.592156,N,00741.839078,E,1,12,0.4,280.1,M,48.0,M,,*76,1746866479045
NMEA,$GPGSV,3,1,11,05,21,053,18,16,37,305,36,18,74,137,35,20,02,026,26,1*66,1746866480015
NMEA,$GPGSV,3,2,11,25,13,131,21,26,66,293,39,27,13,267,28,28,24,203,32,1*64,1746866480015
NMEA,$GPGSV,3,3,11,29,40,066,26,31,39,228,43,23,15,143,,1*5B,1746866480015
NMEA,$GPGSV,2,1,06,18,74,137,38,26,66,293,38,27,13,267,30,28,24,203,27,8*64,1746866480015
NMEA,$GPGSV,2,2,06,23,15,143,,25,13,131,,8*6E,1746866480015
NMEA,$GLGSV,3,1,09,74,23,324,26,66,06,039,16,82,45,035,32,73,68,304,37,1*7E,1746866480015
NMEA,$GLGSV,3,2,09,80,47,156,35,65,03,354,12,84,19,226,28,83,82,289,24,1*72,1746866480015
NMEA,$GLGSV,3,3,09,81,01,043,22,1*4E,1746866480015
NMEA,$GAGSV,3,1,10,05,03,297,18,12,22,202,23,23,43,123,26,24,26,305,30,7*74,1746866480015
NMEA,$GAGSV,3,2,10,26,42,051,22,31,80,311,34,33,69,150,34,03,00,000,,7*74,1746866480015
NMEA,$GAGSV,3,3,10,10,01,209,,16,02,305,,7*7A,1746866480015
NMEA,$GAGSV,3,1,10,05,03,297,17,12,22,202,20,23,43,123,23,24,26,305,28,1*72,1746866480015
NMEA,$GAGSV,3,2,10,26,42,051,32,31,80,311,35,33,69,150,34,03,00,000,,1*72,1746866480015
NMEA,$GAGSV,3,3,10,10,01,209,,16,02,305,,1*7C,1746866480015
NMEA,$GBGSV,4,1,14,45,51,180,39,44,07,241,32,38,23,042,28,35,53,244,42,1*73,1746866480015
NMEA,$GBGSV,4,2,14,32,05,049,19,30,09,058,30,29,61,053,31,26,52,290,40,1*74,1746866480015
NMEA,$GBGSV,4,3,14,24,10,319,28,13,35,070,22,08,31,051,20,05,17,120,,1*7D,1746866480015
NMEA,$GBGSV,4,4,14,36,08,154,,60,05,101,,1*7D,1746866480015
NMEA,$GBGSV,3,1,09,24,10,319,32,26,52,290,42,29,61,053,34,30,09,058,33,3*76,1746866480015
NMEA,$GBGSV,3,2,09,32,05,049,22,35,53,244,43,38,23,042,31,44,07,241,33,3*7E,1746866480015
NMEA,$GBGSV,3,3,09,45,51,180,41,3*44,1746866480015
NMEA,$GBGSV,3,1,09,24,10,319,23,26,52,290,34,29,61,053,33,30,09,058,23,5*77,1746866480015
NMEA,$GBGSV,3,2,09,32,05,049,17,35,53,244,36,38,23,042,24,44,07,241,28,5*72,1746866480015
NMEA,$GBGSV,3,3,09,45,51,180,37,5*43,1746866480015
NMEA,$GNGSA,A,3,05,16,18,26,27,28,29,31,,,,,0.6,0.4,0.4,1*3E,1746866480038
NMEA,$GNGSA,A,3,66,73,74,80,82,83,84,,,,,,0.6,0.4,0.4,2*36,1746866480038
NMEA,$GNGSA,A,3,12,23,24,26,31,33,,,,,,,0.6,0.4,0.4,3*37,1746866480038
NMEA,$GNGSA,A,3,08,13,24,26,29,30,32,35,38,44,45,,0.6,0.4,0.4,4*3F,1746866480038
NMEA,$GNVTG,,T,,M,0.0,N,0.0,K,A*3D,1746866480038
NMEA,$GNDTM,P90,,0000.000026,S,00000.000000,E,0.978,W84*5C,1746866480038
NMEA,$GNRMC,084120.00,A,4503.592169,N,00741.839158,E,0.0,,100525,3.3,E,A,V*7D,1746866480038
NMEA,$GNGNS,084120.00,4503.592169,N,00741.839158,E,AAAANN,32,0.4,280.1,48.0,,,V*21,1746866480038
NMEA,$GNGGA,084120.00,4503.592169,N,00741.839158,E,1,12,0.4,280.1,M,48.0,M,,*73,1746866480038
NMEA,$GPGSV,3,1,11,05,21,053,18,16,37,305,35,18,74,137,35,20,02,026,26,1*65,1746866481013
NMEA,$GPGSV,3,2,11,25,13,131,21,26,66,293,38,27,13,267,33,28,24,203,32,1*6F,1746866481013
NMEA,$GPGSV,3,3,11,29,40,066,29,31,39,228,43,23,15,143,,1*54,1746866481013
NMEA,$GPGSV,2,1,06,18,74,137,36,26,66,293,37,27,13,267,30,28,24,203,26,8*64,1746866481013
NMEA,$GPGSV,2,2,06,23,15,143,,25,13,131,,8*6E,1746866481013
NMEA,$GLGSV,3,1,09,74,23,324,22,66,06,039,16,82,45,035,27,73,68,304,37,1*7E,1746866481013
NMEA,$GLGSV,3,2,09,80,47,156,35,65,03,354,12,84,19,226,28,83,82,289,25,1*73,1746866481013
NMEA,$GLGSV,3,3,09,81,01,043,22,1*4E,1746866481013
NMEA,$GAGSV,3,1,10,05,03,297,18,12,22,202,22,23,43,123,27,24,26,305,33,7*77,1746866481013
NMEA,$GAGSV,3,2,10,26,42,051,26,31,80,311,36,33,69,150,32,03,00,000,,7*74,1746866481013
NMEA,$GAGSV,3,3,10,10,01,209,,16,02,305,,7*7A,1746866481013
NMEA,$GAGSV,3,1,10,05,03,297,17,12,22,202,21,23,43,123,23,24,26,305,29,1*72,1746866481013
NMEA,$GAGSV,3,2,10,26,42,051,32,31,80,311,35,33,69,150,33,03,00,000,,1*75,1746866481013
NMEA,$GAGSV,3,3,10,10,01,209,,16,02,305,,1*7C,1746866481013
NMEA,$GBGSV,4,1,14,45,51,180,39,44,07,241,32,38,23,042,24,35,53,244,42,1*7F,1746866481013
NMEA,$GBGSV,4,2,14,32,05,049,19,30,09,058,29,29,61,053,34,26,52,290,40,1*79,1746866481013
NMEA,$GBGSV,4,3,14,24,10,319,23,13,35,070,25,08,31,051,21,05,17,120,,1*70,1746866481013
NMEA,$GBGSV,4,4,14,36,08,154,,60,05,101,,1*7D,1746866481013
NMEA,$GBGSV,3,1,09,24,10,319,27,26,52,290,42,29,61,053,36,30,09,058,30,3*73,1746866481013
NMEA,$GBGSV,3,2,09,32,05,049,22,35,53,244,44,38,23,042,28,44,07,241,32,3*70,1746866481013
NMEA,$GBGSV,3,3,09,45,51,180,40,3*45,1746866481013
NMEA,$GBGSV,3,1,09,24,10,319,22,26,52,290,33,29,61,053,32,30,09,058,23,5*70,1746866481013
NMEA,$GBGSV,3,2,09,32,05,049,17,35,53,244,36,38,23,042,24,44,07,241,27,5*7D,1746866481013
NMEA,$GBGSV,3,3,09,45,51,180,35,5*41,1746866481013
NMEA,$GNGSA,A,3,05,16,18,26,27,28,29,31,,,,,0.6,0.4,0.4,1*3E,1746866481033
NMEA,$GNGSA,A,3,66,73,74,80,82,83,84,,,,,,0.6,0.4,0.4,2*36,1746866481033
NMEA,$GNGSA,A,3,12,23,24,26,31,33,,,,,,,0.6,0.4,0.4,3*37,1746866481033
NMEA,$GNGSA,A,3,08,13,24,26,29,30,32,35,38,44,45,,0.6,0.4,0.4,4*3F,1746866481033
NMEA,$GNVTG,,T,,M,0.0,N,0.0,K,A*3D,1746866481033
NMEA,$GNDTM,P90,,0000.000026,S,00000.000000,E,0.978,W84*5C,1746866481033
NMEA,$GNRMC,084121.00,A,4503.592166,N,00741.839189,E,0.0,,100525,3.3,E,A,V*7F,1746866481033
NMEA,$GNGNS,084121.00,4503.592166,N,00741.839189,E,AAAANN,32,0.4,279.9,48.0,,,V*2D,1746866481033
NMEA,$GNGGA,084121.00,4503.592166,N,00741.839189,E,1,12,0.4,279.9,M,48.0,M,,*7F,1746866481033
NMEA,$GPGSV,3,1,11,05,21,053,18,16,37,305,34,18,74,137,36,20,02,026,26,1*67,1746866482022
